ID,name,address,website,opening_hours,lat,lon,rating,phone,social,Персонал,Время ожидания,Кредит,Банкомат,Расположение,load_time,city,График работы,Ипотека,Ремонт,Обслуживание,Отношение к клиентам,Страхование,Вклад,Атмосфера,Эпиляция,Чистота,Интерьер,Очереди,region
156216472392,Альфа-Банк,"Европейский просп., 8, Кудрово",,"'mon': 10:00-19:00, 'tue': 10:00-19:00, 'wed': 10:00-19:00, 'thu': 10:00-19:00, 'fri': 10:00-19:00, 'sat': выходной, 'sun': выходной, ",59.900792,30.512752,"4,5",['8 (800) 200-00-00Показать телефон'],"['http://vk.com/alfabank', 'https://ok.ru/alfabank', 'https://www.youtube.com/user/alfabankru']",86.0,87.0,,,,2024-07-23 19:10:31,Кудрово,,,,,,,,,,,,,Ленинградская область
159482750452,Альфа-Банк,"Советская ул., 51, Красноуфимск",,"'mon': 10:00-19:00, 'tue': 10:00-19:00, 'wed': 10:00-19:00, 'thu': 10:00-19:00, 'fri': 10:00-19:00, 'sat': выходной, 'sun': выходной, ",56.614684,57.766487,"4,6",['8 (800) 200-00-00Показать телефон'],"['http://vk.com/alfabank', 'https://ok.ru/alfabank', 'https://www.youtube.com/user/alfabankru']",,,,,,2024-07-23 22:11:23,Красноуфимск,,,,,,,,,,,,,Свердловская область
57365798567,Альфа-Банк,"ул. Михалевича, 1А, Раменское",alfabank.ru,"'mon': 10:00-19:00, 'tue': 10:00-19:00, 'wed': 10:00-19:00, 'thu': 10:00-19:00, 'fri': 10:00-19:00, 'sat': выходной, 'sun': выходной, ",55.568181,38.22707,"4,7",['+7 (495) 755-58-58Показать телефон'],"['https://ok.ru/alfabank', 'https://t.me/alfabank', 'https://vk.com/alfabank', 'https://www.youtube.com/user/alfabankru']",75.0,68.0,81.0,,82.0,2024-07-23 15:01:28,Раменское,,,,,,,,,,,,,Московская область
86273842073,Альфа-Банк,"просп. Автозаводцев, 61Б, Миасс",alfabank.ru,"'mon': 09:00-20:00, 'tue': 09:00-20:00, 'wed': 09:00-20:00, 'thu': 09:00-20:00, 'fri': 09:00-20:00, 'sat': 10:00-18:00, 'sun': выходной, ",55.047533,60.109105,"4,6",['8 (800) 200-00-00Показать телефон'],"['https://ok.ru/alfabank', 'https://t.me/alfabank', 'https://vk.com/alfabank', 'https://www.youtube.com/user/alfabankru']",83.0,79.0,92.0,,100.0,2024-07-23 14:05:43,Миасс,,,,,,,,,,,,,Челябинская область
179390576117,Альфа-Банк,"ул. Ленинского Комсомола, 4, Сосновоборск",alfabank.ru,"'mon': 09:00-22:59, 'tue': 09:00-22:59, 'wed': 09:00-22:59, 'thu': 09:00-22:59, 'fri': 09:00-22:59, 'sat': 09:00-22:59, 'sun': 09:00-22:59",56.122846,93.338057,,['8 (800) 200-00-00Показать телефон'],"['https://ok.ru/alfabank', 'https://t.me/alfabank', 'https://vk.com/alfabank']",,,,,,2024-07-02 20:53:51,Сосновоборск,,,,,,,,,,,,,Красноярский край
167844286369,Альфа-Банк,"Пражский бул., 2А, Гурьевск",alfabank.ru,"'mon': 06:30-22:00, 'tue': 06:30-22:00, 'wed': 06:30-22:00, 'thu': 06:30-22:00, 'fri': 06:30-22:00, 'sat': 06:30-22:00, 'sun': 06:30-22:00, ",54.760023,20.601963,,['8 (800) 200-00-00Показать телефон'],"['https://ok.ru/alfabank', 'https://vk.com/alfabank']",,,,,,2024-07-24 04:11:03,Гурьевск,,,,,,,,,,,,,Калининградская область
23928038311,Альфа-Банк,"Пражский бул., 1Ж, Гурьевск",alfabank.ru,"'mon': 07:00-23:00, 'tue': 07:00-23:00, 'wed': 07:00-23:00, 'thu': 07:00-23:00, 'fri': 07:00-23:00, 'sat': 07:00-23:00, 'sun': 07:00-23:00, ",54.761937,20.605965,,['8 (800) 200-00-00Показать телефон'],"['https://ok.ru/alfabank', 'https://t.me/alfabank', 'https://vk.com/alfabank']",,,,,,2024-07-24 04:11:03,Гурьевск,,,,,,,,,,,,,Калининградская область
115670182788,Альфа-Банк,"Советская ул., 31, Корсаков",,"'mon': 10:00-18:00, 'tue': 10:00-18:00, 'wed': 10:00-18:00, 'thu': 10:00-18:00, 'fri': 10:00-18:00, 'sat': выходной, 'sun': выходной, ",46.63210,142.7793,"4,8",['8 (800) 200-00-00Показать телефон'],"['http://vk.com/alfabank', 'https://ok.ru/alfabank', 'https://www.youtube.com/user/alfabankru']",,,,,,2024-07-23 23:10:55,Корсаков,,,,,,,,,,,,,Сахалинская область
17126988994,Альфа-Банк,"ул. Литвинова, 2, Иркутск",alfabank.ru,"'mon': 09:00-20:00, 'tue': 09:00-19:00, 'wed': выходной, 'thu': 09:00-20:00, 'fri': 09:00-20:00, 'sat': 10:00-18:00, 'sun': выходной, ",52.28424,104.28806,"4,3",['8 (800) 200-00-00Показать телефон'],"['https://ok.ru/alfabank', 'https://t.me/alfabank', 'https://vk.com/alfabank', 'https://www.youtube.com/user/alfabankru']",82.0,77.0,86.0,,79.0,2024-07-23 10:06:58,Иркутск,,93.0,,,,,,,,,,,Иркутская область
4054672646,Альфа-Банк,"ул. Кожова, 20, Иркутск",alfabank.ru,"'mon': 09:00-18:00, 'tue': 09:00-18:00, 'wed': 09:00-18:00, 'thu': 09:00-18:00, 'fri': 09:00-18:00, 'sat': выходной, 'sun': выходной, ",52.27126,104.28937,"4,5",['8 (800) 200-00-00Показать телефон'],"['https://ok.ru/alfabank', 'https://t.me/alfabank', 'https://vk.com/alfabank', 'https://www.youtube.com/user/alfabankru']",85.0,81.0,83.0,,,2024-07-23 10:06:58,Иркутск,,,,,,,,,,,,,Иркутская область
7458315971,Альфа-Банк,"ул. Лермонтова, 63, Иркутск",alfabank.ru,"'mon': 09:00-18:00, 'tue': 09:00-18:00, 'wed': 09:00-18:00, 'thu': 09:00-18:00, 'fri': 09:00-18:00, 'sat': выходной, 'sun': выходной, ",52.26957,104.25705,"4,5",['8 (800) 200-00-00Показать телефон'],"['https://ok.ru/alfabank', 'https://t.me/alfabank', 'https://vk.com/alfabank', 'https://www.youtube.com/user/alfabankru']",87.0,87.0,90.0,,100.0,2024-07-23 10:06:58,Иркутск,,,,,,,,,,,,,Иркутская область
1124757899,Альфа-Банк,"ул. Ленина, 25, Иркутск",alfabank.ru,"'mon': 09:00-20:00, 'tue': 09:00-20:00, 'wed': 09:00-20:00, 'thu': 09:00-20:00, 'fri': 09:00-20:00, 'sat': 10:00-18:00, 'sun': выходной, ",52.27677,104.28605,"4,3",['8 (800) 200-00-00Показать телефон'],"['https://ok.ru/alfabank', 'https://t.me/alfabank', 'https://vk.com/alfabank', 'https://www.youtube.com/user/alfabankru']",69.0,63.0,71.0,,69.0,2024-07-23 10:06:58,Иркутск,,,,,,,,,,,,,Иркутская область
176079913766,Альфа-Банк,"ул. Чкалова, 21, Каменка",alfabank.ru,"'mon': 09:00-18:00, 'tue': 09:00-18:00, 'wed': 09:00-18:00, 'thu': 09:00-18:00, 'fri': 09:00-18:00, 'sat': выходной, 'sun': выходной, ",53.195306,43.984607,"4,6",['8 (800) 200-00-00Показать телефон'],"['https://ok.ru/alfabank', 'https://t.me/alfabank', 'https://vk.com/alfabank', 'https://www.youtube.com/user/alfabankru']",100.0,100.0,,,,2024-07-24 06:49:15,Каменка,,,,,,,,,,,,,Пензенская область
72421910879,Альфа-Банк,"Российская ул., 23, Белая Калитва",alfabank.ru,"'mon': 07:00-20:00, 'tue': 07:00-20:00, 'wed': 07:00-20:00, 'thu': 07:00-20:00, 'fri': 07:00-20:00, 'sat': 07:00-19:00, 'sun': 07:00-19:00, ",48.174934,40.808946,,['8 (800) 200-00-00Показать телефон'],"['https://ok.ru/alfabank', 'https://t.me/alfabank', 'https://vk.com/alfabank']",,,,,,2024-07-24 03:18:15,Белая Калитва,,,,,,,,,,,,,Ростовская область
53218837201,Альфа-Банк,"ул. Энгельса, 382, Белая Калитва",alfabank.ru,"'mon': 10:00-19:00, 'tue': 10:00-19:00, 'wed': 10:00-19:00, 'thu': 10:00-19:00, 'fri': 10:00-19:00, 'sat': 00:00-23:59, 'sun': 00:00-23:59, ",48.177019,40.792775,,['8 (800) 200-00-00Показать телефон'],"['https://ok.ru/alfabank', 'https://t.me/alfabank', 'https://vk.com/alfabank']",,,,,,2024-07-24 03:18:15,Белая Калитва,,,,,,,,,,,,,Ростовская область
12540973360,Альфа-Банк,"ул. Ленина, 133, Мелеуз",alfabank.ru,"'mon': 09:00-18:00, 'tue': 09:00-18:00, 'wed': 09:00-18:00, 'thu': 09:00-18:00, 'fri': 09:00-18:00, 'sat': выходной, 'sun': выходной",52.964655,55.925948,"4,0",['8 (800) 200-00-00Показать телефон'],"['https://ok.ru/alfabank', 'https://t.me/alfabank', 'https://vk.com/alfabank', 'https://www.youtube.com/user/alfabankru']",,,,,,2024-07-02 19:13:51,Мелеуз,,,,,,,,,,,,,Республика Башкортостан
37470310783,Альфа-Банк,"ул. Попова, 23, Удомля",,"'mon': 10:00-19:00, 'tue': 10:00-19:00, 'wed': 10:00-19:00, 'thu': 10:00-19:00, 'fri': 10:00-19:00, 'sat': выходной, 'sun': выходной, ",57.872524,35.007428,"4,6",['8 (800) 200-00-00Показать телефон'],"['http://vk.com/alfabank', 'https://ok.ru/alfabank', 'https://www.youtube.com/user/alfabankru']",,,,,,2024-07-23 23:28:50,Удомля,,,,,,,,,,,,,Тверская область
164819686969,Альфа-Банк,"просп. Космонавтов, 27Б, Королёв",alfabank.ru,"'mon': 10:00-20:00, 'tue': 10:00-20:00, 'wed': 10:00-20:00, 'thu': 10:00-20:00, 'fri': 10:00-20:00, 'sat': 10:00-18:00, 'sun': выходной, ",55.91352,37.868382,"4,4",['+7 (495) 755-58-58Показать телефон'],"['https://ok.ru/alfabank', 'https://t.me/alfabank', 'https://vk.com/alfabank', 'https://www.youtube.com/user/alfabankru']",68.0,56.0,46.0,51.0,68.0,2024-07-24 00:18:20,Королёв,,,,,,6.0,,,,,,,Московская область
98563103458,Альфа-Банк,"ул. Мира, 133, Елец",alfabank.ru,"'mon': 10:00-19:00, 'tue': 10:00-19:00, 'wed': 10:00-19:00, 'thu': 10:00-19:00, 'fri': 10:00-19:00, 'sat': выходной, 'sun': выходной, ",52.625513,38.50111,"4,5",['8 (800) 200-00-00Показать телефон'],"['https://ok.ru/alfabank', 'https://t.me/alfabank', 'https://vk.com/alfabank', 'https://www.youtube.com/user/alfabankru']",84.0,88.0,,,,2024-07-23 15:39:44,Елец,,,,,,,,,,,,,Липецкая область
134295325323,Альфа-Банк,"Куйбышевский пр., 2Г, Рассказово",alfabank.ru,"'mon': 09:00-18:00, 'tue': 09:00-18:00, 'wed': 09:00-18:00, 'thu': 09:00-18:00, 'fri': 09:00-18:00, 'sat': выходной, 'sun': выходной",52.654296,41.876225,"4,6",['8 (800) 200-00-00Показать телефон'],"['https://ok.ru/alfabank', 'https://t.me/alfabank', 'https://vk.com/alfabank', 'https://www.youtube.com/user/alfabankru']",100.0,,,,,2024-07-02 20:11:39,Рассказово,,,,93.0,100.0,,,,,,,,Тамбовская область
78629804860,Альфа-Банк,"просп. Ленина, 90, Магнитогорск",alfabank.ru,"'mon': 09:00-20:00, 'tue': 09:00-20:00, 'wed': 09:00-20:00, 'thu': 09:00-20:00, 'fri': 09:00-20:00, 'sat': 10:00-18:00, 'sun': выходной, ",53.399997,58.984783,"4,5",['8 (800) 200-00-00Показать телефон'],"['https://ok.ru/alfabank', 'https://t.me/alfabank', 'https://vk.com/alfabank', 'https://www.youtube.com/user/alfabankru']",92.0,80.0,86.0,,,2024-07-23 11:11:17,Магнитогорск,,,,,,,,,,,,,Челябинская область
63671947314,Альфа-Банк,"просп. Карла Маркса, 179А, Магнитогорск",alfabank.ru,"'mon': 09:00-20:00, 'tue': 09:00-20:00, 'wed': 09:00-20:00, 'thu': 09:00-20:00, 'fri': 09:00-20:00, 'sat': 10:00-18:00, 'sun': выходной, ",53.366579,58.979536,"4,6",['8 (800) 200-00-00Показать телефон'],"['https://ok.ru/alfabank', 'https://t.me/alfabank', 'https://vk.com/alfabank', 'https://www.youtube.com/user/alfabankru']",79.0,82.0,71.0,,,2024-07-23 11:11:17,Магнитогорск,,,,,,,,,,,,,Челябинская область
1209698536,Альфа-Банк,"просп. Ленина, 51, Магнитогорск",alfabank.ru,"'mon': 10:00-20:00, 'tue': 10:00-20:00, 'wed': 10:00-20:00, 'thu': 10:00-20:00, 'fri': 10:00-20:00, 'sat': выходной, 'sun': выходной, ",53.418338,58.984917,"4,5",['8 (800) 200-00-00Показать телефон'],"['https://ok.ru/alfabank', 'https://t.me/alfabank', 'https://vk.com/alfabank', 'https://www.youtube.com/user/alfabankru']",95.0,81.0,88.0,,,2024-07-23 11:11:17,Магнитогорск,,,,,,,,,,,,,Челябинская область
59590475978,Альфа-Банк,"Трёхсвятская ул., 28, Тверь",alfabank.ru,"'mon': 09:00-19:00, 'tue': 09:00-19:00, 'wed': 09:00-19:00, 'thu': 09:00-19:00, 'fri': 09:00-19:00, 'sat': 10:00-17:00, 'sun': выходной, ",56.857445,35.911133,"4,5",['8 (800) 200-00-00Показать телефон'],"['https://ok.ru/alfabank', 'https://vk.com/alfabank', 'https://www.youtube.com/user/alfabankru']",77.0,75.0,92.0,,,2024-07-24 00:54:21,Тверь,,,,,,,,,,,,,Тверская область
1571438836,Альфа-Банк,"ул. Желябова, 3, Тверь",alfabank.ru,"'mon': 09:00-19:00, 'tue': 09:00-19:00, 'wed': 09:00-19:00, 'thu': 09:00-19:00, 'fri': 09:00-19:00, 'sat': 10:00-17:00, 'sun': выходной, ",56.854931,35.908725,"4,3",['8 (800) 200-00-00Показать телефон'],"['https://ok.ru/alfabank', 'https://t.me/alfabank', 'https://vk.com/alfabank', 'https://www.youtube.com/user/alfabankru']",70.0,48.0,78.0,63.0,74.0,2024-07-24 00:54:21,Тверь,,,,,,,,,,,,,Тверская область
174462262647,Альфа-Банк,"просп. Карла Маркса, 73, Каменск-Шахтинский",alfabank.ru,"'mon': 10:00-19:00, 'tue': 10:00-19:00, 'wed': 10:00-19:00, 'thu': 10:00-19:00, 'fri': 10:00-19:00, 'sat': выходной, 'sun': выходной, ",48.320275,40.269264,"4,4",['8 (800) 200-00-00Показать телефон'],"['https://ok.ru/alfabank', 'https://t.me/alfabank', 'https://vk.com/alfabank', 'https://www.youtube.com/user/alfabankru']",65.0,57.0,,,,2024-07-23 16:33:53,Каменск-Шахтинский,,,,,,,,,,,,,Ростовская область
92293402136,Альфа-Банк,"ул. Гагарина, 70Б, Невинномысск",alfabank.ru,"'mon': 10:00-19:00, 'tue': 10:00-19:00, 'wed': 10:00-19:00, 'thu': 10:00-19:00, 'fri': 10:00-19:00, 'sat': выходной, 'sun': выходной, ",44.624983,41.946428,"4,4",['8 (800) 200-00-00Показать телефон'],"['https://ok.ru/alfabank', 'https://t.me/alfabank', 'https://vk.com/alfabank', 'https://www.youtube.com/user/alfabankru']",80.0,67.0,,,,2024-07-23 14:59:29,Невинномысск,,,,,,,,,,,,,Ставропольский край
121955454975,Альфа-Банк,"Коммунистическая ул., 46, Сыктывкар",alfabank.ru,"'mon': 10:00-19:00, 'tue': 10:00-19:00, 'wed': 10:00-19:00, 'thu': 10:00-19:00, 'fri': 10:00-19:00, 'sat': выходной, 'sun': выходной, ",61.663127,50.810554,"4,7",['8 (800) 200-00-00Показать телефон'],"['https://ok.ru/alfabank', 'https://t.me/alfabank', 'https://vk.com/alfabank', 'https://www.youtube.com/user/alfabankru']",80.0,57.0,,,,2024-07-23 12:53:27,Сыктывкар,,,,,,,,,,,,,Республика Коми
236569593098,Альфа-Банк,"Можгинская ул., 51, Можга",,"'mon': 09:00-18:00, 'tue': 09:00-18:00, 'wed': 09:00-18:00, 'thu': 09:00-18:00, 'fri': 09:00-18:00, 'sat': выходной, 'sun': выходной",56.443065,52.214612,"4,5",['8 (800) 200-00-00Показать телефон'],"['http://vk.com/alfabank', 'https://ok.ru/alfabank', 'https://www.youtube.com/user/alfabankru']",87.0,,,,,2024-07-02 19:21:57,Можга,,,,89.0,94.0,,,,,,,,Удмуртская республика
190695527356,Альфа-Банк,"ул. Свободы, 213, Борисоглебск",alfabank.ru,"'mon': 09:00-18:00, 'tue': 09:00-18:00, 'wed': 09:00-18:00, 'thu': 09:00-18:00, 'fri': 09:00-18:00, 'sat': выходной, 'sun': выходной, ",51.367062,42.074276,"4,5",['8 (800) 200-00-00Показать телефон'],"['https://ok.ru/alfabank', 'https://t.me/alfabank', 'https://vk.com/alfabank', 'https://www.youtube.com/user/alfabankru']",,,,,,2024-07-23 19:02:51,Борисоглебск,,,,,,,,,,,,,Воронежская область
192554296468,Альфа-Банк,"ул. Космонавтов, 23, Нововоронеж",,"'mon': 09:00-18:00, 'tue': 09:00-18:00, 'wed': 09:00-18:00, 'thu': 09:00-18:00, 'fri': 09:00-18:00, 'sat': выходной, 'sun': выходной, ",51.314213,39.206818,"4,3",['8 (800) 200-00-00Показать телефон'],"['http://vk.com/alfabank', 'https://ok.ru/alfabank', 'https://www.youtube.com/user/alfabankru']",100.0,82.0,,,,2024-07-23 23:30:49,Нововоронеж,,,,,,,,,,,,,Воронежская область
18125535813,Альфа-Банк,"просп. Ленина, 27, Ухта",,"'mon': 10:00-19:00, 'tue': 10:00-19:00, 'wed': 10:00-19:00, 'thu': 10:00-19:00, 'fri': 10:00-19:00, 'sat': выходной, 'sun': выходной, ",63.56428,53.67371,"4,5",['8 (800) 200-00-00Показать телефон'],"['http://vk.com/alfabank', 'https://ok.ru/alfabank', 'https://www.youtube.com/user/alfabankru']",87.0,60.0,,,,2024-07-23 16:07:04,Ухта,,,,,,,,,,,,,Республика Коми
70312479388,Альфа-Банк,"Санкт-Петербургский просп., 29, Петергоф",alfabank.ru,"'mon': 10:00-19:00, 'tue': 10:00-19:00, 'wed': 10:00-19:00, 'thu': 10:00-19:00, 'fri': 10:00-19:00, 'sat': выходной, 'sun': выходной, ",59.879019,29.917645,"4,4",['8 (800) 200-00-00Показать телефон'],"['https://ok.ru/alfabank', 'https://t.me/alfabank', 'https://vk.com/alfabank', 'https://www.youtube.com/user/alfabankru']",81.0,75.0,,,,2024-07-23 17:05:17,Петергоф,,,,,,,,,,,,,Санкт-Петербург
136096492200,Альфа-Банк,"Всеволожский просп., 29, Всеволожск",alfabank.ru,"'mon': 10:00-19:00, 'tue': 10:00-19:00, 'wed': 10:00-19:00, 'thu': 10:00-19:00, 'fri': 10:00-19:00, 'sat': выходной, 'sun': выходной, ",60.018569,30.646511,"4,2",['8 (800) 200-00-00Показать телефон'],"['https://ok.ru/alfabank', 'https://t.me/alfabank', 'https://vk.com/alfabank', 'https://www.youtube.com/user/alfabankru']",76.0,58.0,91.0,,,2024-07-23 17:51:18,Всеволожск,,,,,,,,,,,,,Ленинградская область
79899151431,Альфа-Банк,"1, 1-й микрорайон, Нягань",alfabank.ru,"'mon': 10:00-19:00, 'tue': 10:00-19:00, 'wed': 10:00-19:00, 'thu': 10:00-19:00, 'fri': 10:00-19:00, 'sat': выходной, 'sun': выходной, ",62.145015,65.437157,"4,6",['8 (800) 200-00-00Показать телефон'],"['https://ok.ru/alfabank', 'https://t.me/alfabank', 'https://vk.com/alfabank', 'https://www.youtube.com/user/alfabankru']",95.0,100.0,,,,2024-07-23 19:31:16,Нягань,,,,,,,,,,,,,Ханты-Мансийский Автономный округ - Югра
86418285260,Альфа-Банк,"ул. Ленина, 189, Богородск",,"'mon': 09:00-18:00, 'tue': 09:00-18:00, 'wed': 09:00-18:00, 'thu': 09:00-18:00, 'fri': 09:00-18:00, 'sat': выходной, 'sun': выходной, ",56.10417,43.5168,"4,7",['8 (800) 200-00-00Показать телефон'],"['http://vk.com/alfabank', 'https://ok.ru/alfabank', 'https://www.youtube.com/user/alfabankru']",,,,,,2024-07-23 22:57:00,Богородск,,,,,,,,,,,,,Нижегородская область
166205304965,Альфа-Банк,"ул. имени В.И. Ленина, 19, Нарьян-Мар",,"'mon': 10:00-18:00, 'tue': 10:00-18:00, 'wed': 10:00-18:00, 'thu': 10:00-18:00, 'fri': 10:00-18:00, 'sat': выходной, 'sun': выходной",67.637811,53.0046,,['8 (800) 200-00-00Показать телефон'],"['http://vk.com/alfabank', 'https://ok.ru/alfabank', 'https://www.youtube.com/user/alfabankru']",,,,,,2024-07-02 19:32:11,Нарьян-Мар,,,,,,,,,,,,,Ненецкий автономный округ
56586818540,Альфа-Банк,"просп. Ленина, 64А, Кемерово",alfabank.ru,"'mon': 09:00-20:00, 'tue': 09:00-20:00, 'wed': 09:00-20:00, 'thu': 09:00-20:00, 'fri': 09:00-20:00, 'sat': 10:00-18:00, 'sun': выходной, ",55.345268,86.106934,"5,0",['8 (800) 200-00-00Показать телефон'],"['https://ok.ru/alfabank', 'https://t.me/alfabank', 'https://vk.com/alfabank', 'https://www.youtube.com/user/alfabankru']",90.0,90.0,91.0,,,2024-07-23 10:15:53,Кемерово,,,,,,,,,,,,,Кемеровская область
18035333170,Альфа-Банк,"Советский просп., 32, Кемерово",alfabank.ru,"'mon': 09:00-20:00, 'tue': 09:00-20:00, 'wed': 09:00-20:00, 'thu': 09:00-20:00, 'fri': 09:00-20:00, 'sat': 10:00-18:00, 'sun': выходной, ",55.3581,86.075412,"4,4",['8 (800) 200-00-00Показать телефон'],"['https://ok.ru/alfabank', 'https://t.me/alfabank', 'https://vk.com/alfabank', 'https://www.youtube.com/user/alfabankru']",72.0,62.0,71.0,58.0,100.0,2024-07-23 10:15:53,Кемерово,,,,,,,,,,,,,Кемеровская область
238730780400,Альфа-Банк,"бул. Строителей, 28, Кемерово",alfabank.ru,"'mon': 10:00-19:00, 'tue': 10:00-19:00, 'wed': 10:00-19:00, 'thu': 10:00-19:00, 'fri': 10:00-19:00, 'sat': выходной, 'sun': выходной, ",55.344797,86.167516,"4,6",['8 (800) 200-00-00Показать телефон'],"['https://ok.ru/alfabank', 'https://t.me/alfabank', 'https://vk.com/alfabank', 'https://www.youtube.com/user/alfabankru']",91.0,80.0,88.0,80.0,,2024-07-23 10:15:53,Кемерово,,,,,,,,,,,,,Кемеровская область
200684844802,Альфа-Банк,"ул. Коммунаров, 59, Богородицк",,"'mon': 10:00-19:00, 'tue': 10:00-19:00, 'wed': 10:00-19:00, 'thu': 10:00-19:00, 'fri': 10:00-19:00, 'sat': выходной, 'sun': выходной, ",53.770338,38.131382,"4,6",['8 (800) 200-00-00Показать телефон'],"['http://vk.com/alfabank', 'https://ok.ru/alfabank', 'https://www.youtube.com/user/alfabankru']",94.0,93.0,100.0,,,2024-07-23 23:34:50,Богородицк,,,,,,,,,,,,,Тульская область
114170656931,Альфа-Банк,"просп. Карла Маркса, 36/20, Магадан",alfabank.ru,"'mon': 10:00-19:00, 'tue': 10:00-19:00, 'wed': 10:00-19:00, 'thu': 10:00-19:00, 'fri': 10:00-19:00, 'sat': выходной, 'sun': выходной, ",59.56443,150.80295,"4,4",['8 (800) 200-00-00Показать телефон'],"['https://ok.ru/alfabank', 'https://t.me/alfabank', 'https://vk.com/alfabank', 'https://www.youtube.com/user/alfabankru']",89.0,85.0,,,,2024-07-23 16:24:53,Магадан,,,,,,,,,,,,,Магаданская область
36123461819,Альфа-Банк,"ул. Ломоносова, 64, Северодвинск",alfabank.ru,"'mon': 10:00-19:00, 'tue': 10:00-19:00, 'wed': 10:00-19:00, 'thu': 10:00-19:00, 'fri': 10:00-19:00, 'sat': выходной, 'sun': выходной, ",64.555848,39.812804,"4,4",['8 (800) 200-00-00Показать телефон'],"['https://ok.ru/alfabank', 'https://t.me/alfabank', 'https://vk.com/alfabank', 'https://www.youtube.com/user/alfabankru']",70.0,54.0,90.0,,,2024-07-23 13:48:53,Северодвинск,,,,,,,,,,,,,Архангельская область
24038638411,Альфа-Банк,"Загорская ул., 24, Дмитров",alfabank.ru,"'mon': 00:00-23:59, 'tue': 00:00-23:59, 'wed': 00:00-23:59, 'thu': 00:00-23:59, 'fri': 00:00-23:59, 'sat': 00:00-23:59, 'sun': 00:00-23:59, ",56.342311,37.51838,,['+7 (495) 755-58-58Показать телефон'],"['https://ok.ru/alfabank', 'https://vk.com/alfabank']",50.0,10.0,,,,2024-07-23 18:06:47,Дмитров,,,,,,,,,,,,,Московская область
195453003221,Альфа-Банк,"Профессиональная ул., 7, Дмитров",alfabank.ru,"'mon': 10:00-22:00, 'tue': 10:00-22:00, 'wed': 10:00-22:00, 'thu': 10:00-22:00, 'fri': 10:00-22:00, 'sat': 10:00-22:00, 'sun': 10:00-22:00, ",56.352572,37.520518,,['8 (800) 200-00-00Показать телефон'],"['https://ok.ru/alfabank', 'https://t.me/alfabank', 'https://vk.com/alfabank']",,,,,,2024-07-23 18:06:47,Дмитров,,,,,,,,,,,,,Московская область
151199915612,Альфа-Банк,"Советская ул., 199, Майкоп",alfabank.ru,"'mon': 09:00-18:00, 'tue': 09:00-18:00, 'wed': 09:00-18:00, 'thu': 09:00-18:00, 'fri': 09:00-18:00, 'sat': выходной, 'sun': выходной, ",44.605394,40.106804,"4,4",['8 (800) 200-00-00Показать телефон'],"['https://ok.ru/alfabank', 'https://t.me/alfabank', 'https://vk.com/alfabank', 'https://www.youtube.com/user/alfabankru']",65.0,50.0,,,,2024-07-23 14:18:49,Майкоп,,,,,,,,,,,,,Республика Адыгея
243253567111,Альфа-Банк,"ул. Ленина, 23, Чебаркуль",,"'mon': 09:00-18:00, 'tue': 09:00-18:00, 'wed': 09:00-18:00, 'thu': 09:00-18:00, 'fri': 09:00-18:00, 'sat': выходной, 'sun': выходной, ",54.977232,60.364577,"4,6",['8 (800) 200-00-00Показать телефон'],"['http://vk.com/alfabank', 'https://ok.ru/alfabank', 'https://www.youtube.com/user/alfabankru']",,,,,,2024-07-23 21:40:55,Чебаркуль,,,,,,,,,,,,,Челябинская область
24250231930,Альфа-Банк,"ул. Миронова, 3, Новокуйбышевск",alfabank.ru,"'mon': 10:00-19:00, 'tue': 10:00-19:00, 'wed': 10:00-19:00, 'thu': 10:00-19:00, 'fri': 10:00-19:00, 'sat': выходной, 'sun': выходной, ",53.096533,49.949501,"4,3",['8 (800) 200-00-00Показать телефон'],"['https://ok.ru/alfabank', 'https://t.me/alfabank', 'https://vk.com/alfabank', 'https://www.youtube.com/user/alfabankru']",100.0,92.0,,,,2024-07-23 15:58:07,Новокуйбышевск,,,,,,,,,,,,,Самарская область
1176165471,Альфа-Банк,"ул. Шишкина, 11, Прокопьевск",alfabank.ru,"'mon': 09:00-20:00, 'tue': 09:00-20:00, 'wed': 09:00-20:00, 'thu': 09:00-20:00, 'fri': 09:00-20:00, 'sat': 10:00-18:00, 'sun': выходной, ",53.875315,86.650325,"4,3",['8 (800) 200-00-00Показать телефон'],"['https://ok.ru/alfabank', 'https://t.me/alfabank', 'https://vk.com/alfabank', 'https://www.youtube.com/user/alfabankru']",76.0,55.0,67.0,,,2024-07-23 13:24:31,Прокопьевск,,,,,,,,,,,,,Кемеровская область
186068066518,Альфа-Банк,"ул. Маяковского, 77/6, Кинель",,"'mon': 00:00-23:59, 'tue': 00:00-23:59, 'wed': 00:00-23:59, 'thu': 00:00-23:59, 'fri': 00:00-23:59, 'sat': 00:00-23:59, 'sun': 00:00-23:59, ",53.219565,50.643108,,['8 (800) 200-00-00Показать телефон'],"['https://ok.ru/alfabank', 'https://vk.com/alfabank']",,,,,,2024-07-23 22:40:24,Кинель,,,,,,,,,,,,,Самарская область
29095476588,Альфа-Банк,"ул. Чехова, 5, Кинель",alfabank.ru,"'mon': 07:30-23:30, 'tue': 07:30-23:30, 'wed': 07:30-23:30, 'thu': 07:30-23:30, 'fri': 07:30-23:30, 'sat': 07:30-23:30, 'sun': 07:30-23:30, ",53.22081,50.644088,,['8 (800) 200-00-00Показать телефон'],"['https://ok.ru/alfabank', 'https://t.me/alfabank', 'https://vk.com/alfabank']",,,,,,2024-07-23 22:40:24,Кинель,,,,,,,,,,,,,Самарская область
206484949647,Альфа-Банк,"пер. 1905 года, 14А, Томск",alfabank.ru,"'mon': выходной, 'tue': выходной, 'wed': выходной, 'thu': выходной, 'fri': выходной, 'sat': выходной, 'sun': выходной, ",56.493765,84.950622,"4,3",['8 (800) 200-00-00Показать телефон'],"['https://ok.ru/alfabank', 'https://t.me/alfabank', 'https://vk.com/alfabank', 'https://www.youtube.com/user/alfabankru']",77.0,65.0,73.0,,,2024-07-23 10:18:35,Томск,,,,,,,,,,,,,Томская область
207217458697,Альфа-Банк,"Комсомольский просп., 53, Томск",alfabank.ru,"'mon': 09:00-20:00, 'tue': 09:00-20:00, 'wed': 09:00-20:00, 'thu': 09:00-20:00, 'fri': 09:00-20:00, 'sat': 10:00-18:00, 'sun': выходной, ",56.475678,84.980986,"4,8",['8 (800) 200-00-00Показать телефон'],"['https://ok.ru/alfabank', 'https://t.me/alfabank', 'https://vk.com/alfabank', 'https://www.youtube.com/user/alfabankru']",90.0,83.0,83.0,,100.0,2024-07-23 10:18:35,Томск,,,,,,,,,,,,,Томская область
182138474693,Альфа-Банк,"Тверская ул., 18, Томск",alfabank.ru,"'mon': 09:00-18:00, 'tue': 09:00-18:00, 'wed': 09:00-18:00, 'thu': 09:00-18:00, 'fri': 09:00-16:45, 'sat': выходной, 'sun': выходной, ",56.482926,84.971346,"4,5",['8 (800) 200-00-00Показать телефон'],"['https://ok.ru/alfabank', 'https://t.me/alfabank', 'https://vk.com/alfabank', 'https://www.youtube.com/user/alfabankru']",95.0,86.0,83.0,,,2024-07-23 10:18:35,Томск,,,,,,,,,,,,,Томская область
150401836207,Альфа-Банк,"Красноармейская ул., 101А, Томск",alfabank.ru,"'mon': 09:00-20:00, 'tue': 09:00-20:00, 'wed': 09:00-20:00, 'thu': 09:00-20:00, 'fri': 09:00-20:00, 'sat': 10:00-18:00, 'sun': выходной, ",56.462541,84.966011,"4,6",['8 (800) 200-00-00Показать телефон'],"['https://ok.ru/alfabank', 'https://t.me/alfabank', 'https://vk.com/alfabank', 'https://www.youtube.com/user/alfabankru']",89.0,86.0,74.0,,,2024-07-23 10:18:35,Томск,,,,,,,,,,,,,Томская область
124147436858,Альфа-Банк,"43, 12-й микрорайон, Губкинский",,"'mon': 10:00-19:00, 'tue': 10:00-19:00, 'wed': 10:00-19:00, 'thu': 10:00-19:00, 'fri': 10:00-19:00, 'sat': выходной, 'sun': выходной, ",64.434624,76.508408,"4,5",['8 (800) 200-00-00Показать телефон'],"['http://vk.com/alfabank', 'https://ok.ru/alfabank', 'https://www.youtube.com/user/alfabankru']",,,,,,2024-07-24 04:07:02,Губкинский,,,,,,,,,,,,,Ямало-Ненецкий автономный округ
228871289618,Альфа-Банк,"ул. 40 лет Октября, 62/4, Канск",alfabank.ru,"'mon': 10:00-19:00, 'tue': 10:00-19:00, 'wed': 10:00-19:00, 'thu': 10:00-19:00, 'fri': 10:00-19:00, 'sat': выходной, 'sun': выходной, ",56.231898,95.701004,"4,4",['8 (800) 200-00-00Показать телефон'],"['https://ok.ru/alfabank', 'https://t.me/alfabank', 'https://vk.com/alfabank', 'https://www.youtube.com/user/alfabankru']",73.0,67.0,79.0,,,2024-07-23 16:31:51,Канск,,,,,,,,,,,,,Красноярский край
164389531646,Альфа-Банк,"просп. Ленина, 198, Арзамас",alfabank.ru,"'mon': 10:00-19:00, 'tue': 10:00-19:00, 'wed': 10:00-19:00, 'thu': 10:00-19:00, 'fri': 10:00-19:00, 'sat': выходной, 'sun': выходной, ",55.401703,43.834642,"4,5",['8 (800) 200-00-00Показать телефон'],"['https://ok.ru/alfabank', 'https://t.me/alfabank', 'https://vk.com/alfabank', 'https://www.youtube.com/user/alfabankru']",,,,,,2024-07-23 15:28:35,Арзамас,,,,,,,,,,,,,Нижегородская область
152119562023,Альфа-Банк,"Красная ул., 106, Тимашевск",alfabank.ru,"'mon': 09:00-18:00, 'tue': 09:00-18:00, 'wed': 09:00-18:00, 'thu': 09:00-18:00, 'fri': 09:00-18:00, 'sat': выходной, 'sun': выходной, ",45.613387,38.933532,"4,5",['8 (800) 200-00-00Показать телефон'],"['https://ok.ru/alfabank', 'https://t.me/alfabank', 'https://vk.com/alfabank', 'https://www.youtube.com/user/alfabankru']",76.0,64.0,,,,2024-07-23 20:26:00,Тимашевск,,,,,,,,,,,,,Краснодарский край
142518814084,Альфа-Банк,"Почтовая ул., 9/2, Солнечногорск",alfabank.ru,"'mon': 10:00-19:00, 'tue': 10:00-19:00, 'wed': 10:00-19:00, 'thu': 10:00-19:00, 'fri': 10:00-19:00, 'sat': выходной, 'sun': выходной, ",56.185728,36.976328,"4,7",['+7 (495) 755-58-58Показать телефон'],"['https://ok.ru/alfabank', 'https://t.me/alfabank', 'https://vk.com/alfabank', 'https://www.youtube.com/user/alfabankru']",93.0,64.0,,,,2024-07-23 20:28:07,Солнечногорск,,,,,,,,,,,,,Московская область
17356003333,Альфа-Банк,"ул. 3-го Интернационала, 65, Кольчугино",,"'mon': 09:00-18:00, 'tue': 09:00-18:00, 'wed': 09:00-18:00, 'thu': 09:00-18:00, 'fri': 09:00-18:00, 'sat': выходной, 'sun': выходной, ",56.297343,39.379322,"4,7",['8 (800) 200-00-00Показать телефон'],"['http://vk.com/alfabank', 'https://ok.ru/alfabank', 'https://www.youtube.com/user/alfabankru']",,,,,,2024-07-24 07:19:04,Кольчугино,,,,,,,,,,,,,Владимирская область
109805736525,Альфа-Банк,"ул. Цвиллинга, 105А, Соль-Илецк",alfabank.ru,"'mon': 00:00-23:59, 'tue': 00:00-23:59, 'wed': 00:00-23:59, 'thu': 00:00-23:59, 'fri': 00:00-23:59, 'sat': 00:00-23:59, 'sun': 00:00-23:59",51.158687,54.98057,,['8 (800) 200-00-00Показать телефон'],"['https://ok.ru/alfabank', 'https://t.me/alfabank', 'https://vk.com/alfabank']",,,,,,2024-07-02 20:49:09,Соль-Илецк,,,,,,,,,,,,,Оренбургская область
3746928462,Альфа-Банк,"Советская ул., 48, Соль-Илецк",alfabank.ru,"'mon': 09:00-18:00, 'tue': 09:00-18:00, 'wed': 09:00-18:00, 'thu': 09:00-18:00, 'fri': 09:00-18:00, 'sat': выходной, 'sun': выходной",51.163076,54.993271,,['8 (800) 200-00-00Показать телефон'],"['https://ok.ru/alfabank', 'https://vk.com/alfabank']",,,,,,2024-07-02 20:49:09,Соль-Илецк,,,,,,,,,,,,,Оренбургская область
238245742657,Альфа-Банк,"Вокзальная ул., 81, Соль-Илецк",alfabank.ru,"'mon': 08:00-22:00, 'tue': 08:00-22:00, 'wed': 08:00-22:00, 'thu': 08:00-22:00, 'fri': 08:00-22:00, 'sat': 08:00-22:00, 'sun': 08:00-22:00",51.170333,54.986544,,['8 (800) 200-00-00Показать телефон'],"['https://ok.ru/alfabank', 'https://t.me/alfabank', 'https://vk.com/alfabank']",,,,,,2024-07-02 20:49:09,Соль-Илецк,,,,,,,,,,,,,Оренбургская область
71702481444,Альфа-Банк,"ул. Ленина, 5, Реж",alfabank.ru,"'mon': 10:00-19:00, 'tue': 10:00-19:00, 'wed': 10:00-19:00, 'thu': 10:00-19:00, 'fri': 10:00-19:00, 'sat': выходной, 'sun': выходной",57.372792,61.390651,"4,4",['8 (800) 200-00-00Показать телефон'],"['https://ok.ru/alfabank', 'https://t.me/alfabank', 'https://vk.com/alfabank', 'https://www.youtube.com/user/alfabankru']",93.0,100.0,,,,2024-07-02 20:13:35,Реж,,,,95.0,95.0,,,,,,,,Свердловская область
11589190202,Альфа-Банк,"Калининская ул., 24, Арсеньев",alfabank.ru,"'mon': 10:00-19:00, 'tue': 10:00-19:00, 'wed': 10:00-19:00, 'thu': 10:00-19:00, 'fri': 10:00-19:00, 'sat': выходной, 'sun': выходной, ",44.16242,133.26921,"4,3",['8 (800) 200-00-00Показать телефон'],"['https://ok.ru/alfabank', 'https://t.me/alfabank', 'https://vk.com/alfabank', 'https://www.youtube.com/user/alfabankru']",100.0,100.0,,,,2024-07-23 20:17:54,Арсеньев,,,,,,,,,,,,,Приморский край
162226918436,Альфа-Банк,"ул. Николаева, 8, Смоленск",alfabank.ru,"'mon': 09:00-19:00, 'tue': 09:00-19:00, 'wed': 09:00-19:00, 'thu': 09:00-19:00, 'fri': 09:00-19:00, 'sat': 10:00-18:00, 'sun': выходной, ",54.774068,32.042035,"4,6",['8 (800) 200-00-00Показать телефон'],"['https://ok.ru/alfabank', 'https://t.me/alfabank', 'https://vk.com/alfabank', 'https://www.youtube.com/user/alfabankru']",80.0,62.0,73.0,60.0,92.0,2024-07-23 11:39:01,Смоленск,,,,,,,,,,,,,Смоленская область
166348763681,Альфа-Банк,"ул. Орджоникидзе, 40, Усолье-Сибирское",alfabank.ru,"'mon': 10:00-19:00, 'tue': 10:00-19:00, 'wed': 10:00-19:00, 'thu': 10:00-19:00, 'fri': 10:00-19:00, 'sat': выходной, 'sun': выходной, ",52.75322,103.65681,"4,4",['8 (800) 200-00-00Показать телефон'],"['https://ok.ru/alfabank', 'https://t.me/alfabank', 'https://vk.com/alfabank', 'https://www.youtube.com/user/alfabankru']",76.0,50.0,,,,2024-07-23 17:15:15,Усолье-Сибирское,,,,,,,,,,,,,Иркутская область
242580843517,Альфа-Банк,"ул. Мира, 31, Чернушка",alfabank.ru,"'mon': 10:00-19:00, 'tue': 10:00-19:00, 'wed': 10:00-19:00, 'thu': 10:00-19:00, 'fri': 10:00-19:00, 'sat': выходной, 'sun': выходной",56.515633,56.074574,"4,3",['8 (800) 200-00-00Показать телефон'],['https://t.me/alfabank'],89.0,100.0,70.0,,,2024-07-02 21:59:12,Чернушка,,,,91.0,89.0,,,,,,,,Пермский край
80940794246,Альфа-Банк,"Комсомольский просп., 49, Пермь",alfabank.ru,"'mon': 10:00-19:00, 'tue': 10:00-19:00, 'wed': 10:00-19:00, 'thu': 10:00-19:00, 'fri': 10:00-19:00, 'sat': 10:00-17:00, 'sun': выходной, ",58.001343,56.247436,"4,5",['8 (800) 200-00-00Показать телефон'],"['https://ok.ru/alfabank', 'https://t.me/AlfaBank', 'https://vk.com/alfabank', 'https://www.youtube.com/user/alfabankru']",78.0,77.0,68.0,75.0,100.0,2024-07-23 09:43:40,Пермь,,,,,,,,,,,,,Пермский край
199133622801,Альфа-Банк,"ул. Ленина, 66, Пермь",alfabank.ru,"'mon': 10:00-20:00, 'tue': 10:00-20:00, 'wed': 10:00-20:00, 'thu': 10:00-20:00, 'fri': 10:00-20:00, 'sat': 10:00-18:00, 'sun': выходной, ",58.008943,56.229129,"4,4",['8 (800) 200-00-00Показать телефон'],"['https://ok.ru/alfabank', 'https://t.me/alfabank', 'https://vk.com/alfabank', 'https://www.youtube.com/user/alfabankru']",77.0,68.0,76.0,33.0,91.0,2024-07-23 09:43:40,Пермь,,,,,,,,,,,,,Пермский край
121145477976,Альфа-Банк,"Уинская ул., 9, Пермь",alfabank.ru,"'mon': 10:00-19:00, 'tue': 10:00-19:00, 'wed': 10:00-19:00, 'thu': 10:00-19:00, 'fri': 10:00-19:00, 'sat': выходной, 'sun': выходной, ",58.006784,56.304597,"4,4",['8 (800) 200-00-00Показать телефон'],"['https://ok.ru/alfabank', 'https://t.me/alfabank', 'https://vk.com/alfabank', 'https://www.youtube.com/user/alfabankru']",84.0,79.0,87.0,91.0,100.0,2024-07-23 09:43:40,Пермь,,,,,,,,,,,,,Пермский край
156790419524,Альфа-Банк,"Пермская ул., 17, Пермь",alfabank.ru,"'mon': 09:00-18:00, 'tue': 09:00-18:00, 'wed': 09:00-18:00, 'thu': 09:00-18:00, 'fri': 09:00-16:45, 'sat': выходной, 'sun': выходной, ",58.015056,56.255162,"4,8",['8 (800) 200-00-00Показать телефон'],"['https://ok.ru/alfabank', 'https://t.me/alfabank', 'https://vk.com/alfabank', 'https://www.youtube.com/user/alfabankru']",97.0,88.0,98.0,,,2024-07-23 09:43:40,Пермь,,83.0,,,,,,,,,,,Пермский край
1508016306,Альфа-Банк,"Автозаводская ул., 44А, Пермь",alfabank.ru,"'mon': 10:00-19:00, 'tue': 10:00-19:00, 'wed': 10:00-19:00, 'thu': 10:00-19:00, 'fri': 10:00-19:00, 'sat': выходной, 'sun': выходной, ",58.006693,55.949339,"4,6",['8 (800) 200-00-00Показать телефон'],"['https://ok.ru/alfabank', 'https://t.me/alfabank', 'https://vk.com/alfabank', 'https://www.youtube.com/user/alfabankru']",93.0,94.0,97.0,,92.0,2024-07-23 09:43:40,Пермь,,,,,,,,,,,,,Пермский край
202115149010,Альфа-Банк,"ул. Мира, 70, Пермь",alfabank.ru,"'mon': 09:00-20:00, 'tue': 09:00-20:00, 'wed': 09:00-20:00, 'thu': 09:00-20:00, 'fri': 09:00-20:00, 'sat': 10:00-18:00, 'sun': выходной, ",57.979178,56.188031,"4,4",['8 (800) 200-00-00Показать телефон'],"['https://ok.ru/alfabank', 'https://t.me/alfabank', 'https://vk.com/alfabank', 'https://www.youtube.com/user/alfabankru']",85.0,80.0,81.0,75.0,89.0,2024-07-23 09:43:40,Пермь,,,,,,,,,,,,,Пермский край
1001810141,Альфа-Банк,"Советская ул., 45, Пермь",alfabank.ru,"'mon': 09:00-19:00, 'tue': 09:00-19:00, 'wed': 09:00-19:00, 'thu': 09:00-19:00, 'fri': 09:00-19:00, 'sat': выходной, 'sun': выходной, ",58.014767,56.238624,"4,4",['8 (800) 200-00-00Показать телефон'],"['https://ok.ru/alfabank', 'https://t.me/alfabank', 'https://vk.com/alfabank', 'https://www.youtube.com/user/alfabankru']",86.0,87.0,85.0,82.0,100.0,2024-07-23 09:43:40,Пермь,,,,,,,,,,,,,Пермский край
170337389437,Альфа-Банк,"ул. Свердлова, 10, Качканар",alfabank.ru,"'mon': 10:00-19:00, 'tue': 10:00-19:00, 'wed': 10:00-19:00, 'thu': 10:00-19:00, 'fri': 10:00-19:00, 'sat': выходной, 'sun': выходной, ",58.70554,59.483267,"4,5",['8 (800) 200-00-00Показать телефон'],"['https://ok.ru/alfabank', 'https://t.me/alfabank', 'https://vk.com/alfabank', 'https://www.youtube.com/user/alfabankru']",,,,,,2024-07-23 22:03:27,Качканар,,,,,,,,,,,,,Свердловская область
116369825983,Альфа-Банк,"Большая Конюшенная ул., 19/8, Санкт-Петербург",alfabank.ru,"'mon': 10:00-19:00, 'tue': 10:00-19:00, 'wed': 10:00-19:00, 'thu': 10:00-19:00, 'fri': 10:00-19:00, 'sat': выходной, 'sun': выходной, ",59.938631,30.323037,"4,3",['8 (800) 200-00-00Показать телефон'],"['https://ok.ru/alfabank', 'https://t.me/alfabank', 'https://vk.com/alfabank', 'https://www.youtube.com/user/alfabankru']",55.0,55.0,45.0,38.0,89.0,2024-07-24 00:40:01,Санкт-Петербург,40.0,71.0,,,,44.0,,,,,,,Санкт-Петербург
23326474020,Альфа-Банк,"7-я линия Васильевского острова, 54, Санкт-Петербург",alfabank.ru,"'mon': 10:00-20:00, 'tue': 10:00-20:00, 'wed': 10:00-20:00, 'thu': 10:00-20:00, 'fri': 10:00-20:00, 'sat': 10:00-18:00, 'sun': выходной, ",59.943616,30.277564,"4,2",['8 (800) 200-00-00Показать телефон'],"['https://ok.ru/alfabank', 'https://t.me/alfabank', 'https://vk.com/alfabank', 'https://www.youtube.com/user/alfabankru']",68.0,62.0,60.0,47.0,93.0,2024-07-24 00:40:01,Санкт-Петербург,,,,,,30.0,,,,,,,Санкт-Петербург
1002389822,Альфа-Банк,"Лиговский просп., 73, Санкт-Петербург",alfabank.ru,"'mon': 10:00-20:00, 'tue': 10:00-20:00, 'wed': 10:00-20:00, 'thu': 10:00-20:00, 'fri': 10:00-20:00, 'sat': 10:00-18:00, 'sun': 12:00-17:00, ",59.925737,30.357074,"4,3",['8 (800) 200-00-00Показать телефон'],"['https://ok.ru/alfabank', 'https://t.me/alfabank', 'https://vk.com/alfabank', 'https://www.youtube.com/user/alfabankru']",54.0,43.0,55.0,58.0,88.0,2024-07-24 00:40:01,Санкт-Петербург,46.0,,,,,,,,,,,,Санкт-Петербург
1721010044,Альфа-Банк,"Дачный просп., 17, корп. 3, Санкт-Петербург",alfabank.ru,"'mon': 10:00-20:00, 'tue': 10:00-20:00, 'wed': 10:00-20:00, 'thu': 10:00-20:00, 'fri': 10:00-20:00, 'sat': 10:00-18:00, 'sun': выходной, ",59.84391,30.249491,"4,3",['8 (800) 200-00-00Показать телефон'],"['https://ok.ru/alfabank', 'https://t.me/alfabank', 'https://vk.com/alfabank', 'https://www.youtube.com/user/alfabankru']",66.0,43.0,74.0,44.0,77.0,2024-07-24 00:40:01,Санкт-Петербург,50.0,100.0,,,,,,,,,,,Санкт-Петербург
168649361395,Альфа-Банк,"Малый просп. Петроградской стороны, 87, Санкт-Петербург",alfabank.ru,"'mon': 09:00-18:00, 'tue': 09:00-18:00, 'wed': 09:00-18:00, 'thu': 09:00-18:00, 'fri': 09:00-18:00, 'sat': выходной, 'sun': выходной, ",59.966714,30.307666,"4,4",['8 (800) 200-00-00Показать телефон'],"['https://ok.ru/alfabank', 'https://t.me/alfabank', 'https://vk.com/alfabank', 'https://www.youtube.com/user/alfabankru']",80.0,68.0,64.0,,100.0,2024-07-24 00:40:01,Санкт-Петербург,,84.0,,,,,,,,,,,Санкт-Петербург
233849538090,Альфа-Банк,"Фурштатская ул., 40, Санкт-Петербург",alfabank.ru,"'mon': 10:00-19:00, 'tue': 10:00-19:00, 'wed': 10:00-19:00, 'thu': 10:00-19:00, 'fri': 10:00-19:00, 'sat': выходной, 'sun': выходной, ",59.945387,30.360838,"4,3",['8 (800) 200-00-00Показать телефон'],"['https://ok.ru/alfabank', 'https://t.me/alfabank', 'https://vk.com/alfabank', 'https://www.youtube.com/user/alfabankru']",84.0,89.0,92.0,73.0,88.0,2024-07-24 00:40:01,Санкт-Петербург,46.0,100.0,,,,,,,,,,,Санкт-Петербург
147486959671,Альфа-Банк,"просп. Большевиков, 2Б, Санкт-Петербург",alfabank.ru,"'mon': 10:00-20:00, 'tue': 10:00-20:00, 'wed': 10:00-20:00, 'thu': 10:00-20:00, 'fri': 10:00-20:00, 'sat': 10:00-18:00, 'sun': выходной, ",59.919355,30.472499,"4,3",['8 (800) 200-00-00Показать телефон'],"['https://ok.ru/alfabank', 'https://t.me/alfabank', 'https://vk.com/alfabank', 'https://www.youtube.com/user/alfabankru']",62.0,45.0,62.0,72.0,91.0,2024-07-24 00:40:01,Санкт-Петербург,27.0,,,,,,,,,,,,Санкт-Петербург
114955861641,Альфа-Банк,"Ленинский просп., 130/6, Санкт-Петербург",alfabank.ru,"'mon': 10:00-20:00, 'tue': 10:00-20:00, 'wed': 10:00-20:00, 'thu': 10:00-20:00, 'fri': 10:00-20:00, 'sat': 10:00-18:00, 'sun': выходной, ",59.852294,30.271123,"4,3",['8 (800) 200-00-00Показать телефон'],"['https://ok.ru/alfabank', 'https://t.me/alfabank', 'https://vk.com/alfabank', 'https://www.youtube.com/user/alfabankru']",62.0,50.0,50.0,60.0,89.0,2024-07-24 00:40:01,Санкт-Петербург,,,,,,,,,,,,,Санкт-Петербург
106303811229,Альфа-Банк,"Московский просп., 94, Санкт-Петербург",alfabank.ru,"'mon': 09:00-18:00, 'tue': 09:00-18:00, 'wed': 09:00-18:00, 'thu': 09:00-18:00, 'fri': 09:00-16:45, 'sat': выходной, 'sun': выходной, ",59.901743,30.319515,"4,4",['8 (800) 200-00-00Показать телефон'],"['https://ok.ru/alfabank', 'https://t.me/alfabank', 'https://vk.com/alfabank', 'https://www.youtube.com/user/alfabankru']",88.0,85.0,89.0,55.0,83.0,2024-07-24 00:40:01,Санкт-Петербург,,69.0,,,,,,,,,,,Санкт-Петербург
1217113671,Альфа-Банк,"ул. Академика Лебедева, 31, Санкт-Петербург",alfabank.ru,"'mon': выходной, 'tue': выходной, 'wed': выходной, 'thu': выходной, 'fri': выходной, 'sat': выходной, 'sun': выходной, ",59.958782,30.353651,"4,2",['8 (800) 200-00-00Показать телефон'],"['https://ok.ru/alfabank', 'https://t.me/alfabank', 'https://vk.com/alfabank', 'https://www.youtube.com/user/alfabankru']",79.0,75.0,63.0,36.0,100.0,2024-07-24 00:40:01,Санкт-Петербург,,,,,,,,,,,,,Санкт-Петербург
29393631748,Альфа-Банк,"Каменноостровский просп., 41, Санкт-Петербург",alfabank.ru,"'mon': 10:00-20:00, 'tue': 10:00-20:00, 'wed': 10:00-20:00, 'thu': 10:00-20:00, 'fri': 10:00-20:00, 'sat': 10:00-18:00, 'sun': выходной, ",59.968308,30.309508,"4,3",['8 (800) 200-00-00Показать телефон'],"['https://ok.ru/alfabank', 'https://t.me/alfabank', 'https://vk.com/alfabank', 'https://www.youtube.com/user/alfabankru']",74.0,61.0,62.0,61.0,95.0,2024-07-24 00:40:01,Санкт-Петербург,,,,,,,,,,,,,Санкт-Петербург
28477128015,Альфа-Банк,"Средний просп. Васильевского острова, 33, Санкт-Петербург",alfabank.ru,"'mon': 10:00-19:00, 'tue': 10:00-19:00, 'wed': 10:00-19:00, 'thu': 10:00-19:00, 'fri': 10:00-19:00, 'sat': выходной, 'sun': выходной, ",59.943034,30.277429,"4,8",['8 (800) 200-00-00Показать телефон'],"['https://ok.ru/alfabank', 'https://t.me/alfabank', 'https://vk.com/alfabank', 'https://www.youtube.com/user/alfabankru']",93.0,98.0,95.0,,91.0,2024-07-24 00:40:01,Санкт-Петербург,,,,,,,,,,,,,Санкт-Петербург
61843499886,Альфа-Банк,"просп. Стачек, 47Е, Санкт-Петербург",alfabank.ru,"'mon': 10:00-20:00, 'tue': 10:00-20:00, 'wed': 10:00-20:00, 'thu': 10:00-20:00, 'fri': 10:00-20:00, 'sat': 10:00-18:00, 'sun': выходной, ",59.880523,30.260415,"4,3",['8 (800) 200-00-00Показать телефон'],"['https://ok.ru/alfabank', 'https://t.me/alfabank', 'https://vk.com/alfabank', 'https://www.youtube.com/user/alfabankru']",64.0,47.0,67.0,,90.0,2024-07-24 00:40:01,Санкт-Петербург,,,,,,,,,,,,,Санкт-Петербург
145369459040,Альфа-Банк,"ул. Полярников, 6, Санкт-Петербург",alfabank.ru,"'mon': 10:00-20:00, 'tue': 10:00-20:00, 'wed': 10:00-20:00, 'thu': 10:00-20:00, 'fri': 10:00-20:00, 'sat': 10:00-18:00, 'sun': выходной, ",59.876337,30.438102,"4,4",['8 (800) 200-00-00Показать телефон'],"['https://ok.ru/alfabank', 'https://t.me/alfabank', 'https://vk.com/alfabank', 'https://www.youtube.com/user/alfabankru']",74.0,66.0,47.0,56.0,92.0,2024-07-24 00:40:01,Санкт-Петербург,,,,,,,,,,,,,Санкт-Петербург
150890656386,Альфа-Банк,"ул. Савушкина, 127, Санкт-Петербург",alfabank.ru,"'mon': 10:00-20:00, 'tue': 10:00-20:00, 'wed': 10:00-20:00, 'thu': 10:00-20:00, 'fri': 10:00-20:00, 'sat': 10:00-18:00, 'sun': выходной, ",59.987303,30.219281,"4,4",['8 (800) 200-00-00Показать телефон'],"['https://ok.ru/alfabank', 'https://t.me/alfabank', 'https://vk.com/alfabank', 'https://www.youtube.com/user/alfabankru']",73.0,63.0,76.0,69.0,100.0,2024-07-24 00:40:01,Санкт-Петербург,,70.0,,,,,,,,,,,Санкт-Петербург
110155439929,Альфа-Банк,"просп. Науки, 14, корп. 1, Санкт-Петербург",alfabank.ru,"'mon': 10:00-20:00, 'tue': 10:00-20:00, 'wed': 10:00-20:00, 'thu': 10:00-20:00, 'fri': 10:00-20:00, 'sat': 10:00-18:00, 'sun': выходной, ",60.012229,30.402942,"4,2",['8 (800) 200-00-00Показать телефон'],"['https://ok.ru/alfabank', 'https://t.me/alfabank', 'https://vk.com/alfabank', 'https://www.youtube.com/user/alfabankru']",56.0,39.0,49.0,50.0,100.0,2024-07-24 00:40:01,Санкт-Петербург,25.0,,,,,,,,,,,,Санкт-Петербург
213436423192,Альфа-Банк,"Комендантский просп., 13, корп. 1, Санкт-Петербург",alfabank.ru,"'mon': 10:00-20:00, 'tue': 10:00-20:00, 'wed': 10:00-20:00, 'thu': 10:00-20:00, 'fri': 10:00-20:00, 'sat': 10:00-18:00, 'sun': выходной, ",60.009049,30.259778,"4,4",['8 (800) 200-00-00Показать телефон'],"['https://ok.ru/alfabank', 'https://t.me/alfabank', 'https://vk.com/alfabank', 'https://www.youtube.com/user/alfabankru']",64.0,54.0,75.0,,95.0,2024-07-24 00:40:01,Санкт-Петербург,,,,,,,,,,,,,Санкт-Петербург
241500614569,Альфа-Банк,"Бухарестская ул., 74, корп. 3, Санкт-Петербург",alfabank.ru,"'mon': 10:00-20:00, 'tue': 10:00-20:00, 'wed': 10:00-20:00, 'thu': 10:00-20:00, 'fri': 10:00-20:00, 'sat': 10:00-18:00, 'sun': выходной, ",59.871346,30.381625,"4,3",['8 (800) 200-00-00Показать телефон'],"['https://ok.ru/alfabank', 'https://t.me/alfabank', 'https://vk.com/alfabank', 'https://www.youtube.com/user/alfabankru']",73.0,61.0,73.0,76.0,96.0,2024-07-24 00:40:01,Санкт-Петербург,54.0,,71.0,,,,,,,,,,Санкт-Петербург
38545066257,Альфа-Банк,"просп. Тореза, 9, Санкт-Петербург",alfabank.ru,"'mon': 10:00-20:00, 'tue': 10:00-20:00, 'wed': 10:00-20:00, 'thu': 10:00-20:00, 'fri': 10:00-20:00, 'sat': 10:00-18:00, 'sun': выходной, ",60.000263,30.364081,"4,7",['8 (800) 200-00-00Показать телефон'],"['https://ok.ru/alfabank', 'https://t.me/alfabank', 'https://vk.com/alfabank', 'https://www.youtube.com/user/alfabankru']",84.0,82.0,95.0,64.0,100.0,2024-07-24 00:40:01,Санкт-Петербург,,,,,,,,,,,,,Санкт-Петербург
1047989075,Альфа-Банк,"Новочеркасский просп., 43/17, Санкт-Петербург",alfabank.ru,"'mon': 10:00-20:00, 'tue': 10:00-20:00, 'wed': 10:00-20:00, 'thu': 10:00-20:00, 'fri': 10:00-20:00, 'sat': 10:00-18:00, 'sun': выходной, ",59.928217,30.41126,"4,3",['8 (800) 200-00-00Показать телефон'],"['https://ok.ru/alfabank', 'https://t.me/alfabank', 'https://vk.com/alfabank', 'https://www.youtube.com/user/alfabankru']",68.0,62.0,57.0,67.0,85.0,2024-07-24 00:40:01,Санкт-Петербург,,,,,,,,,,,,,Санкт-Петербург
104806149902,Альфа-Банк,"просп. Энгельса, 139/21, Санкт-Петербург",alfabank.ru,"'mon': 10:00-20:00, 'tue': 10:00-20:00, 'wed': 10:00-20:00, 'thu': 10:00-20:00, 'fri': 10:00-20:00, 'sat': 10:00-18:00, 'sun': выходной, ",60.051499,30.335119,"4,2",['8 (800) 200-00-00Показать телефон'],"['https://ok.ru/alfabank', 'https://t.me/alfabank', 'https://vk.com/alfabank', 'https://www.youtube.com/user/alfabankru']",56.0,34.0,72.0,59.0,90.0,2024-07-24 00:40:01,Санкт-Петербург,,77.0,,,,,,,,,,,Санкт-Петербург
88699231578,Альфа-Банк,"просп. Просвещения, 84, корп. 1, Санкт-Петербург",alfabank.ru,"'mon': 10:00-20:00, 'tue': 10:00-20:00, 'wed': 10:00-20:00, 'thu': 10:00-20:00, 'fri': 10:00-20:00, 'sat': 10:00-18:00, 'sun': выходной, ",60.03683,30.415554,"4,3",['8 (800) 200-00-00Показать телефон'],"['https://ok.ru/alfabank', 'https://t.me/alfabank', 'https://vk.com/alfabank', 'https://www.youtube.com/user/alfabankru']",62.0,51.0,69.0,54.0,85.0,2024-07-24 00:40:01,Санкт-Петербург,,,,,,,,,,,,,Санкт-Петербург
240697104736,Альфа-Банк,"Коломяжский просп., 15, корп. 2, Санкт-Петербург",alfabank.ru,"'mon': 10:00-20:00, 'tue': 10:00-20:00, 'wed': 10:00-20:00, 'thu': 10:00-20:00, 'fri': 10:00-20:00, 'sat': 10:00-18:00, 'sun': выходной, ",60.001671,30.299321,"4,4",['8 (800) 200-00-00Показать телефон'],"['https://ok.ru/alfabank', 'https://t.me/alfabank', 'https://vk.com/alfabank', 'https://www.youtube.com/user/alfabankru']",63.0,47.0,84.0,,92.0,2024-07-24 00:40:01,Санкт-Петербург,,,,,,,,,,,,,Санкт-Петербург
128302706783,Альфа-Банк,"просп. Большевиков, 21, Санкт-Петербург",alfabank.ru,"'mon': выходной, 'tue': выходной, 'wed': выходной, 'thu': выходной, 'fri': выходной, 'sat': выходной, 'sun': выходной, ",59.905154,30.483009,"4,3",['8 (800) 200-00-00Показать телефон'],"['https://ok.ru/alfabank', 'https://t.me/alfabank', 'https://vk.com/alfabank', 'https://www.youtube.com/user/alfabankru']",69.0,51.0,81.0,57.0,83.0,2024-07-24 00:40:01,Санкт-Петербург,,,,,,,,,,,,,Санкт-Петербург
1378806523,Альфа-Банк,"Новокрюковская ул., 1824, Зеленоград",alfabank.ru,"'mon': 10:00-20:00, 'tue': 10:00-20:00, 'wed': 10:00-20:00, 'thu': 10:00-20:00, 'fri': 10:00-20:00, 'sat': 10:00-18:00, 'sun': выходной, ",55.982079,37.168172,"4,3",['+7 (495) 755-58-58Показать телефон'],"['https://ok.ru/alfabank', 'https://t.me/alfabank', 'https://vk.com/alfabank', 'https://www.youtube.com/user/alfabankru']",57.0,35.0,35.0,47.0,60.0,2024-07-23 12:18:12,Зеленоград,35.0,,,,,10.0,,,,,,,Москва
154545673516,Альфа-Банк,"ул. Ленина, 218, Южно-Сахалинск",alfabank.ru,"'mon': 09:00-19:00, 'tue': 09:00-19:00, 'wed': 09:00-19:00, 'thu': 09:00-19:00, 'fri': 09:00-19:00, 'sat': 10:00-16:00, 'sun': выходной, ",46.95977,142.72899,"4,7",['8 (800) 200-00-00Показать телефон'],"['https://ok.ru/alfabank', 'https://t.me/alfabank', 'https://vk.com/alfabank', 'https://www.youtube.com/user/alfabankru']",90.0,69.0,100.0,,91.0,2024-07-23 13:15:35,Южно-Сахалинск,,,,,,,,,,,,,Сахалинская область
244816750562,Альфа-Банк,"Будённовский просп., 42/50, Ростов-на-Дону",alfabank.ru,"'mon': 09:00-20:00, 'tue': 09:00-20:00, 'wed': 09:00-20:00, 'thu': 09:00-20:00, 'fri': 09:00-20:00, 'sat': 10:00-18:00, 'sun': выходной, ",47.222268,39.707054,"4,2",['8 (800) 200-00-00Показать телефон'],"['https://ok.ru/alfabank', 'https://t.me/alfabank', 'https://vk.com/alfabank', 'https://www.youtube.com/user/alfabankru']",49.0,45.0,68.0,,75.0,2024-07-23 09:35:17,Ростов-на-Дону,,,,,,,,,,,,,Ростовская область
1120444285,Альфа-Банк,"Красноармейская ул., 170, Ростов-на-Дону",alfabank.ru,"'mon': 09:00-20:00, 'tue': 09:00-20:00, 'wed': 09:00-20:00, 'thu': 09:00-20:00, 'fri': 09:00-20:00, 'sat': 10:00-18:00, 'sun': выходной, ",47.227892,39.713764,"4,3",['8 (800) 200-00-00Показать телефон'],"['https://ok.ru/alfabank', 'https://t.me/alfabank', 'https://vk.com/alfabank', 'https://www.youtube.com/user/alfabankru']",54.0,42.0,54.0,50.0,86.0,2024-07-23 09:35:17,Ростов-на-Дону,,,,,,0.0,,,,,,,Ростовская область
107784315143,Альфа-Банк,"Ворошиловский просп., 31, Ростов-на-Дону",alfabank.ru,"'mon': 09:00-20:00, 'tue': 09:00-20:00, 'wed': 09:00-20:00, 'thu': 09:00-20:00, 'fri': 09:00-20:00, 'sat': 10:00-18:00, 'sun': выходной, ",47.219991,39.719001,"4,2",['8 (800) 200-00-00Показать телефон'],"['https://ok.ru/alfabank', 'https://t.me/alfabank', 'https://vk.com/alfabank', 'https://www.youtube.com/user/alfabankru']",62.0,65.0,57.0,70.0,100.0,2024-07-23 09:35:17,Ростов-на-Дону,,,,,,23.0,,,,,,,Ростовская область
169805377565,Альфа-Банк,"просп. Королёва, 14А, Ростов-на-Дону",alfabank.ru,"'mon': 09:00-20:00, 'tue': 09:00-20:00, 'wed': 09:00-20:00, 'thu': 09:00-20:00, 'fri': 09:00-20:00, 'sat': 09:00-18:00, 'sun': выходной, ",47.294494,39.709264,"4,5",['8 (800) 200-00-00Показать телефон'],"['https://ok.ru/alfabank', 'https://t.me/alfabank', 'https://vk.com/alfabank', 'https://www.youtube.com/user/alfabankru']",65.0,60.0,77.0,76.0,93.0,2024-07-23 09:35:17,Ростов-на-Дону,,,,,,,,,,,,,Ростовская область
163505448051,Альфа-Банк,"просп. Ленина, 15, Асбест",alfabank.ru,"'mon': 10:00-19:00, 'tue': 10:00-19:00, 'wed': 10:00-19:00, 'thu': 10:00-19:00, 'fri': 10:00-19:00, 'sat': выходной, 'sun': выходной, ",57.013563,61.461689,"4,4",['8 (800) 200-00-00Показать телефон'],"['https://ok.ru/alfabank', 'https://t.me/alfabank', 'https://vk.com/alfabank', 'https://www.youtube.com/user/alfabankru']",76.0,65.0,,,,2024-07-23 18:38:28,Асбест,,,,,,,,,,,,,Свердловская область
23974976351,Альфа-Банк,"ул. Кирова, 18, Центральный микрорайон, Рыбинск",alfabank.ru,"'mon': 10:00-19:00, 'tue': 10:00-19:00, 'wed': 10:00-19:00, 'thu': 10:00-19:00, 'fri': 10:00-19:00, 'sat': выходной, 'sun': выходной, ",58.050631,38.832445,"4,9",['8 (800) 200-00-00Показать телефон'],"['https://ok.ru/alfabank', 'https://t.me/alfabank', 'https://vk.com/alfabank', 'https://www.youtube.com/user/alfabankru']",88.0,78.0,85.0,,,2024-07-23 13:27:09,Рыбинск,,,,,,,,,,,,,Ярославская область
167623894339,Альфа-Банк,"ул. Свердлова, 67, Лебедянь",alfabank.ru,"'mon': 07:00-20:00, 'tue': 07:00-20:00, 'wed': 07:00-20:00, 'thu': 07:00-20:00, 'fri': 07:00-20:00, 'sat': 07:00-20:00, 'sun': 07:00-20:00, ",53.02323,39.13056,,['8 (800) 200-00-00Показать телефон'],"['https://ok.ru/alfabank', 'https://t.me/alfabank', 'https://vk.com/alfabank']",,,,,,2024-07-15 07:39:14,Лебедянь,,,,,,,,,,,,,Липецкая область
98107144120,Альфа-Банк,"ул. Льва Толстого, 80, Лебедянь",alfabank.ru,"'mon': 00:00-23:59, 'tue': 00:00-23:59, 'wed': 00:00-23:59, 'thu': 00:00-23:59, 'fri': 00:00-23:59, 'sat': 00:00-23:59, 'sun': 00:00-23:59, ",53.022515,39.180507,,['8 (800) 200-00-00Показать телефон'],"['https://ok.ru/alfabank', 'https://t.me/alfabank', 'https://vk.com/alfabank']",,,,,,2024-07-15 07:39:14,Лебедянь,,,,,,,,,,,,,Липецкая область
204656858146,Альфа-Банк,"Почтовая ул., 33А, Лебедянь",alfabank.ru,"'mon': 08:00-22:00, 'tue': 08:00-22:00, 'wed': 08:00-22:00, 'thu': 08:00-22:00, 'fri': 08:00-22:00, 'sat': 08:00-22:00, 'sun': 08:00-22:00, ",53.009318,39.128502,,['8 (800) 200-00-00Показать телефон'],"['https://ok.ru/alfabank', 'https://t.me/alfabank', 'https://vk.com/alfabank']",,,,,,2024-07-15 07:39:14,Лебедянь,,,,,,,,,,,,,Липецкая область
210350834915,Альфа-Банк,"ул. 1 Мая, 102, Воткинск",,"'mon': 10:00-19:00, 'tue': 10:00-19:00, 'wed': 10:00-19:00, 'thu': 10:00-19:00, 'fri': 10:00-19:00, 'sat': выходной, 'sun': выходной, ",57.060025,53.998818,"4,5",['8 (800) 200-00-00Показать телефон'],"['http://vk.com/alfabank', 'https://ok.ru/alfabank', 'https://www.youtube.com/user/alfabankru']",,,,,,2024-07-23 16:01:04,Воткинск,,,,,,,,,,,,,Удмуртская Республика
26853458298,Альфа-Банк,"ул. Гайдара, 61, Дзержинск",alfabank.ru,"'mon': 09:00-20:00, 'tue': 09:00-20:00, 'wed': 09:00-20:00, 'thu': 09:00-20:00, 'fri': 09:00-20:00, 'sat': 10:00-18:00, 'sun': выходной, ",56.233345,43.436239,"4,4",['8 (800) 200-00-00Показать телефон'],"['https://ok.ru/alfabank', 'https://t.me/alfabank', 'https://vk.com/alfabank', 'https://www.youtube.com/user/alfabankru']",77.0,72.0,85.0,,100.0,2024-07-23 12:55:30,Дзержинск,,,,,,,,,,,,,Нижегородская область
49305516182,Альфа-Банк,"ул. Гагарина, 14, Тольятти",alfabank.ru,"'mon': 10:00-19:00, 'tue': 10:00-19:00, 'wed': 10:00-19:00, 'thu': 10:00-19:00, 'fri': 10:00-19:00, 'sat': выходной, 'sun': выходной, ",53.511665,49.421444,"4,4",['8 (800) 200-00-00Показать телефон'],"['https://ok.ru/alfabank', 'https://t.me/alfabank', 'https://vk.com/alfabank', 'https://www.youtube.com/user/alfabankru']",76.0,57.0,64.0,71.0,93.0,2024-07-23 09:53:51,Тольятти,,,,,,,,,,,,,Самарская область
13005923864,Альфа-Банк,"Тополиная ул., 8А, Тольятти",alfabank.ru,"'mon': 10:00-19:00, 'tue': 10:00-19:00, 'wed': 10:00-19:00, 'thu': 10:00-19:00, 'fri': 10:00-19:00, 'sat': выходной, 'sun': выходной, ",53.544936,49.345537,"4,8",['8 (800) 200-00-00Показать телефон'],"['https://ok.ru/alfabank', 'https://t.me/alfabank', 'https://vk.com/alfabank', 'https://www.youtube.com/user/alfabankru']",79.0,76.0,87.0,92.0,100.0,2024-07-23 09:53:51,Тольятти,,,,,,,,,,,,,Самарская область
139456309578,Альфа-Банк,"Революционная ул., 32, Тольятти",alfabank.ru,"'mon': 09:00-19:00, 'tue': 09:00-19:00, 'wed': 09:00-19:00, 'thu': 09:00-19:00, 'fri': 09:00-19:00, 'sat': 10:00-16:00, 'sun': выходной, ",53.525435,49.274399,"4,4",['8 (800) 200-00-00Показать телефон'],"['https://ok.ru/alfabank', 'https://t.me/alfabank', 'https://vk.com/alfabank', 'https://www.youtube.com/user/alfabankru']",73.0,66.0,63.0,68.0,100.0,2024-07-23 09:53:51,Тольятти,60.0,,,,,,,,,,,,Самарская область
102972445308,Альфа-Банк,"просп. Ленина, 5, Октябрьский",alfabank.ru,"'mon': 10:00-19:00, 'tue': 10:00-19:00, 'wed': 10:00-19:00, 'thu': 10:00-19:00, 'fri': 10:00-19:00, 'sat': выходной, 'sun': выходной, ",54.482416,53.469047,"5,0",['8 (800) 200-00-00Показать телефон'],"['https://ok.ru/alfabank', 'https://t.me/alfabank', 'https://vk.com/alfabank', 'https://www.youtube.com/user/alfabankru']",93.0,83.0,94.0,,,2024-07-15 16:11:44,Москва Октябрьский,,,,,,,,,,,,,Московская область
22087709860,Альфа-Банк,"ул. Кирова, 1/36, Слюдянка",alfabank.ru,"'mon': 09:00-19:00, 'tue': 09:00-19:00, 'wed': 09:00-19:00, 'thu': 09:00-19:00, 'fri': 09:00-19:00, 'sat': 09:00-19:00, 'sun': 09:00-19:00",51.65558,103.71495,,['8 (800) 200-00-00Показать телефон'],"['https://ok.ru/alfabank', 'https://t.me/alfabank', 'https://vk.com/alfabank']",,,,,,2024-07-02 20:45:03,Слюдянка,,,,,,,,,,,,,Иркутская область
5623636275,Альфа-Банк,"ул. Ленина, 17А, Нижневартовск",alfabank.ru,"'mon': 10:00-20:00, 'tue': 10:00-20:00, 'wed': 10:00-20:00, 'thu': 10:00-20:00, 'fri': 10:00-20:00, 'sat': 10:00-18:00, 'sun': выходной, ",60.936539,76.585222,"4,7",['8 (800) 200-00-00Показать телефон'],"['https://ok.ru/alfabank', 'https://t.me/alfabank', 'https://vk.com/alfabank', 'https://www.youtube.com/user/alfabankru']",80.0,63.0,80.0,,,2024-07-23 12:00:04,Нижневартовск,,,,,,,,,,,,,Ханты-Мансийский Автономный округ - Югра
16674887178,Альфа-Банк,"просп. Победы, 11, Нижневартовск",alfabank.ru,"'mon': 09:00-20:00, 'tue': 09:00-20:00, 'wed': 09:00-20:00, 'thu': 09:00-20:00, 'fri': 09:00-20:00, 'sat': 10:00-18:00, 'sun': выходной, ",60.935831,76.557681,"4,4",['8 (800) 200-00-00Показать телефон'],"['https://ok.ru/alfabank', 'https://t.me/alfabank', 'https://vk.com/alfabank', 'https://www.youtube.com/user/alfabankru']",92.0,73.0,,,,2024-07-23 12:00:04,Нижневартовск,,,,,,,,,,,,,Ханты-Мансийский Автономный округ - Югра
219592418341,Альфа-Банк,"просп. Ленина, 5А, Новошахтинск",alfabank.ru,"'mon': 10:00-19:00, 'tue': 10:00-19:00, 'wed': 10:00-19:00, 'thu': 10:00-19:00, 'fri': 10:00-19:00, 'sat': выходной, 'sun': выходной",47.753903,39.933474,"4,4",['8 (800) 200-00-00Показать телефон'],"['https://ok.ru/alfabank', 'https://t.me/alfabank', 'https://vk.com/alfabank', 'https://www.youtube.com/user/alfabankru']",100.0,,,,,2024-07-02 19:36:16,Новошахтинск,,,,93.0,100.0,,,,,,,,Ростовская область
172085389551,Альфа-Банк,"ул. Молодцова, 7, корп. 2, Сертолово",alfabank.ru,"'mon': 09:00-18:00, 'tue': 09:00-18:00, 'wed': 09:00-18:00, 'thu': 09:00-18:00, 'fri': 09:00-18:00, 'sat': выходной, 'sun': выходной",60.142294,30.213774,,['8 (800) 200-00-00Показать телефон'],"['https://ok.ru/alfabank', 'https://t.me/alfabank', 'https://vk.com/alfabank']",,,,,,2024-07-02 20:36:17,Сертолово,,,,,,,,,,,,,Ленинградская область
237710404102,Альфа-Банк,"ул. Молодцова, 1, корп. 3, Сертолово",,"'mon': 10:00-21:00, 'tue': 10:00-21:00, 'wed': 10:00-21:00, 'thu': 10:00-21:00, 'fri': 10:00-21:00, 'sat': 10:00-21:00, 'sun': 10:00-21:00",60.140883,30.212203,,['8 (800) 200-00-00Показать телефон'],"['https://ok.ru/alfabank', 'https://vk.com/alfabank']",,,,,,2024-07-02 20:36:17,Сертолово,,,,,,,,,,,,,Ленинградская область
87356755441,Альфа-Банк,"Сосновая ул., 3А, Сертолово",alfabank.ru,"'mon': 10:00-21:00, 'tue': 10:00-21:00, 'wed': 10:00-21:00, 'thu': 10:00-21:00, 'fri': 10:00-21:00, 'sat': 10:00-21:00, 'sun': 10:00-21:00",60.142281,30.210073,,['8 (800) 200-00-00Показать телефон'],"['https://ok.ru/alfabank', 'https://t.me/alfabank', 'https://vk.com/alfabank']",,,,,,2024-07-02 20:36:17,Сертолово,,,,,,,,,,,,,Ленинградская область
50525209865,Альфа-Банк,"ул. Газинура Гафиатуллина, 31, Бугульма",alfabank.ru,"'mon': 09:00-18:00, 'tue': 09:00-18:00, 'wed': 09:00-18:00, 'thu': 09:00-18:00, 'fri': 09:00-18:00, 'sat': выходной, 'sun': выходной, ",54.533707,52.794394,"4,1",['8 (800) 200-00-00Показать телефон'],"['https://ok.ru/alfabank', 'https://t.me/alfabank', 'https://vk.com/alfabank', 'https://www.youtube.com/user/alfabankru']",,,,,,2024-07-23 16:46:18,Бугульма,,,,,,,,,,,,,Республика Татарстан (Татарстан)
164211767851,Альфа-Банк,"ул. Ленина, 35, Улан-Удэ",alfabank.ru,"'mon': 09:00-19:00, 'tue': 09:00-19:00, 'wed': 09:00-19:00, 'thu': 09:00-19:00, 'fri': 09:00-19:00, 'sat': 10:00-17:00, 'sun': выходной, ",51.82966,107.58408,"4,7",['8 (800) 200-00-00Показать телефон'],"['https://ok.ru/alfabank', 'https://t.me/alfabank', 'https://vk.com/alfabank', 'https://www.youtube.com/user/alfabankru']",84.0,69.0,97.0,,100.0,2024-07-23 11:09:02,Улан-Удэ,,,,,,,,,,,,,Республика Бурятия
192300852723,Альфа-Банк,"ул. Терешковой, 2, Улан-Удэ",alfabank.ru,"'mon': 10:00-19:00, 'tue': 10:00-19:00, 'wed': 10:00-19:00, 'thu': 10:00-19:00, 'fri': 10:00-19:00, 'sat': выходной, 'sun': выходной, ",51.80931,107.60095,"4,6",['8 (800) 200-00-00Показать телефон'],"['https://ok.ru/alfabank', 'https://vk.com/alfabank', 'https://www.youtube.com/user/alfabankru']",100.0,100.0,,,,2024-07-23 11:09:02,Улан-Удэ,,,,,,,,,,,,,Республика Бурятия
128834665278,Альфа-Банк,"Октябрьская ул., 59А, Донской",alfabank.ru,"'mon': 10:00-19:00, 'tue': 10:00-19:00, 'wed': 10:00-19:00, 'thu': 10:00-19:00, 'fri': 10:00-19:00, 'sat': выходной, 'sun': выходной, ",53.967383,38.320109,"4,7",['8 (800) 200-00-00Показать телефон'],[],,,,,,2024-07-23 18:40:27,Донской,,,,,,,,,,,,,Тульская область
155032218644,Альфа-Банк,"просп. Ленина, 46, Рубцовск",alfabank.ru,"'mon': 10:00-19:00, 'tue': 10:00-19:00, 'wed': 10:00-19:00, 'thu': 10:00-19:00, 'fri': 10:00-19:00, 'sat': выходной, 'sun': выходной, ",51.521521,81.214287,"4,4",['8 (800) 200-00-00Показать телефон'],"['https://ok.ru/alfabank', 'https://t.me/alfabank', 'https://vk.com/alfabank', 'https://www.youtube.com/user/alfabankru']",78.0,45.0,,,,2024-07-23 14:16:48,Рубцовск,,,,,,,,,,,,,Алтайский край
118133117315,Альфа-Банк,"просп. Металлургов, 34, Мончегорск",,"'mon': 11:00-19:00, 'tue': 11:00-19:00, 'wed': 11:00-19:00, 'thu': 11:00-19:00, 'fri': 11:00-19:00, 'sat': выходной, 'sun': выходной, ",67.939157,32.940422,"4,7",['8 (800) 200-00-00Показать телефон'],"['http://vk.com/alfabank', 'https://ok.ru/alfabank', 'https://www.youtube.com/user/alfabankru']",,,,,,2024-07-23 21:23:12,Мончегорск,,,,,,,,,,,,,Мурманская область
121768233075,Альфа-Банк,"Абаканская ул., 48, Минусинск",alfabank.ru,"'mon': 00:00-23:59, 'tue': 00:00-23:59, 'wed': 00:00-23:59, 'thu': 00:00-23:59, 'fri': 00:00-23:59, 'sat': 00:00-23:59, 'sun': 00:00-23:59",53.694989,91.672778,,['8 (800) 200-00-00Показать телефон'],"['https://ok.ru/alfabank', 'https://vk.com/alfabank']",,,,,,2024-07-02 19:15:51,Минусинск,,,,,,,,,,,,,Красноярский край
113577470881,Альфа-Банк,"12Г, микрорайон Северный, Сасово",,"'mon': 09:00-18:00, 'tue': 09:00-18:00, 'wed': 09:00-18:00, 'thu': 09:00-18:00, 'fri': 09:00-18:00, 'sat': выходной, 'sun': выходной",54.361021,41.911394,"4,7",['8 (800) 200-00-00Показать телефон'],"['http://vk.com/alfabank', 'https://ok.ru/alfabank', 'https://www.youtube.com/user/alfabankru']",,,,,,2024-07-02 20:17:36,Сасово,,,,100.0,100.0,,,,,,,,Рязанская область
65653576737,Альфа-Банк,"ул. Войкова, 454/1, Михайловск",,"'mon': 09:00-18:00, 'tue': 09:00-18:00, 'wed': 09:00-18:00, 'thu': 09:00-18:00, 'fri': 09:00-18:00, 'sat': выходной, 'sun': выходной, ",45.128872,42.035254,"4,4",['8 (800) 200-00-00Показать телефон'],"['http://vk.com/alfabank', 'https://ok.ru/alfabank', 'https://www.youtube.com/user/alfabankru']",100.0,93.0,,,,2024-07-23 16:29:01,Михайловск,,,,,,,,,,,,,Ставропольский край
50368696960,Альфа-Банк,"Кооперативная ул., 16, Назарово",,"'mon': 08:00-17:00, 'tue': 08:00-17:00, 'wed': 08:00-17:00, 'thu': 08:00-17:00, 'fri': 08:00-17:00, 'sat': выходной, 'sun': выходной",56.001474,90.38494,,['8 (800) 200-00-00Показать телефон'],"['https://ok.ru/alfabank', 'https://vk.com/alfabank']",,,,,,2024-07-02 19:27:57,Назарово,,,,,,,,,,,,,Красноярский край
15713061429,Альфа-Банк,"ул. Арбузова, 110, Назарово",alfabank.ru,"'mon': 10:00-19:00, 'tue': 10:00-19:00, 'wed': 10:00-19:00, 'thu': 10:00-19:00, 'fri': 10:00-19:00, 'sat': выходной, 'sun': выходной",56.010971,90.417535,,['8 (800) 200-00-00Показать телефон'],"['https://ok.ru/alfabank', 'https://t.me/alfabank', 'https://vk.com/alfabank']",,,,,,2024-07-02 19:27:57,Назарово,,,,,,,,,,,,,Красноярский край
1749839208,Альфа-Банк,"просп. Губкина, 1, Старый Оскол",alfabank.ru,"'mon': 09:00-22:00, 'tue': 09:00-22:00, 'wed': 09:00-22:00, 'thu': 09:00-22:00, 'fri': 09:00-22:00, 'sat': 09:00-22:00, 'sun': 09:00-22:00, ",51.286275,37.793848,,['8 (800) 200-00-00Показать телефон'],"['https://ok.ru/alfabank', 'https://t.me/alfabank', 'https://vk.com/alfabank']",,,,,,2024-07-23 23:47:08,Губкин ,,,,,,,,,,,,,
143659863152,Альфа-Банк,"ул. Кирова, 53, Губкин",alfabank.ru,"'mon': 00:00-23:59, 'tue': 00:00-23:59, 'wed': 00:00-23:59, 'thu': 00:00-23:59, 'fri': 00:00-23:59, 'sat': 00:00-23:59, 'sun': 00:00-23:59, ",51.284597,37.52846,,['8 (800) 200-00-00Показать телефон'],"['https://ok.ru/alfabank', 'https://vk.com/alfabank']",,,,,,2024-07-23 23:47:08,Губкин ,,,,,,,,,,,,,
150118363775,Альфа-Банк,"ул. Космонавтов, 14, Губкин",alfabank.ru,"'mon': 09:00-22:00, 'tue': 09:00-22:00, 'wed': 09:00-22:00, 'thu': 09:00-22:00, 'fri': 09:00-22:00, 'sat': 09:00-22:00, 'sun': 09:00-22:00, ",51.279594,37.504358,,['8 (800) 200-00-00Показать телефон'],"['https://ok.ru/alfabank', 'https://t.me/alfabank', 'https://vk.com/alfabank']",,,,,,2024-07-23 23:47:08,Губкин ,,,,,,,,,,,,,
196413889479,Альфа-Банк,"ул. Пономарёва, 4, Заволжье",,"'mon': 09:00-18:00, 'tue': 09:00-18:00, 'wed': 09:00-18:00, 'thu': 09:00-18:00, 'fri': 09:00-18:00, 'sat': выходной, 'sun': выходной, ",56.630164,43.411526,"4,8",['8 (800) 200-00-00Показать телефон'],"['http://vk.com/alfabank', 'https://ok.ru/alfabank', 'https://www.youtube.com/user/alfabankru']",,,,,,2024-07-23 22:17:29,Заволжье,,,,,,,,,,,,,Нижегородская область
243961624704,Альфа-Банк,"ул. Калинина, 30, Гусь-Хрустальный",,"'mon': 09:00-18:00, 'tue': 09:00-18:00, 'wed': 09:00-18:00, 'thu': 09:00-18:00, 'fri': 09:00-18:00, 'sat': выходной, 'sun': выходной, ",55.614867,40.669967,"4,4",['8 (800) 200-00-00Показать телефон'],[],,,,,,2024-07-23 19:54:21,Гусь-Хрустальный,,,,,,,,,,,,,Владимирская область
109162952202,Альфа-Банк,"Советская ул., 66, Слободской",,"'mon': 09:00-18:00, 'tue': 09:00-18:00, 'wed': 09:00-18:00, 'thu': 09:00-18:00, 'fri': 09:00-18:00, 'sat': выходной, 'sun': выходной",58.73091,50.183602,"4,4",['8 (800) 200-00-00Показать телефон'],"['http://vk.com/alfabank', 'https://ok.ru/alfabank', 'https://www.youtube.com/user/alfabankru']",87.0,92.0,,,,2024-07-02 20:43:00,Слободской,,,,90.0,89.0,,,,,,,,Кировская область
186020924738,Альфа-Банк,"17, 1-й микрорайон, Пыть-Ях",,"'mon': 10:00-19:00, 'tue': 10:00-19:00, 'wed': 10:00-19:00, 'thu': 10:00-19:00, 'fri': 10:00-19:00, 'sat': выходной, 'sun': выходной, ",60.757535,72.839392,"4,6",['8 (800) 200-00-00Показать телефон'],"['http://vk.com/alfabank', 'https://ok.ru/alfabank', 'https://www.youtube.com/user/alfabankru']",100.0,100.0,,,,2024-07-23 21:49:13,Пыть-Ях,,,,,,,,,,,,,Ханты-Мансийский автономный округ - Югра
244084975511,Альфа-Банк,"Октябрьская ул., 12, Тейково",alfabank.ru,"'mon': 10:00-19:00, 'tue': 10:00-19:00, 'wed': 10:00-19:00, 'thu': 10:00-19:00, 'fri': 10:00-19:00, 'sat': выходной, 'sun': выходной, ",56.853735,40.538544,"4,7",['8 (800) 200-00-00Показать телефон'],"['https://ok.ru/alfabank', 'https://t.me/alfabank', 'https://vk.com/alfabank', 'https://www.youtube.com/user/alfabankru']",,,,,,2024-07-23 23:22:50,Тейково,,,,,,,,,,,,,Ивановская область
12013846686,Альфа-Банк,"24, 6-й микрорайон, Радужный",,"'mon': 10:00-19:00, 'tue': 10:00-19:00, 'wed': 10:00-19:00, 'thu': 10:00-19:00, 'fri': 10:00-19:00, 'sat': выходной, 'sun': выходной, ",62.133769,77.462787,"4,7",['8 (800) 200-00-00Показать телефон'],"['http://vk.com/alfabank', 'https://ok.ru/alfabank', 'https://www.youtube.com/user/alfabankru']",,,,,,2024-07-23 20:55:28,Радужный,,,,,,,,,,,,,Ханты-Мансийский автономный округ - Югра
152872347040,Альфа-Банк,"ул. Сафонова, 13, Североморск",,"'mon': 10:00-19:00, 'tue': 10:00-19:00, 'wed': 10:00-19:00, 'thu': 10:00-19:00, 'fri': 10:00-19:00, 'sat': выходной, 'sun': выходной, ",69.075762,33.420517,"4,7",['8 (800) 200-00-00Показать телефон'],"['http://vk.com/alfabank', 'https://ok.ru/alfabank', 'https://www.youtube.com/user/alfabankru']",94.0,100.0,,,,2024-07-23 20:21:55,Североморск,,,,,,,,,,,,,Мурманская область
227463753537,Альфа-Банк,"просп. Ленина, 12, Конаково",alfabank.ru,"'mon': 10:00-19:00, 'tue': 10:00-19:00, 'wed': 10:00-19:00, 'thu': 10:00-19:00, 'fri': 10:00-19:00, 'sat': выходной, 'sun': выходной, ",56.714927,36.774099,"4,5",['8 (800) 200-00-00Показать телефон'],"['https://ok.ru/alfabank', 'https://t.me/alfabank', 'https://vk.com/alfabank', 'https://www.youtube.com/user/alfabankru']",75.0,92.0,,,,2024-07-23 22:07:29,Конаково,,,,,,,,,,,,,Тверская область
197435609224,Альфа-Банк,"просп. Ленина, 39, Великие Луки",alfabank.ru,"'mon': 10:00-19:00, 'tue': 10:00-19:00, 'wed': 10:00-19:00, 'thu': 10:00-19:00, 'fri': 10:00-19:00, 'sat': выходной, 'sun': выходной, ",56.343558,30.521717,"5,0",['8 (800) 200-00-00Показать телефон'],"['https://ok.ru/alfabank', 'https://t.me/alfabank', 'https://vk.com/alfabank', 'https://www.youtube.com/user/alfabankru']",92.0,94.0,94.0,,,2024-07-23 16:26:53,Великие Луки,,,,,,,,,,,,,Псковская область
185657731644,Альфа-Банк,"Красноармейская ул., 41, Брянск",alfabank.ru,"'mon': 09:00-20:00, 'tue': 09:00-20:00, 'wed': 09:00-20:00, 'thu': 09:00-20:00, 'fri': 09:00-20:00, 'sat': 10:00-18:00, 'sun': выходной, ",53.236825,34.350265,"4,7",['8 (800) 200-00-00Показать телефон'],"['https://ok.ru/alfabank', 'https://t.me/alfabank', 'https://vk.com/alfabank', 'https://www.youtube.com/user/alfabankru']",85.0,74.0,82.0,71.0,,2024-07-23 11:15:57,Брянск,,,,,,,,,,,,,Брянская область
86406925140,Альфа-Банк,"ул. Ленина, 38, Киселёвск",alfabank.ru,"'mon': 09:00-18:00, 'tue': 09:00-18:00, 'wed': 09:00-18:00, 'thu': 09:00-18:00, 'fri': 09:00-18:00, 'sat': выходной, 'sun': выходной",54.002088,86.639293,"4,4",['8 (800) 200-00-00Показать телефон'],"['https://ok.ru/alfabank', 'https://t.me/alfabank', 'https://vk.com/alfabank', 'https://www.youtube.com/user/alfabankru']",88.0,,,,,2024-07-02 23:24:00,Киселёвск,,,,89.0,88.0,,,,,,,,Кемеровская область
121055795231,Альфа-Банк,"Стахановская ул., 92, Ишимбай",alfabank.ru,"'mon': 09:00-23:00, 'tue': 09:00-23:00, 'wed': 09:00-23:00, 'thu': 09:00-23:00, 'fri': 09:00-23:00, 'sat': 09:00-23:00, 'sun': 09:00-23:00, ",53.449473,56.037761,,['8 (800) 200-00-00Показать телефон'],"['https://ok.ru/alfabank', 'https://t.me/alfabank', 'https://vk.com/alfabank']",,,,,,2024-07-24 05:21:22,Ишимбай,,,,,,,,,,,,,Республика Башкортостан
92682113592,Альфа-Банк,"Августовская ул., 14, Апрелевка",,"'mon': 10:00-19:00, 'tue': 10:00-19:00, 'wed': 10:00-19:00, 'thu': 10:00-19:00, 'fri': 10:00-19:00, 'sat': выходной, 'sun': выходной, ",55.549817,37.068442,"4,3",['+7 (495) 788-88-78Показать телефон'],"['http://vk.com/alfabank', 'https://ok.ru/alfabank', 'https://www.youtube.com/user/alfabankru']",59.0,47.0,88.0,,,2024-07-24 03:01:30,Апрелевка,,,,,,,,,,,,,Московская область
139972826795,Альфа-Банк,"ул. Победы, 21, Советск",,"'mon': 10:00-19:00, 'tue': 10:00-19:00, 'wed': 10:00-19:00, 'thu': 10:00-19:00, 'fri': 10:00-19:00, 'sat': выходной, 'sun': выходной, ",55.081905,21.895375,"4,7",['8 (800) 200-00-00Показать телефон'],"['http://vk.com/alfabank', 'https://ok.ru/alfabank', 'https://www.youtube.com/user/alfabankru']",94.0,82.0,,,,2024-07-23 21:53:09,Советск,,,,,,,,,,,,,Калининградская область
59932277658,Альфа-Банк,"Комиссариатская ул., 40Б, Алатырь",,"'mon': 09:00-18:00, 'tue': 09:00-18:00, 'wed': 09:00-18:00, 'thu': 09:00-18:00, 'fri': 09:00-18:00, 'sat': выходной, 'sun': выходной, ",54.840174,46.592874,"4,6",['8 (800) 200-00-00Показать телефон'],"['http://vk.com/alfabank', 'https://ok.ru/alfabank', 'https://www.youtube.com/user/alfabankru']",,,,,,2024-07-24 01:07:11,Алатырь,,,,,,,,,,,,,Чувашская республика
123532173786,Альфа-Банк,"Интернациональная ул., 49, Моршанск",alfabank.ru,"'mon': 09:00-18:00, 'tue': 09:00-18:00, 'wed': 09:00-18:00, 'thu': 09:00-18:00, 'fri': 09:00-18:00, 'sat': выходной, 'sun': выходной",53.445059,41.811869,"4,5",['8 (800) 200-00-00Показать телефон'],"['https://ok.ru/alfabank', 'https://t.me/alfabank', 'https://vk.com/alfabank', 'https://www.youtube.com/user/alfabankru']",93.0,,,,,2024-07-02 19:23:55,Моршанск,,,,87.0,93.0,,,,,,,,Тамбовская область
116343066898,Альфа-Банк,"ул. Ленина, 25, Мценск",alfabank.ru,"'mon': 09:00-18:00, 'tue': 09:00-18:00, 'wed': 09:00-18:00, 'thu': 09:00-18:00, 'fri': 09:00-18:00, 'sat': выходной, 'sun': выходной",53.277491,36.576613,"4,3",['8 (800) 200-00-00Показать телефон'],"['https://ok.ru/alfabank', 'https://t.me/alfabank', 'https://vk.com/alfabank', 'https://www.youtube.com/user/alfabankru']",,90.0,,,,2024-07-02 19:25:56,Мценск,,,,93.0,90.0,,,,,,,,Орловская область
1267029340,Альфа-Банк,"Северный просп., 2/1, Находка",alfabank.ru,"'mon': 09:00-20:00, 'tue': 09:00-20:00, 'wed': 09:00-20:00, 'thu': 09:00-20:00, 'fri': 09:00-20:00, 'sat': 10:00-18:00, 'sun': выходной, ",42.83677,132.88002,"4,7",['8 (800) 200-00-00Показать телефон'],"['https://ok.ru/alfabank', 'https://t.me/alfabank', 'https://vk.com/alfabank', 'https://www.youtube.com/user/alfabankru']",91.0,90.0,91.0,81.0,,2024-07-23 13:50:52,Находка,,,,,,,,,,,,,Приморский край
86505415030,Альфа-Банк,"Комсомольская ул., 78, Орёл",alfabank.ru,"'mon': 10:00-20:00, 'tue': 10:00-20:00, 'wed': 10:00-20:00, 'thu': 10:00-20:00, 'fri': 10:00-20:00, 'sat': 10:00-18:00, 'sun': выходной, ",52.953431,36.061995,"4,4",['8 (800) 200-00-00Показать телефон'],"['https://ok.ru/alfabank', 'https://t.me/alfabank', 'https://vk.com/alfabank', 'https://www.youtube.com/user/alfabankru']",63.0,53.0,68.0,,93.0,2024-07-24 00:26:01,Орёл,,,,,,,,,,,,,Орловская область
126000144540,Альфа-Банк,"просп. Ленина, 26, Петрозаводск",alfabank.ru,"'mon': 10:00-19:00, 'tue': 10:00-19:00, 'wed': 10:00-19:00, 'thu': 10:00-19:00, 'fri': 10:00-19:00, 'sat': выходной, 'sun': выходной, ",61.78862,34.357164,"4,7",['8 (800) 200-00-00Показать телефон'],"['https://ok.ru/alfabank', 'https://t.me/alfabank', 'https://vk.com/alfabank', 'https://www.youtube.com/user/alfabankru']",85.0,74.0,81.0,,100.0,2024-07-23 12:34:42,Петрозаводск,,100.0,,,,,,,,,,,Республика Карелия
61010956527,Альфа-Банк,"ул. Ровио, 18, Петрозаводск",alfabank.ru,"'mon': 10:00-19:00, 'tue': 10:00-19:00, 'wed': 10:00-19:00, 'thu': 10:00-19:00, 'fri': 10:00-19:00, 'sat': выходной, 'sun': выходной, ",61.764411,34.371456,"4,7",['8 (800) 200-00-00Показать телефон'],"['https://ok.ru/alfabank', 'https://t.me/alfabank', 'https://vk.com/alfabank', 'https://www.youtube.com/user/alfabankru']",92.0,89.0,91.0,,100.0,2024-07-23 12:34:42,Петрозаводск,,,,,,,,,,,,,Республика Карелия
62559706081,Альфа-Банк,"Хабаровская ул., 6, Чита",,"'mon': 09:00-19:00, 'tue': 09:00-19:00, 'wed': 09:00-19:00, 'thu': 09:00-19:00, 'fri': 09:00-19:00, 'sat': выходной, 'sun': выходной, ",52.03924,113.50554,"4,7",['8 (800) 200-00-00Показать телефон'],[],88.0,68.0,,,,2024-07-23 11:31:31,Чита,,,,,,,,,,,,,Забайкальский край
80543410768,Альфа-Банк,"Каширское ш., 51, Домодедово",alfabank.ru,"'mon': 10:00-20:00, 'tue': 10:00-20:00, 'wed': 10:00-20:00, 'thu': 10:00-20:00, 'fri': 10:00-20:00, 'sat': 10:00-18:00, 'sun': выходной, ",55.434482,37.767438,"4,7",['+7 (495) 755-58-58Показать телефон'],"['https://ok.ru/alfabank', 'https://t.me/alfabank', 'https://vk.com/alfabank', 'https://www.youtube.com/user/alfabankru']",75.0,59.0,47.0,67.0,92.0,2024-07-23 13:52:52,Домодедово,58.0,,,,,,,,,,,,Московская область
207814284600,Альфа-Банк,"ул. Островского, 33, Выкса",alfabank.ru,"'mon': 09:00-18:00, 'tue': 09:00-18:00, 'wed': 09:00-18:00, 'thu': 09:00-18:00, 'fri': 09:00-18:00, 'sat': выходной, 'sun': выходной, ",55.328576,42.16895,"4,5",['8 (800) 200-00-00Показать телефон'],"['https://ok.ru/alfabank', 'https://t.me/alfabank', 'https://vk.com/alfabank', 'https://www.youtube.com/user/alfabankru']",,,,,,2024-07-23 20:09:40,Выкса,,,,,,,,,,,,,Нижегородская область
25179331732,Альфа-Банк,"ул. Ленина, 68, Череповец",alfabank.ru,"'mon': 09:00-18:00, 'tue': 09:00-18:00, 'wed': 09:00-18:00, 'thu': 09:00-18:00, 'fri': 09:00-18:00, 'sat': выходной, 'sun': выходной, ",59.125328,37.923961,"4,9",['8 (800) 200-00-00Показать телефон'],"['https://ok.ru/alfabank', 'https://t.me/alfabank', 'https://vk.com/alfabank', 'https://www.youtube.com/user/alfabankru']",90.0,82.0,90.0,80.0,100.0,2024-07-23 11:49:51,Череповец,,,,,,,,,,,,,Вологодская область
183064515223,Альфа-Банк,"ул. Кирова, 46/1, Новосибирск",alfabank.ru,"'mon': 09:00-18:00, 'tue': 09:00-18:00, 'wed': 09:00-18:00, 'thu': 09:00-18:00, 'fri': 09:00-18:00, 'sat': выходной, 'sun': выходной, ",55.018335,82.93942,"4,6",['8 (800) 200-00-00Показать телефон'],"['https://ok.ru/alfabank', 'https://t.me/alfabank', 'https://vk.com/alfabank', 'https://www.youtube.com/user/alfabankru']",83.0,73.0,66.0,,94.0,2024-07-23 09:03:36,Новосибирск,,,,,,,,,,,,,Новосибирская область
35340132727,Альфа-Банк,"площадь Карла Маркса, 5, Новосибирск",alfabank.ru,"'mon': 09:00-20:00, 'tue': 09:00-20:00, 'wed': 09:00-19:00, 'thu': выходной, 'fri': 10:00-18:00, 'sat': 10:00-18:00, 'sun': выходной, ",54.982507,82.892339,"4,6",['8 (800) 200-00-00Показать телефон'],"['https://ok.ru/alfabank', 'https://t.me/alfabank', 'https://vk.com/alfabank', 'https://www.youtube.com/user/alfabankru']",76.0,71.0,71.0,73.0,100.0,2024-07-23 09:03:36,Новосибирск,,,,,,,,,,,,,Новосибирская область
107761170783,Альфа-Банк,"ул. Бориса Богаткова, 201/1, Новосибирск",alfabank.ru,"'mon': 10:00-19:00, 'tue': 10:00-19:00, 'wed': 10:00-19:00, 'thu': 10:00-19:00, 'fri': 10:00-19:00, 'sat': выходной, 'sun': выходной, ",55.035699,82.9745,"4,7",['8 (800) 200-00-00Показать телефон'],"['https://ok.ru/alfabank', 'https://t.me/alfabank', 'https://vk.com/alfabank', 'https://www.youtube.com/user/alfabankru']",85.0,88.0,84.0,,100.0,2024-07-23 09:03:36,Новосибирск,,,,,,,,,,,,,Новосибирская область
1159730071,Альфа-Банк,"ул. Дуси Ковальчук, 179/4, Новосибирск",alfabank.ru,"'mon': 09:00-20:00, 'tue': 09:00-20:00, 'wed': 09:00-20:00, 'thu': 09:00-20:00, 'fri': 09:00-20:00, 'sat': 10:00-18:00, 'sun': выходной, ",55.060622,82.914124,"4,3",['8 (800) 200-00-00Показать телефон'],"['https://ok.ru/alfabank', 'https://t.me/alfabank', 'https://vk.com/alfabank', 'https://www.youtube.com/user/alfabankru']",78.0,75.0,80.0,59.0,94.0,2024-07-23 09:03:36,Новосибирск,,,,,,,,,,,,,Новосибирская область
242809832592,Альфа-Банк,"ул. Мичурина, 23, Новосибирск",alfabank.ru,"'mon': 09:00-18:00, 'tue': 09:00-18:00, 'wed': 09:00-18:00, 'thu': 09:00-18:00, 'fri': 09:00-18:00, 'sat': выходной, 'sun': выходной, ",55.041349,82.921049,"4,5",['8 (800) 200-00-00Показать телефон'],"['https://ok.ru/alfabank', 'https://t.me/alfabank', 'https://vk.com/alfabank', 'https://www.youtube.com/user/alfabankru']",88.0,96.0,85.0,40.0,100.0,2024-07-23 09:03:36,Новосибирск,,,,,,,,,,,,,Новосибирская область
104151060354,Альфа-Банк,"просп. Карла Маркса, 55, Новосибирск",alfabank.ru,"'mon': 09:00-18:00, 'tue': 09:00-18:00, 'wed': 09:00-18:00, 'thu': 09:00-18:00, 'fri': 09:00-18:00, 'sat': выходной, 'sun': выходной, ",54.991801,82.910162,"4,5",['8 (800) 200-00-00Показать телефон'],"['https://ok.ru/alfabank', 'https://t.me/alfabank', 'https://vk.com/alfabank', 'https://www.youtube.com/user/alfabankru']",90.0,89.0,92.0,70.0,100.0,2024-07-23 09:03:36,Новосибирск,,,,,,,,,,,,,Новосибирская область
2687404631,Альфа-Банк,"ул. Ленина, 52, Новосибирск",alfabank.ru,"'mon': 09:00-20:00, 'tue': 09:00-20:00, 'wed': 09:00-20:00, 'thu': 09:00-20:00, 'fri': 09:00-20:00, 'sat': 10:00-18:00, 'sun': выходной, ",55.033548,82.90205,"4,4",['8 (800) 200-00-00Показать телефон'],"['https://ok.ru/alfabank', 'https://t.me/alfabank', 'https://vk.com/alfabank', 'https://www.youtube.com/user/alfabankru']",74.0,74.0,68.0,,93.0,2024-07-23 09:03:36,Новосибирск,,,,,,,,,,,,,Новосибирская область
8780594738,Альфа-Банк,"ул. Орджоникидзе, 23, Новосибирск",alfabank.ru,"'mon': 09:00-18:00, 'tue': 09:00-18:00, 'wed': 09:00-18:00, 'thu': 09:00-18:00, 'fri': 09:00-18:00, 'sat': выходной, 'sun': выходной, ",55.031376,82.917726,"4,4",['8 (800) 200-00-00Показать телефон'],"['https://ok.ru/alfabank', 'https://t.me/alfabank', 'https://vk.com/alfabank', 'https://www.youtube.com/user/alfabankru']",71.0,79.0,64.0,,100.0,2024-07-23 09:03:36,Новосибирск,,,,,,,,,,,,,Новосибирская область
236920599498,Альфа-Банк,"ул. Крылова, 31, Новосибирск",alfabank.ru,"'mon': 09:00-18:00, 'tue': 09:00-18:00, 'wed': 09:00-18:00, 'thu': 09:00-18:00, 'fri': 09:00-16:45, 'sat': выходной, 'sun': выходной, ",55.04156,82.929278,"4,6",['8 (800) 200-00-00Показать телефон'],"['https://ok.ru/alfabank', 'https://t.me/alfabank', 'https://vk.com/alfabank', 'https://www.youtube.com/user/alfabankru']",97.0,95.0,98.0,,92.0,2024-07-23 09:03:36,Новосибирск,,,,,,,,,,,,,Новосибирская область
224681779681,Альфа-Банк,"ул. Ильича, 6, Советский район, микрорайон Академгородок, Новосибирск",alfabank.ru,"'mon': 09:00-20:00, 'tue': 09:00-20:00, 'wed': 09:00-20:00, 'thu': 09:00-20:00, 'fri': 09:00-20:00, 'sat': 10:00-18:00, 'sun': выходной, ",54.839313,83.095359,"4,8",['8 (800) 200-00-00Показать телефон'],"['https://ok.ru/alfabank', 'https://t.me/alfabank', 'https://vk.com/alfabank', 'https://www.youtube.com/user/alfabankru']",84.0,77.0,80.0,80.0,,2024-07-23 09:03:36,Новосибирск,,,,,,,,,,,,,Новосибирская область
70187004794,Альфа-Банк,"ул. Ленина, 68, Темрюк",alfabank.ru,"'mon': 09:00-18:00, 'tue': 09:00-18:00, 'wed': 09:00-18:00, 'thu': 09:00-18:00, 'fri': 09:00-18:00, 'sat': выходной, 'sun': выходной, ",45.277763,37.370176,"4,4",['8 (800) 200-00-00Показать телефон'],"['https://ok.ru/alfabank', 'https://t.me/alfabank', 'https://vk.com/alfabank', 'https://www.youtube.com/user/alfabankru']",81.0,71.0,,,,2024-07-23 21:36:54,Темрюк,,,,,,,,,,,,,Краснодарский край
228044594869,Альфа-Банк,"Советская ул., 14, Электросталь",alfabank.ru,"'mon': 10:00-19:00, 'tue': 10:00-19:00, 'wed': 10:00-19:00, 'thu': 10:00-19:00, 'fri': 10:00-19:00, 'sat': выходной, 'sun': выходной, ",55.790696,38.439019,"4,8",['+7 (495) 755-58-58Показать телефон'],"['https://ok.ru/alfabank', 'https://t.me/alfabank', 'https://vk.com/alfabank', 'https://www.youtube.com/user/alfabankru']",86.0,78.0,81.0,,,2024-07-23 14:14:36,Электросталь,,,,,,,,,,,,,Московская область
125799782574,Альфа-Банк,"ул. имени Ленина, 6, Кинешма",,"'mon': 09:00-18:00, 'tue': 09:00-18:00, 'wed': 09:00-18:00, 'thu': 09:00-18:00, 'fri': 09:00-18:00, 'sat': выходной, 'sun': выходной, ",57.443393,42.167602,"4,7",['8 (800) 200-00-00Показать телефон'],"['http://vk.com/alfabank', 'https://ok.ru/alfabank', 'https://www.youtube.com/user/alfabankru']",86.0,90.0,,,,2024-07-23 16:52:18,Кинешма,,,,,,,,,,,,,Ивановская область
1080885385,Альфа-Банк,"ул. Ватутина, 37, Первоуральск",alfabank.ru,"'mon': 10:00-20:00, 'tue': 10:00-20:00, 'wed': 10:00-20:00, 'thu': 10:00-20:00, 'fri': 10:00-20:00, 'sat': 10:00-18:00, 'sun': выходной, ",56.903332,59.942324,"4,5",['8 (800) 200-00-00Показать телефон'],"['https://ok.ru/alfabank', 'https://t.me/alfabank', 'https://vk.com/alfabank', 'https://www.youtube.com/user/alfabankru']",88.0,70.0,69.0,,,2024-07-23 15:04:26,Первоуральск,,,,,,,,,,,,,Свердловская область
146837783175,Альфа-Банк,"ул. Ленина, 56Б, Волжск",alfabank.ru,"'mon': 09:00-18:00, 'tue': 09:00-18:00, 'wed': 09:00-18:00, 'thu': 09:00-18:00, 'fri': 09:00-18:00, 'sat': выходной, 'sun': выходной, ",55.865162,48.361379,"4,9",['8 (800) 200-00-00Показать телефон'],"['https://ok.ru/alfabank', 'https://t.me/alfabank', 'https://vk.com/alfabank', 'https://www.youtube.com/user/alfabankru']",,,,,,2024-07-23 20:11:38,Волжск,,,,,,,,,,,,,Республика Марий Эл
27718098902,Альфа-Банк,"Херсонская ул., 23, Геленджик",,"'mon': 09:00-18:00, 'tue': 09:00-18:00, 'wed': 09:00-18:00, 'thu': 09:00-18:00, 'fri': 09:00-18:00, 'sat': выходной, 'sun': выходной, ",44.563055,38.080465,"4,3",['8 (800) 200-00-00Показать телефон'],"['http://vk.com/alfabank', 'https://ok.ru/alfabank', 'https://www.youtube.com/user/alfabankru']",70.0,33.0,82.0,,,2024-07-23 17:19:09,Геленджик,,,,,,,,,,,,,Краснодарский край
1322041331,Альфа-Банк,"5/4, 28-й квартал, Ачинск",alfabank.ru,"'mon': 10:00-19:00, 'tue': 10:00-19:00, 'wed': 10:00-19:00, 'thu': 10:00-19:00, 'fri': 10:00-19:00, 'sat': выходной, 'sun': выходной, ",56.253212,90.474156,"4,6",['8 (800) 200-00-00Показать телефон'],"['https://ok.ru/alfabank', 'https://t.me/alfabank', 'https://vk.com/alfabank', 'https://www.youtube.com/user/alfabankru']",90.0,93.0,80.0,70.0,,2024-07-23 15:43:47,Ачинск,,,,,,,,,,,,,Красноярский край
26820772860,Альфа-Банк,"Театральная ул., 6, Берёзовский",alfabank.ru,"'mon': 09:00-23:00, 'tue': 09:00-23:00, 'wed': 09:00-23:00, 'thu': 09:00-23:00, 'fri': 09:00-23:00, 'sat': 09:00-23:00, 'sun': 09:00-23:00, ",56.907151,60.810798,,['8 (800) 200-00-00Показать телефон'],"['https://ok.ru/alfabank', 'https://t.me/alfabank', 'https://vk.com/alfabank']",,,,,,2024-07-15 00:10:54,Берёзовский,,,,,,,,,,,,,
201643328832,Альфа-Банк,"Восточная ул., 11А, Берёзовский",alfabank.ru,"'mon': выходной, 'tue': выходной, 'wed': выходной, 'thu': выходной, 'fri': выходной, 'sat': выходной, 'sun': выходной, ",56.906876,60.809522,,['8 (800) 200-00-00Показать телефон'],"['https://ok.ru/alfabank', 'https://vk.com/alfabank']",,,,,,2024-07-15 00:10:54,Берёзовский,,,,,,,,,,,,,
1049195804,Альфа-Банк,"ул. Ленина, 299, Ставрополь",alfabank.ru,"'mon': 09:00-20:00, 'tue': 09:00-20:00, 'wed': 09:00-20:00, 'thu': 09:00-20:00, 'fri': 09:00-20:00, 'sat': 10:00-18:00, 'sun': выходной, ",45.03818,41.94768,"4,3",['8 (800) 200-00-00Показать телефон'],"['https://ok.ru/alfabank', 'https://t.me/alfabank', 'https://vk.com/alfabank', 'https://www.youtube.com/user/alfabankru']",69.0,58.0,41.0,67.0,83.0,2024-07-23 10:24:09,Ставрополь,30.0,,,,,,,,,,,,Ставропольский край
157707951430,Альфа-Банк,"ул. 50 лет ВЛКСМ, 11/1, Ставрополь",alfabank.ru,"'mon': 10:00-19:00, 'tue': 10:00-19:00, 'wed': 10:00-19:00, 'thu': 10:00-19:00, 'fri': 10:00-19:00, 'sat': выходной, 'sun': выходной, ",45.01669,41.924509,"4,4",['8 (800) 200-00-00Показать телефон'],"['https://ok.ru/alfabank', 'https://t.me/alfabank', 'https://vk.com/alfabank', 'https://www.youtube.com/user/alfabankru']",79.0,59.0,,,,2024-07-23 10:24:09,Ставрополь,,,,,,,,,,,,,Ставропольский край
59234863161,Альфа-Банк,"ул. Дзержинского, 114, Ставрополь",alfabank.ru,"'mon': 09:00-18:00, 'tue': 09:00-18:00, 'wed': 09:00-18:00, 'thu': 09:00-18:00, 'fri': 09:00-18:00, 'sat': выходной, 'sun': выходной, ",45.044203,41.970952,"4,5",['8 (800) 200-00-00Показать телефон'],"['https://ok.ru/alfabank', 'https://t.me/alfabank', 'https://vk.com/alfabank', 'https://www.youtube.com/user/alfabankru']",76.0,63.0,67.0,75.0,82.0,2024-07-23 10:24:09,Ставрополь,,,,,,,,,,,,,Ставропольский край
202007863199,Альфа-Банк,"ул. Гончарова, 25, Ульяновск",alfabank.ru,"'mon': 09:00-20:00, 'tue': 09:00-20:00, 'wed': 09:00-20:00, 'thu': 09:00-20:00, 'fri': 09:00-20:00, 'sat': 10:00-18:00, 'sun': выходной, ",54.320478,48.399188,"4,7",['8 (800) 200-00-00Показать телефон'],"['https://ok.ru/alfabank', 'https://t.me/alfabank', 'https://vk.com/alfabank', 'https://www.youtube.com/user/alfabankru']",79.0,80.0,69.0,83.0,100.0,2024-07-23 10:04:25,Ульяновск,,,,,,,,,,,,,Ульяновская область
124438729621,Альфа-Банк,"ул. Герасимова, 10, стр. 4, Ульяновск",alfabank.ru,"'mon': 10:00-19:00, 'tue': 10:00-19:00, 'wed': 10:00-19:00, 'thu': 10:00-19:00, 'fri': 10:00-19:00, 'sat': выходной, 'sun': выходной, ",54.296341,48.29501,"4,8",['8 (800) 200-00-00Показать телефон'],"['https://ok.ru/alfabank', 'https://t.me/alfabank', 'https://vk.com/alfabank']",89.0,88.0,87.0,83.0,52.0,2024-07-23 10:04:25,Ульяновск,,,,,,,,,,,,,Ульяновская область
212162467298,Альфа-Банк,"Ульяновский просп., 6, Ульяновск",alfabank.ru,"'mon': 09:00-20:00, 'tue': 09:00-20:00, 'wed': 09:00-20:00, 'thu': 09:00-20:00, 'fri': 09:00-20:00, 'sat': 10:00-16:00, 'sun': выходной, ",54.372592,48.585049,"4,6",['8 (800) 200-00-00Показать телефон'],"['https://ok.ru/alfabank', 'https://t.me/alfabank', 'https://vk.com/alfabank', 'https://www.youtube.com/user/alfabankru']",84.0,88.0,77.0,,,2024-07-23 10:04:25,Ульяновск,,,,,,,,,,,,,Ульяновская область
114133178947,Альфа-Банк,"ул. Карла Маркса, 27, Нурлат",,"'mon': 09:00-18:00, 'tue': 09:00-18:00, 'wed': 09:00-18:00, 'thu': 09:00-18:00, 'fri': 09:00-18:00, 'sat': выходной, 'sun': выходной",54.430343,50.805856,"3,8",['8 (800) 200-00-00Показать телефон'],"['http://vk.com/alfabank', 'https://ok.ru/alfabank', 'https://www.youtube.com/user/alfabankru']",,,,,,2024-07-02 19:41:02,Нурлат,,,,,,,,,,,,,Республика Татарстан
48520319242,Альфа-Банк,"Садовая ул., 11А, Курчатов",,"'mon': 10:00-19:00, 'tue': 10:00-19:00, 'wed': 10:00-19:00, 'thu': 10:00-19:00, 'fri': 10:00-19:00, 'sat': выходной, 'sun': выходной, ",51.653193,35.684955,"4,6",['8 (800) 200-00-00Показать телефон'],"['http://vk.com/alfabank', 'https://ok.ru/alfabank', 'https://www.youtube.com/user/alfabankru']",90.0,90.0,,,,2024-07-23 22:15:26,Курчатов,,,,,,,,,,,,,Курская область
210744983906,Альфа-Банк,"просп. Ленина, 21, Клинцы",alfabank.ru,"'mon': 10:00-19:00, 'tue': 10:00-19:00, 'wed': 10:00-19:00, 'thu': 10:00-19:00, 'fri': 10:00-19:00, 'sat': выходной, 'sun': выходной, ",52.753574,32.23519,"4,6",['8 (800) 200-00-00Показать телефон'],"['https://ok.ru/alfabank', 'https://t.me/alfabank', 'https://vk.com/alfabank', 'https://www.youtube.com/user/alfabankru']",92.0,100.0,,,,2024-07-23 18:44:54,Клинцы,,,,,,,,,,,,,Брянская область
26195126375,Альфа-Банк,"Октябрьская ул., 79, Будённовск",alfabank.ru,"'mon': 09:00-18:00, 'tue': 09:00-18:00, 'wed': 09:00-18:00, 'thu': 09:00-18:00, 'fri': 09:00-18:00, 'sat': выходной, 'sun': выходной",44.78227,44.156301,"4,5",['8 (800) 200-00-00Показать телефон'],"['https://ok.ru/alfabank', 'https://t.me/alfabank', 'https://vk.com/alfabank', 'https://www.youtube.com/user/alfabankru']",100.0,,,,,2024-07-02 23:19:30,Будённовск,,,,89.0,94.0,,,,,,,,Ставропольский край
1175040470,Альфа-Банк,"Нефтеразведочная ул., 2, Мегион",alfabank.ru,"'mon': 10:00-19:00, 'tue': 10:00-19:00, 'wed': 10:00-19:00, 'thu': 10:00-19:00, 'fri': 10:00-19:00, 'sat': выходной, 'sun': выходной, ",61.031282,76.121522,"4,8",['8 (800) 200-00-00Показать телефон'],"['https://ok.ru/alfabank', 'https://t.me/alfabank', 'https://vk.com/alfabank', 'https://www.youtube.com/user/alfabankru']",93.0,90.0,91.0,,,2024-07-23 20:49:14,Мегион,,,,,,,,,,,,,Ханты-Мансийский автономный округ - Югра
106741823103,Альфа-Банк,"ул. Цвиллинга, 8, Коркино",alfabank.ru,"'mon': 09:00-18:00, 'tue': 09:00-18:00, 'wed': 09:00-18:00, 'thu': 09:00-18:00, 'fri': 09:00-18:00, 'sat': 00:00-23:59, 'sun': 00:00-23:59, ",54.890324,61.410747,,['8 (800) 200-00-00Показать телефон'],"['https://ok.ru/alfabank', 'https://vk.com/alfabank']",,,,,,2024-07-24 07:21:06,Коркино,,,,,,,,,,,,,Челябинская область
26205683961,Альфа-Банк,"ул. Шолом-Алейхема, 8, Биробиджан",alfabank.ru,"'mon': 10:00-19:00, 'tue': 10:00-19:00, 'wed': 10:00-19:00, 'thu': 10:00-19:00, 'fri': 10:00-19:00, 'sat': выходной, 'sun': выходной, ",48.78951,132.93405,"4,2",['8 (800) 200-00-00Показать телефон'],"['https://ok.ru/alfabank', 'https://t.me/alfabank', 'https://vk.com/alfabank', 'https://www.youtube.com/user/alfabankru']",71.0,29.0,,,,2024-07-23 17:43:01,Биробиджан,,,,,,,,,,,,,Еврейская автономная область
203054024025,Альфа-Банк,"ул. Пугачёва, 25, Кунгур",alfabank.ru,"'mon': 10:00-19:00, 'tue': 10:00-19:00, 'wed': 10:00-19:00, 'thu': 10:00-19:00, 'fri': 10:00-19:00, 'sat': выходной, 'sun': выходной, ",57.426838,56.950233,"4,4",['8 (800) 200-00-00Показать телефон'],['https://t.me/alfabank'],96.0,100.0,,,,2024-07-23 18:34:31,Кунгур,,,,,,,,,,,,,Пермский край
40054607208,Альфа-Банк,"Октябрьская ул., 2, микрорайон Центральный, Воскресенск",alfabank.ru,"'mon': 10:00-19:00, 'tue': 10:00-19:00, 'wed': 10:00-19:00, 'thu': 10:00-19:00, 'fri': 10:00-19:00, 'sat': выходной, 'sun': выходной, ",55.322189,38.674341,"4,4",['+7 (495) 755-58-58Показать телефон'],"['https://ok.ru/alfabank', 'https://t.me/alfabank', 'https://vk.com/alfabank', 'https://www.youtube.com/user/alfabankru']",68.0,58.0,,,,2024-07-23 16:18:57,Воскресенск,,,,,,,,,,,,,Московская область
164880606154,Альфа-Банк,"ул. Пушкина, 25, Камень-на-Оби",alfabank.ru,"'mon': 10:00-19:00, 'tue': 10:00-19:00, 'wed': 10:00-19:00, 'thu': 10:00-19:00, 'fri': 10:00-19:00, 'sat': выходной, 'sun': выходной, ",53.791098,81.347632,"4,5",['8 (800) 200-00-00Показать телефон'],"['https://ok.ru/alfabank', 'https://t.me/alfabank', 'https://vk.com/alfabank', 'https://www.youtube.com/user/alfabankru']",,,,,,2024-07-23 21:34:54,Камень-на-Оби,,,,,,,,,,,,,Алтайский край
15911734252,Альфа-Банк,"ул. Карла Маркса, 77А, Ишим",,"'mon': 10:00-19:00, 'tue': 10:00-19:00, 'wed': 10:00-19:00, 'thu': 10:00-19:00, 'fri': 10:00-19:00, 'sat': выходной, 'sun': выходной, ",56.110209,69.507325,"4,5",['8 (800) 200-00-00Показать телефон'],"['http://vk.com/alfabank', 'https://ok.ru/alfabank', 'https://www.youtube.com/user/alfabankru']",83.0,73.0,,,,2024-07-23 18:12:58,Ишим,,,,,,,,,,,,,Тюменская область
55677171873,Альфа-Банк,"Спортивная ул., 2, Богданович",alfabank.ru,"'mon': 10:00-19:00, 'tue': 10:00-19:00, 'wed': 10:00-19:00, 'thu': 10:00-19:00, 'fri': 10:00-19:00, 'sat': выходной, 'sun': выходной, ",56.7712,62.052548,"4,3",['8 (800) 200-00-00Показать телефон'],"['https://ok.ru/alfabank', 'https://t.me/alfabank', 'https://vk.com/alfabank', 'https://www.youtube.com/user/alfabankru']",77.0,75.0,,,,2024-07-23 23:16:53,Богданович,,,,,,,,,,,,,Свердловская область
177656117228,Альфа-Банк,"Комсомольская ул., 6А, Новоуральск",alfabank.ru,"'mon': 10:00-19:00, 'tue': 10:00-19:00, 'wed': 10:00-19:00, 'thu': 10:00-19:00, 'fri': 10:00-19:00, 'sat': выходной, 'sun': выходной, ",57.247781,60.080673,"4,5",['8 (800) 200-00-00Показать телефон'],"['https://ok.ru/alfabank', 'https://t.me/alfabank', 'https://vk.com/alfabank', 'https://www.youtube.com/user/alfabankru']",,,,,,2024-07-23 17:13:15,Новоуральск,,,,,,,,,,,,,Свердловская область
116918127170,Альфа-Банк,"ул. Калинина, 19А, Ирбит",,"'mon': 10:00-19:00, 'tue': 10:00-19:00, 'wed': 10:00-19:00, 'thu': 10:00-19:00, 'fri': 10:00-19:00, 'sat': выходной, 'sun': выходной, ",57.678473,63.06353,"4,5",['8 (800) 200-00-00Показать телефон'],"['http://vk.com/alfabank', 'https://ok.ru/alfabank', 'https://www.youtube.com/user/alfabankru']",94.0,,100.0,,,2024-07-24 05:17:25,Ирбит,,,,,,,,,,,,,Свердловская область
12507243481,Альфа-Банк,"Красная ул., 112, Кореновск",alfabank.ru,"'mon': 09:00-18:00, 'tue': 09:00-18:00, 'wed': 09:00-18:00, 'thu': 09:00-18:00, 'fri': 09:00-18:00, 'sat': выходной, 'sun': выходной, ",45.465466,39.448384,"4,6",['8 (800) 200-00-00Показать телефон'],"['https://ok.ru/alfabank', 'https://t.me/alfabank', 'https://vk.com/alfabank', 'https://www.youtube.com/user/alfabankru']",,,,,,2024-07-23 21:27:08,Кореновск,,,,,,,,,,,,,Краснодарский край
115208039878,Альфа-Банк,"просп. Ленина, 26А, Владимир",alfabank.ru,"'mon': 09:00-19:00, 'tue': 09:00-19:00, 'wed': 09:00-19:00, 'thu': 09:00-19:00, 'fri': 09:00-19:00, 'sat': выходной, 'sun': выходной, ",56.120432,40.36771,"4,4",['8 (800) 200-00-00Показать телефон'],"['https://ok.ru/alfabank', 'https://t.me/alfabank', 'https://vk.com/alfabank', 'https://www.youtube.com/user/alfabankru']",76.0,66.0,71.0,50.0,80.0,2024-07-23 11:22:25,Владимир,33.0,91.0,,,,,,,,,,,Владимирская область
162274101595,Альфа-Банк,"просп. Ленина, 39Г, Димитровград",alfabank.ru,"'mon': 10:00-19:00, 'tue': 10:00-19:00, 'wed': 10:00-19:00, 'thu': 10:00-19:00, 'fri': 10:00-19:00, 'sat': выходной, 'sun': выходной, ",54.238195,49.564779,"5,0",['8 (800) 200-00-00Показать телефон'],"['https://ok.ru/alfabank', 'https://t.me/alfabank', 'https://vk.com/alfabank', 'https://www.youtube.com/user/alfabankru']",92.0,90.0,93.0,,100.0,2024-07-23 15:11:36,Димитровград,,,,,,,,,,,,,Ульяновская область
180566401021,Альфа-Банк,"Коммунистический просп., 18, Междуреченск",alfabank.ru,"'mon': 09:00-18:00, 'tue': 09:00-18:00, 'wed': 09:00-18:00, 'thu': 09:00-18:00, 'fri': 09:00-18:00, 'sat': выходной, 'sun': выходной, ",53.689502,88.068917,"4,5",['8 (800) 200-00-00Показать телефон'],"['https://ok.ru/alfabank', 'https://t.me/alfabank', 'https://vk.com/alfabank', 'https://www.youtube.com/user/alfabankru']",,,,,,2024-07-23 16:09:02,Междуреченск,,,,,,,,,,,,,Кемеровская область
70774682860,Альфа-Банк,"ул. Софьи Перовской, 2, Туапсе",alfabank.ru,"'mon': 09:00-18:00, 'tue': 09:00-18:00, 'wed': 09:00-18:00, 'thu': 09:00-18:00, 'fri': 09:00-18:00, 'sat': выходной, 'sun': выходной, ",44.099214,39.079832,"4,7",['8 (800) 200-00-00Показать телефон'],"['https://ok.ru/alfabank', 'https://t.me/alfabank', 'https://vk.com/alfabank', 'https://www.youtube.com/user/alfabankru']",83.0,74.0,83.0,,,2024-07-23 18:52:53,Туапсе,,,,,,,,,,,,,Краснодарский край
43888265827,Альфа-Банк,"ул. Ленина, 145, Белореченск",alfabank.ru,"'mon': 09:00-18:00, 'tue': 09:00-18:00, 'wed': 09:00-18:00, 'thu': 09:00-18:00, 'fri': 09:00-18:00, 'sat': выходной, 'sun': выходной, ",44.766606,39.867034,"4,5",['8 (800) 200-00-00Показать телефон'],"['https://ok.ru/alfabank', 'https://t.me/alfabank', 'https://vk.com/alfabank', 'https://www.youtube.com/user/alfabankru']",83.0,85.0,,,,2024-07-23 20:23:55,Белореченск,,,,,,,,,,,,,Краснодарский край
219897852111,Альфа-Банк,"просп. Ленина, 38, Ковров",alfabank.ru,"'mon': 09:00-18:00, 'tue': 09:00-18:00, 'wed': 09:00-18:00, 'thu': 09:00-18:00, 'fri': 09:00-18:00, 'sat': выходной, 'sun': выходной, ",56.359609,41.312289,"4,9",['8 (800) 200-00-00Показать телефон'],"['https://ok.ru/alfabank', 'https://t.me/alfabank', 'https://vk.com/alfabank', 'https://www.youtube.com/user/alfabankru']",91.0,83.0,89.0,,,2024-07-24 00:34:05,Ковров,,,,,,,,,,,,,Владимирская область
65647753272,Альфа-Банк,"просп. Академика Сандахчиева, 9, рабочий посёлок Кольцово",alfabank.ru,"'mon': 08:00-23:00, 'tue': 08:00-23:00, 'wed': 08:00-23:00, 'thu': 08:00-23:00, 'fri': 08:00-23:00, 'sat': 08:00-23:00, 'sun': 08:00-23:00",54.940107,83.189897,,['8 (800) 200-00-00Показать телефон'],"['https://ok.ru/alfabank', 'https://t.me/alfabank', 'https://vk.com/alfabank']",,,,,,2024-07-02 23:02:28,р.п. Кольцово,,,,,,,,,,,,,Новосибирская область
53528819672,Альфа-Банк,"Никольский просп., 2, рабочий посёлок Кольцово",alfabank.ru,"'mon': 09:00-21:00, 'tue': 09:00-21:00, 'wed': 09:00-21:00, 'thu': 09:00-21:00, 'fri': 09:00-21:00, 'sat': выходной, 'sun': выходной",54.938948,83.188406,,['8 (800) 200-00-00Показать телефон'],"['https://ok.ru/alfabank', 'https://t.me/alfabank', 'https://vk.com/alfabank']",,,,,,2024-07-02 23:02:28,р.п. Кольцово,,,,,,,,,,,,,Новосибирская область
108641168284,Альфа-Банк,"Советская ул., 56, Сафоново",,"'mon': 10:00-19:00, 'tue': 10:00-19:00, 'wed': 10:00-19:00, 'thu': 10:00-19:00, 'fri': 10:00-19:00, 'sat': выходной, 'sun': выходной, ",55.116372,33.238286,"4,7",['8 (800) 200-00-00Показать телефон'],"['http://vk.com/alfabank', 'https://ok.ru/alfabank', 'https://www.youtube.com/user/alfabankru']",,,,,,2024-07-23 21:21:09,Сафоново,,,,,,,,,,,,,Смоленская область
11731633586,Альфа-Банк,"Ленинградская ул., 29, Пушкин",alfabank.ru,"'mon': 10:00-19:00, 'tue': 10:00-19:00, 'wed': 10:00-19:00, 'thu': 10:00-19:00, 'fri': 10:00-19:00, 'sat': выходной, 'sun': выходной, ",59.726411,30.418941,"3,9",['8 (800) 200-00-00Показать телефон'],"['http://vk.com/alfabank', 'https://ok.ru/alfabank', 'https://www.youtube.com/user/alfabankru']",56.0,38.0,90.0,,,2024-07-23 16:44:18,Пушкин,,,,,,,,,,,,,Санкт-Петербург
240894883305,Альфа-Банк,"26, 5-й микрорайон, Лесосибирск",alfabank.ru,"'mon': 09:00-18:00, 'tue': 09:00-18:00, 'wed': 09:00-18:00, 'thu': 09:00-18:00, 'fri': 09:00-18:00, 'sat': выходной, 'sun': выходной, ",58.220842,92.503963,"4,4",['8 (800) 200-00-00Показать телефон'],"['https://ok.ru/alfabank', 'https://t.me/alfabank', 'https://vk.com/alfabank', 'https://www.youtube.com/user/alfabankru']",94.0,90.0,,,,2024-07-23 19:19:13,Лесосибирск,,,,,,,,,,,,,Красноярский край
106356996346,Альфа-Банк,"ул. Ленина, 39, Черняховск",alfabank.ru,"'mon': 10:00-19:00, 'tue': 10:00-19:00, 'wed': 10:00-19:00, 'thu': 10:00-19:00, 'fri': 10:00-19:00, 'sat': выходной, 'sun': выходной, ",54.631666,21.819027,"4,5",['8 (800) 200-00-00Показать телефон'],"['https://ok.ru/alfabank', 'https://t.me/alfabank', 'https://vk.com/alfabank', 'https://www.youtube.com/user/alfabankru']",,,,,,2024-07-23 22:36:25,Черняховск,,,,,,,,,,,,,Калининградская область
73198665802,Альфа-Банк,"Большая Санкт-Петербургская ул., 13, Великий Новгород",alfabank.ru,"'mon': 10:00-20:00, 'tue': 10:00-20:00, 'wed': 10:00-20:00, 'thu': 10:00-20:00, 'fri': 10:00-20:00, 'sat': 10:00-18:00, 'sun': выходной, ",58.529619,31.270688,"4,7",['8 (800) 200-00-00Показать телефон'],"['https://ok.ru/alfabank', 'https://t.me/alfabank', 'https://vk.com/alfabank', 'https://www.youtube.com/user/alfabankru']",78.0,71.0,86.0,85.0,100.0,2024-07-23 12:44:21,Великий Новгород,,,,,,,,,,,,,Новгородская область
33524583785,Альфа-Банк,"ул. Ленина, 101А, Армавир",alfabank.ru,"'mon': 09:00-18:00, 'tue': 09:00-18:00, 'wed': 09:00-18:00, 'thu': 09:00-18:00, 'fri': 09:00-18:00, 'sat': выходной, 'sun': выходной, ",44.999529,41.127371,"5,0",['8 (800) 200-00-00Показать телефон'],"['https://ok.ru/alfabank', 'https://t.me/alfabank', 'https://vk.com/alfabank', 'https://www.youtube.com/user/alfabankru']",92.0,84.0,89.0,92.0,92.0,2024-07-23 13:08:51,Армавир,,,,,,,,,,,,,Краснодарский край
