ID,name,city,address,opening_hours,lat,lon,rating,Обслуживание,Отношение к клиентам,Персонал,Время ожидания,Кредит,Банкомат,Расположение,Вклад,load_time
156216472392,Альфа-Банк,Кудрово,"Европейский просп., 8, Кудрово","'mon': 10:00-19:00, 'tue': 10:00-19:00, 'wed': 10:00-19:00, 'thu': 10:00-19:00, 'fri': 10:00-19:00, 'sat': выходной, 'sun': выходной",59.900792,30.512752,"4,4",83.0,82.0,93.0,82.0,,,,,2024-06-24 01:54:49
159482750452,Альфа-Банк,Красноуфимск,"Советская ул., 51, Красноуфимск","'mon': 10:00-19:00, 'tue': 10:00-19:00, 'wed': 10:00-19:00, 'thu': 10:00-19:00, 'fri': 10:00-19:00, 'sat': выходной, 'sun': выходной",56.614684,57.766487,"4,4",86.0,83.0,,,,,,,2024-06-24 04:54:20
57365798567,Альфа-Банк,Раменское,"ул. Михалевича, 1А, Раменское","'mon': 10:00-19:00, 'tue': 10:00-19:00, 'wed': 10:00-19:00, 'thu': 10:00-19:00, 'fri': 10:00-19:00, 'sat': выходной, 'sun': выходной",55.568181,38.22707,"4,7",75.0,74.0,75.0,69.0,81.0,,80.0,,2024-06-23 21:47:21
86273842073,Альфа-Банк,Миасс,"просп. Автозаводцев, 61Б, Миасс","'mon': 09:00-20:00, 'tue': 09:00-20:00, 'wed': 09:00-20:00, 'thu': 09:00-20:00, 'fri': 09:00-20:00, 'sat': 10:00-18:00, 'sun': выходной",55.047533,60.109105,"4,6",81.0,81.0,81.0,78.0,91.0,,100.0,,2024-06-23 20:51:35
179390576117,Альфа-Банк,Сосновоборск,"ул. Ленинского Комсомола, 4, Сосновоборск","'mon': 09:00-22:59, 'tue': 09:00-22:59, 'wed': 09:00-22:59, 'thu': 09:00-22:59, 'fri': 09:00-22:59, 'sat': 09:00-22:59, 'sun': 09:00-22:59",56.122846,93.338057,,,,,,,,,,2024-06-24 16:50:32
167844286369,Альфа-Банк,Гурьевск,"Пражский бул., 2А, Гурьевск","'mon': 06:30-22:00, 'tue': 06:30-22:00, 'wed': 06:30-22:00, 'thu': 06:30-22:00, 'fri': 06:30-22:00, 'sat': 06:30-22:00, 'sun': 06:30-22:00",54.760023,20.601963,,,,,,,,,,2024-06-24 11:02:00
23928038311,Альфа-Банк,Гурьевск,"Пражский бул., 1Ж, Гурьевск","'mon': 07:00-23:00, 'tue': 07:00-23:00, 'wed': 07:00-23:00, 'thu': 07:00-23:00, 'fri': 07:00-23:00, 'sat': 07:00-23:00, 'sun': 07:00-23:00",54.761937,20.605965,,,,,,,,,,2024-06-24 11:02:00
115670182788,Альфа-Банк,Корсаков,"Советская ул., 31, Корсаков","'mon': 10:00-18:00, 'tue': 10:00-18:00, 'wed': 10:00-18:00, 'thu': 10:00-18:00, 'fri': 10:00-18:00, 'sat': выходной, 'sun': выходной",46.63210,142.7793,"4,8",100.0,100.0,100.0,,,,,,2024-06-24 05:53:29
17126988994,Альфа-Банк,Иркутск,"ул. Литвинова, 2, Иркутск","'mon': 09:00-20:00, 'tue': 09:00-19:00, 'wed': выходной, 'thu': 09:00-20:00, 'fri': 09:00-20:00, 'sat': 10:00-18:00, 'sun': выходной",52.28424,104.28806,"4,4",78.0,74.0,83.0,78.0,86.0,,79.0,,2024-06-23 16:51:51
4054672646,Альфа-Банк,Иркутск,"ул. Кожова, 20, Иркутск","'mon': 09:00-18:00, 'tue': 09:00-18:00, 'wed': 09:00-18:00, 'thu': 09:00-18:00, 'fri': 09:00-18:00, 'sat': выходной, 'sun': выходной",52.27126,104.28937,"4,5",83.0,82.0,84.0,78.0,82.0,,,,2024-06-23 16:51:51
7458315971,Альфа-Банк,Иркутск,"ул. Лермонтова, 63, Иркутск","'mon': 09:00-18:00, 'tue': 09:00-18:00, 'wed': 09:00-18:00, 'thu': 09:00-18:00, 'fri': 09:00-18:00, 'sat': выходной, 'sun': выходной",52.26957,104.25705,"4,5",88.0,86.0,86.0,88.0,90.0,,100.0,,2024-06-23 16:51:51
1124757899,Альфа-Банк,Иркутск,"ул. Ленина, 25, Иркутск","'mon': 09:00-20:00, 'tue': 09:00-20:00, 'wed': 09:00-20:00, 'thu': 09:00-20:00, 'fri': 09:00-20:00, 'sat': 10:00-18:00, 'sun': выходной",52.27677,104.28605,"4,3",71.0,70.0,70.0,66.0,70.0,,69.0,,2024-06-23 16:51:51
176079913766,Альфа-Банк,Каменка,"ул. Чкалова, 21, Каменка","'mon': 09:00-18:00, 'tue': 09:00-18:00, 'wed': 09:00-18:00, 'thu': 09:00-18:00, 'fri': 09:00-18:00, 'sat': выходной, 'sun': выходной",53.195306,43.984607,"4,4",100.0,100.0,100.0,,,,,,2024-06-24 13:40:38
72421910879,Альфа-Банк,Белая Калитва,"Российская ул., 23, Белая Калитва","'mon': 07:00-20:00, 'tue': 07:00-20:00, 'wed': 07:00-20:00, 'thu': 07:00-20:00, 'fri': 07:00-20:00, 'sat': 07:00-19:00, 'sun': 07:00-19:00",48.174934,40.808946,,,,,,,,,,2024-06-24 10:09:33
53218837201,Альфа-Банк,Белая Калитва,"ул. Энгельса, 382, Белая Калитва","'mon': 10:00-19:00, 'tue': 10:00-19:00, 'wed': 10:00-19:00, 'thu': 10:00-19:00, 'fri': 10:00-19:00, 'sat': 00:00-23:59, 'sun': 00:00-23:59",48.177019,40.792775,,,,,,,,,,2024-06-24 10:09:33
12540973360,Альфа-Банк,Мелеуз,"ул. Ленина, 133, Мелеуз","'mon': 10:00-19:00, 'tue': 10:00-19:00, 'wed': 10:00-19:00, 'thu': 10:00-19:00, 'fri': 10:00-19:00, 'sat': выходной, 'sun': выходной",52.964655,55.925948,"4,0",,,,,,,,,2024-06-24 15:10:12
37470310783,Альфа-Банк,Удомля,"ул. Попова, 23, Удомля","'mon': 10:00-19:00, 'tue': 10:00-19:00, 'wed': 10:00-19:00, 'thu': 10:00-19:00, 'fri': 10:00-19:00, 'sat': выходной, 'sun': выходной",57.872524,35.007428,"4,5",94.0,94.0,93.0,,,,,,2024-06-24 06:11:18
164819686969,Альфа-Банк,Королёв,"просп. Космонавтов, 27Б, Королёв","'mon': 10:00-20:00, 'tue': 10:00-20:00, 'wed': 10:00-20:00, 'thu': 10:00-20:00, 'fri': 10:00-20:00, 'sat': 10:00-18:00, 'sun': выходной",55.91352,37.868382,"4,4",59.0,56.0,67.0,55.0,46.0,51.0,68.0,55.0,2024-06-24 07:02:10
98563103458,Альфа-Банк,Елец,"ул. Мира, 133, Елец","'mon': 10:00-19:00, 'tue': 10:00-19:00, 'wed': 10:00-19:00, 'thu': 10:00-19:00, 'fri': 10:00-19:00, 'sat': выходной, 'sun': выходной",52.625513,38.50111,"4,4",84.0,81.0,85.0,92.0,,,,,2024-06-23 22:25:36
134295325323,Альфа-Банк,Рассказово,"Куйбышевский пр., 2Г, Рассказово","'mon': 09:00-18:00, 'tue': 09:00-18:00, 'wed': 09:00-18:00, 'thu': 09:00-18:00, 'fri': 09:00-18:00, 'sat': выходной, 'sun': выходной",52.654296,41.876225,"4,6",93.0,100.0,100.0,,,,,,2024-06-24 16:08:24
78629804860,Альфа-Банк,Магнитогорск,"просп. Ленина, 90, Магнитогорск","'mon': 09:00-20:00, 'tue': 09:00-20:00, 'wed': 09:00-20:00, 'thu': 09:00-20:00, 'fri': 09:00-20:00, 'sat': 10:00-18:00, 'sun': выходной",53.399997,58.984783,"4,4",89.0,86.0,91.0,78.0,85.0,,,,2024-06-23 17:58:47
63671947314,Альфа-Банк,Магнитогорск,"просп. Карла Маркса, 179А, Магнитогорск","'mon': 09:00-20:00, 'tue': 09:00-19:00, 'wed': выходной, 'thu': 09:00-20:00, 'fri': 09:00-20:00, 'sat': 10:00-18:00, 'sun': выходной",53.366579,58.979536,"4,5",78.0,76.0,78.0,80.0,71.0,,,,2024-06-23 17:58:47
1209698536,Альфа-Банк,Магнитогорск,"просп. Ленина, 51, Магнитогорск","'mon': 10:00-20:00, 'tue': 10:00-20:00, 'wed': 10:00-20:00, 'thu': 10:00-20:00, 'fri': 10:00-20:00, 'sat': выходной, 'sun': выходной",53.418338,58.984917,"4,4",91.0,90.0,94.0,79.0,87.0,,,,2024-06-23 17:58:47
59590475978,Альфа-Банк,Тверь,"Трёхсвятская ул., 28, Тверь","'mon': 09:00-19:00, 'tue': 09:00-19:00, 'wed': 09:00-19:00, 'thu': 09:00-19:00, 'fri': 09:00-19:00, 'sat': 10:00-17:00, 'sun': выходной",56.857445,35.911133,"4,5",80.0,74.0,72.0,73.0,92.0,,,,2024-06-24 07:43:52
1571438836,Альфа-Банк,Тверь,"ул. Желябова, 3, Тверь","'mon': 09:00-19:00, 'tue': 09:00-19:00, 'wed': 09:00-19:00, 'thu': 09:00-19:00, 'fri': 09:00-19:00, 'sat': 10:00-17:00, 'sun': выходной",56.854931,35.908725,"4,3",64.0,66.0,69.0,46.0,77.0,63.0,78.0,,2024-06-24 07:43:52
174462262647,Альфа-Банк,Каменск-Шахтинский,"просп. Карла Маркса, 73, Каменск-Шахтинский","'mon': 10:00-19:00, 'tue': 10:00-19:00, 'wed': 10:00-19:00, 'thu': 10:00-19:00, 'fri': 10:00-19:00, 'sat': выходной, 'sun': выходной",48.320275,40.269264,"4,4",62.0,69.0,69.0,55.0,,,,,2024-06-23 23:19:56
92293402136,Альфа-Банк,Невинномысск,"ул. Гагарина, 70Б, Невинномысск","'mon': 10:00-19:00, 'tue': 10:00-19:00, 'wed': 10:00-19:00, 'thu': 10:00-19:00, 'fri': 10:00-19:00, 'sat': выходной, 'sun': выходной",44.624983,41.946428,"4,3",76.0,71.0,68.0,,,,,,2024-06-23 21:45:24
121955454975,Альфа-Банк,Сыктывкар,"Коммунистическая ул., 46, Сыктывкар","'mon': 10:00-19:00, 'tue': 10:00-19:00, 'wed': 10:00-19:00, 'thu': 10:00-19:00, 'fri': 10:00-19:00, 'sat': выходной, 'sun': выходной",61.663127,50.810554,"4,6",74.0,74.0,76.0,,,,,,2024-06-23 19:40:03
236569593098,Альфа-Банк,Можга,"Можгинская ул., 51, Можга","'mon': 09:00-18:00, 'tue': 09:00-18:00, 'wed': 09:00-18:00, 'thu': 09:00-18:00, 'fri': 09:00-18:00, 'sat': выходной, 'sun': выходной",56.443065,52.214612,"4,4",89.0,93.0,86.0,,,,,,2024-06-24 15:18:08
190695527356,Альфа-Банк,Борисоглебск,"ул. Свободы, 213, Борисоглебск","'mon': 09:00-18:00, 'tue': 09:00-18:00, 'wed': 09:00-18:00, 'thu': 09:00-18:00, 'fri': 09:00-18:00, 'sat': выходной, 'sun': выходной",51.367062,42.074276,"4,6",93.0,93.0,92.0,,,,,,2024-06-24 01:47:17
192554296468,Альфа-Банк,Нововоронеж,"ул. Космонавтов, 23, Нововоронеж","'mon': 09:00-18:00, 'tue': 09:00-18:00, 'wed': 09:00-18:00, 'thu': 09:00-18:00, 'fri': 09:00-18:00, 'sat': выходной, 'sun': выходной",51.314213,39.206818,"4,3",100.0,100.0,,,,,,,2024-06-24 06:13:30
18125535813,Альфа-Банк,Ухта,"просп. Ленина, 27, Ухта","'mon': 10:00-19:00, 'tue': 10:00-19:00, 'wed': 10:00-19:00, 'thu': 10:00-19:00, 'fri': 10:00-19:00, 'sat': выходной, 'sun': выходной",63.56428,53.67371,"4,3",85.0,85.0,83.0,57.0,,,,,2024-06-23 22:53:11
70312479388,Альфа-Банк,Петергоф,"Санкт-Петербургский просп., 29, Петергоф","'mon': 10:00-19:00, 'tue': 10:00-19:00, 'wed': 10:00-19:00, 'thu': 10:00-19:00, 'fri': 10:00-19:00, 'sat': выходной, 'sun': выходной",59.879019,29.917645,"4,3",71.0,79.0,79.0,72.0,,,,,2024-06-23 23:50:48
136096492200,Альфа-Банк,Всеволожск,"Всеволожский просп., 29, Всеволожск","'mon': 10:00-19:00, 'tue': 10:00-19:00, 'wed': 10:00-19:00, 'thu': 10:00-19:00, 'fri': 10:00-19:00, 'sat': выходной, 'sun': выходной",60.018569,30.646511,"4,2",74.0,77.0,76.0,56.0,,,,,2024-06-24 00:36:42
79899151431,Альфа-Банк,Нягань,"1, 1-й микрорайон, Нягань","'mon': 10:00-19:00, 'tue': 10:00-19:00, 'wed': 10:00-19:00, 'thu': 10:00-19:00, 'fri': 10:00-19:00, 'sat': выходной, 'sun': выходной",62.145015,65.437157,"4,4",93.0,93.0,93.0,,,,,,2024-06-24 02:15:56
86418285260,Альфа-Банк,Богородск,"ул. Ленина, 189, Богородск","'mon': 09:00-18:00, 'tue': 09:00-18:00, 'wed': 09:00-18:00, 'thu': 09:00-18:00, 'fri': 09:00-18:00, 'sat': выходной, 'sun': выходной",56.10417,43.5168,"4,6",94.0,93.0,93.0,,,,,,2024-06-24 05:39:36
166205304965,Альфа-Банк,Нарьян-Мар,"ул. имени В.И. Ленина, 19, Нарьян-Мар","'mon': 10:00-18:00, 'tue': 10:00-18:00, 'wed': 10:00-18:00, 'thu': 10:00-18:00, 'fri': 10:00-18:00, 'sat': выходной, 'sun': выходной",67.637811,53.0046,,,,,,,,,,2024-06-24 15:29:04
56586818540,Альфа-Банк,Кемерово,"просп. Ленина, 64А, Кемерово","'mon': 09:00-20:00, 'tue': 09:00-20:00, 'wed': 09:00-20:00, 'thu': 09:00-20:00, 'fri': 09:00-20:00, 'sat': 10:00-18:00, 'sun': выходной",55.345268,86.106934,"5,0",90.0,86.0,89.0,90.0,91.0,,,100.0,2024-06-23 17:03:46
18035333170,Альфа-Банк,Кемерово,"Советский просп., 32, Кемерово","'mon': 09:00-20:00, 'tue': 09:00-20:00, 'wed': 09:00-20:00, 'thu': 09:00-20:00, 'fri': 09:00-20:00, 'sat': 10:00-18:00, 'sun': выходной",55.3581,86.075412,"4,3",71.0,66.0,72.0,63.0,70.0,55.0,,93.0,2024-06-23 17:03:46
238730780400,Альфа-Банк,Кемерово,"бул. Строителей, 28, Кемерово","'mon': 10:00-19:00, 'tue': 10:00-19:00, 'wed': 10:00-19:00, 'thu': 10:00-19:00, 'fri': 10:00-19:00, 'sat': выходной, 'sun': выходной",55.344797,86.167516,"4,6",86.0,86.0,90.0,80.0,88.0,80.0,,,2024-06-23 17:03:46
200684844802,Альфа-Банк,Богородицк,"ул. Коммунаров, 59, Богородицк","'mon': 10:00-19:00, 'tue': 10:00-19:00, 'wed': 10:00-19:00, 'thu': 10:00-19:00, 'fri': 10:00-19:00, 'sat': выходной, 'sun': выходной",53.770338,38.131382,"4,6",95.0,94.0,93.0,90.0,100.0,,,,2024-06-24 06:17:28
114170656931,Альфа-Банк,Магадан,"просп. Карла Маркса, 36/20, Магадан","'mon': 10:00-19:00, 'tue': 10:00-19:00, 'wed': 10:00-19:00, 'thu': 10:00-19:00, 'fri': 10:00-19:00, 'sat': выходной, 'sun': выходной",59.56443,150.80295,"4,3",85.0,84.0,86.0,82.0,,,,,2024-06-23 23:11:16
36123461819,Альфа-Банк,Северодвинск,"ул. Ломоносова, 64, Северодвинск","'mon': 10:00-19:00, 'tue': 10:00-19:00, 'wed': 10:00-19:00, 'thu': 10:00-19:00, 'fri': 10:00-19:00, 'sat': выходной, 'sun': выходной",64.555848,39.812804,"4,3",68.0,68.0,65.0,45.0,,,,,2024-06-23 20:34:52
24038638411,Альфа-Банк,Дмитров,"Загорская ул., 24, Дмитров","'mon': 00:00-23:59, 'tue': 00:00-23:59, 'wed': 00:00-23:59, 'thu': 00:00-23:59, 'fri': 00:00-23:59, 'sat': 00:00-23:59, 'sun': 00:00-23:59",56.342311,37.51838,,,,,,,,,,2024-06-24 00:52:00
195453003221,Альфа-Банк,Дмитров,"Профессиональная ул., 7, Дмитров","'mon': 10:00-22:00, 'tue': 10:00-22:00, 'wed': 10:00-22:00, 'thu': 10:00-22:00, 'fri': 10:00-22:00, 'sat': 10:00-22:00, 'sun': 10:00-22:00",56.352572,37.520518,,0.0,0.0,,0.0,,,,,2024-06-24 00:52:00
151199915612,Альфа-Банк,Майкоп,"Советская ул., 199, Майкоп","'mon': 09:00-18:00, 'tue': 09:00-18:00, 'wed': 09:00-18:00, 'thu': 09:00-18:00, 'fri': 09:00-18:00, 'sat': выходной, 'sun': выходной",44.605394,40.106804,"4,4",68.0,65.0,71.0,,,,,,2024-06-23 21:04:42
243253567111,Альфа-Банк,Чебаркуль,"ул. Ленина, 23, Чебаркуль","'mon': 10:00-19:00, 'tue': 10:00-19:00, 'wed': 10:00-19:00, 'thu': 10:00-19:00, 'fri': 10:00-19:00, 'sat': выходной, 'sun': выходной",54.977232,60.364577,"4,5",83.0,80.0,,,,,,,2024-06-24 04:24:27
24250231930,Альфа-Банк,Новокуйбышевск,"ул. Миронова, 3, Новокуйбышевск","'mon': 10:00-19:00, 'tue': 10:00-19:00, 'wed': 10:00-19:00, 'thu': 10:00-19:00, 'fri': 10:00-19:00, 'sat': выходной, 'sun': выходной",53.096533,49.949501,"4,3",100.0,100.0,100.0,,,,,,2024-06-23 22:44:24
1176165471,Альфа-Банк,Прокопьевск,"ул. Шишкина, 11, Прокопьевск","'mon': 09:00-20:00, 'tue': 09:00-20:00, 'wed': 09:00-20:00, 'thu': 09:00-20:00, 'fri': 09:00-20:00, 'sat': 10:00-18:00, 'sun': выходной",53.875315,86.650325,"4,3",72.0,72.0,75.0,53.0,65.0,,,,2024-06-23 20:10:46
186068066518,Альфа-Банк,Кинель,"ул. Маяковского, 77/6, Кинель","'mon': 00:00-23:59, 'tue': 00:00-23:59, 'wed': 00:00-23:59, 'thu': 00:00-23:59, 'fri': 00:00-23:59, 'sat': 00:00-23:59, 'sun': 00:00-23:59",53.219565,50.643108,,,,,,,,,,2024-06-24 05:23:22
29095476588,Альфа-Банк,Кинель,"ул. Чехова, 5, Кинель","'mon': 07:30-23:30, 'tue': 07:30-23:30, 'wed': 07:30-23:30, 'thu': 07:30-23:30, 'fri': 07:30-23:30, 'sat': 07:30-23:30, 'sun': 07:30-23:30",53.22081,50.644088,,,,,,,,,,2024-06-24 05:23:22
207217458697,Альфа-Банк,Томск,"Комсомольский просп., 53, Томск","'mon': 09:00-20:00, 'tue': 09:00-20:00, 'wed': 09:00-20:00, 'thu': 09:00-20:00, 'fri': 09:00-20:00, 'sat': 10:00-18:00, 'sun': выходной",56.475678,84.980986,"4,8",87.0,86.0,91.0,84.0,76.0,,100.0,,2024-06-23 17:06:11
182138474693,Альфа-Банк,Томск,"Тверская ул., 18, Томск","'mon': 09:00-18:00, 'tue': 09:00-18:00, 'wed': 09:00-18:00, 'thu': 09:00-18:00, 'fri': 09:00-16:45, 'sat': выходной, 'sun': выходной",56.482926,84.971346,"4,5",89.0,88.0,95.0,85.0,82.0,,,,2024-06-23 17:06:11
150401836207,Альфа-Банк,Томск,"Красноармейская ул., 101А, Томск","'mon': 09:00-20:00, 'tue': 09:00-20:00, 'wed': 09:00-20:00, 'thu': 09:00-20:00, 'fri': 09:00-20:00, 'sat': 10:00-18:00, 'sun': выходной",56.462526,84.965984,"4,6",87.0,85.0,89.0,87.0,74.0,,,,2024-06-23 17:06:11
124147436858,Альфа-Банк,Губкинский,"43, 12-й микрорайон, Губкинский","'mon': 10:00-19:00, 'tue': 10:00-19:00, 'wed': 10:00-19:00, 'thu': 10:00-19:00, 'fri': 10:00-19:00, 'sat': выходной, 'sun': выходной",64.434624,76.508408,"4,5",89.0,88.0,82.0,,,,,,2024-06-24 10:57:59
228871289618,Альфа-Банк,Канск,"ул. 40 лет Октября, 62/4, Канск","'mon': 10:00-19:00, 'tue': 10:00-19:00, 'wed': 10:00-19:00, 'thu': 10:00-19:00, 'fri': 10:00-19:00, 'sat': выходной, 'sun': выходной",56.231898,95.701004,"4,3",63.0,68.0,68.0,57.0,,,,,2024-06-23 23:17:59
164389531646,Альфа-Банк,Арзамас,"просп. Ленина, 198, Арзамас","'mon': 10:00-19:00, 'tue': 10:00-19:00, 'wed': 10:00-19:00, 'thu': 10:00-19:00, 'fri': 10:00-19:00, 'sat': выходной, 'sun': выходной",55.401703,43.834642,"4,5",95.0,95.0,100.0,,,,,,2024-06-23 22:14:28
152119562023,Альфа-Банк,Тимашевск,"Красная ул., 106, Тимашевск","'mon': 09:00-18:00, 'tue': 09:00-18:00, 'wed': 09:00-18:00, 'thu': 09:00-18:00, 'fri': 09:00-18:00, 'sat': выходной, 'sun': выходной",45.613387,38.933532,"4,4",64.0,63.0,61.0,53.0,,,,,2024-06-24 03:10:33
142518814084,Альфа-Банк,Солнечногорск,"Почтовая ул., 9/2, Солнечногорск","'mon': 10:00-19:00, 'tue': 10:00-19:00, 'wed': 10:00-19:00, 'thu': 10:00-19:00, 'fri': 10:00-19:00, 'sat': выходной, 'sun': выходной",56.185728,36.976328,"4,7",85.0,90.0,91.0,55.0,,,,,2024-06-24 03:12:37
17356003333,Альфа-Банк,Кольчугино,"ул. 3-го Интернационала, 65, Кольчугино","'mon': 09:00-18:00, 'tue': 09:00-18:00, 'wed': 09:00-18:00, 'thu': 09:00-18:00, 'fri': 09:00-18:00, 'sat': выходной, 'sun': выходной",56.297343,39.379322,"4,6",92.0,,90.0,,,,,,2024-06-24 14:10:44
109805736525,Альфа-Банк,Соль-Илецк,"ул. Цвиллинга, 105А, Соль-Илецк","'mon': 00:00-23:59, 'tue': 00:00-23:59, 'wed': 00:00-23:59, 'thu': 00:00-23:59, 'fri': 00:00-23:59, 'sat': 00:00-23:59, 'sun': 00:00-23:59",51.158687,54.98057,,,,,,,,,,2024-06-24 16:45:58
3746928462,Альфа-Банк,Соль-Илецк,"Советская ул., 48, Соль-Илецк","'mon': 09:00-18:00, 'tue': 09:00-18:00, 'wed': 09:00-18:00, 'thu': 09:00-18:00, 'fri': 09:00-18:00, 'sat': выходной, 'sun': выходной",51.163076,54.993271,,,,,,,,,,2024-06-24 16:45:58
238245742657,Альфа-Банк,Соль-Илецк,"Вокзальная ул., 81, Соль-Илецк","'mon': 08:00-22:00, 'tue': 08:00-22:00, 'wed': 08:00-22:00, 'thu': 08:00-22:00, 'fri': 08:00-22:00, 'sat': 08:00-22:00, 'sun': 08:00-22:00",51.170333,54.986544,,,,,,,,,,2024-06-24 16:45:58
71702481444,Альфа-Банк,Реж,"ул. Ленина, 5, Реж","'mon': 10:00-19:00, 'tue': 10:00-19:00, 'wed': 10:00-19:00, 'thu': 10:00-19:00, 'fri': 10:00-19:00, 'sat': выходной, 'sun': выходной",57.372792,61.390651,"4,4",94.0,94.0,93.0,,,,,,2024-06-24 16:10:25
11589190202,Альфа-Банк,Арсеньев,"Калининская ул., 24, Арсеньев","'mon': 10:00-19:00, 'tue': 10:00-19:00, 'wed': 10:00-19:00, 'thu': 10:00-19:00, 'fri': 10:00-19:00, 'sat': выходной, 'sun': выходной",44.16242,133.26921,"4,3",100.0,100.0,100.0,,,,,,2024-06-24 03:02:41
162226918436,Альфа-Банк,Смоленск,"ул. Николаева, 8, Смоленск","'mon': 09:00-19:00, 'tue': 09:00-19:00, 'wed': 09:00-19:00, 'thu': 09:00-19:00, 'fri': 09:00-19:00, 'sat': 10:00-18:00, 'sun': выходной",54.774068,32.042035,"4,6",76.0,73.0,80.0,62.0,72.0,60.0,92.0,,2024-06-23 18:26:10
166348763681,Альфа-Банк,Усолье-Сибирское,"ул. Орджоникидзе, 40, Усолье-Сибирское","'mon': 10:00-19:00, 'tue': 10:00-19:00, 'wed': 10:00-19:00, 'thu': 10:00-19:00, 'fri': 10:00-19:00, 'sat': выходной, 'sun': выходной",52.75322,103.65681,"4,3",76.0,70.0,76.0,47.0,,,,,2024-06-24 00:00:44
242580843517,Альфа-Банк,Чернушка,"ул. Мира, 31, Чернушка","'mon': 10:00-19:00, 'tue': 10:00-19:00, 'wed': 10:00-19:00, 'thu': 10:00-19:00, 'fri': 10:00-19:00, 'sat': выходной, 'sun': выходной",56.515633,56.074574,"4,3",91.0,89.0,89.0,100.0,70.0,,,,2024-06-24 17:57:13
80940794246,Альфа-Банк,Пермь,"Комсомольский просп., 49, Пермь","'mon': 10:00-20:00, 'tue': 10:00-20:00, 'wed': 10:00-20:00, 'thu': 10:00-20:00, 'fri': 10:00-20:00, 'sat': 10:00-18:00, 'sun': выходной",58.001343,56.247436,"4,5",76.0,72.0,78.0,76.0,67.0,75.0,100.0,,2024-06-23 16:25:09
199133622801,Альфа-Банк,Пермь,"ул. Ленина, 66, Пермь","'mon': 10:00-20:00, 'tue': 10:00-20:00, 'wed': 10:00-20:00, 'thu': 10:00-20:00, 'fri': 10:00-20:00, 'sat': 10:00-18:00, 'sun': выходной",58.008943,56.229129,"4,3",71.0,70.0,78.0,67.0,78.0,40.0,91.0,,2024-06-23 16:25:09
121145477976,Альфа-Банк,Пермь,"Уинская ул., 9, Пермь","'mon': 10:00-19:00, 'tue': 10:00-19:00, 'wed': 10:00-19:00, 'thu': 10:00-19:00, 'fri': 10:00-19:00, 'sat': 10:00-18:00, 'sun': выходной",58.006784,56.304597,"4,4",83.0,80.0,84.0,77.0,86.0,90.0,100.0,,2024-06-23 16:25:09
156790419524,Альфа-Банк,Пермь,"Пермская ул., 17, Пермь","'mon': 09:00-18:00, 'tue': 09:00-18:00, 'wed': 09:00-18:00, 'thu': 09:00-18:00, 'fri': 09:00-16:45, 'sat': выходной, 'sun': выходной",58.015056,56.255162,"4,7",98.0,97.0,97.0,90.0,100.0,,,,2024-06-23 16:25:09
1508016306,Альфа-Банк,Пермь,"Автозаводская ул., 44А, Пермь","'mon': 10:00-19:00, 'tue': 10:00-19:00, 'wed': 10:00-19:00, 'thu': 10:00-19:00, 'fri': 10:00-19:00, 'sat': выходной, 'sun': выходной",58.006693,55.949339,"4,6",92.0,94.0,93.0,94.0,96.0,,92.0,,2024-06-23 16:25:09
202115149010,Альфа-Банк,Пермь,"ул. Мира, 70, Пермь","'mon': 09:00-20:00, 'tue': 09:00-20:00, 'wed': 09:00-20:00, 'thu': 09:00-20:00, 'fri': 09:00-20:00, 'sat': 10:00-18:00, 'sun': выходной",57.979178,56.188031,"4,4",82.0,80.0,85.0,80.0,80.0,75.0,89.0,92.0,2024-06-23 16:25:09
1001810141,Альфа-Банк,Пермь,"Советская ул., 45, Пермь","'mon': 09:00-19:00, 'tue': 09:00-19:00, 'wed': 09:00-19:00, 'thu': 09:00-19:00, 'fri': 09:00-19:00, 'sat': выходной, 'sun': выходной",58.014812,56.238613,"4,4",87.0,86.0,86.0,86.0,84.0,82.0,100.0,70.0,2024-06-23 16:25:09
170337389437,Альфа-Банк,Качканар,"ул. Свердлова, 10, Качканар","'mon': 10:00-19:00, 'tue': 10:00-19:00, 'wed': 10:00-19:00, 'thu': 10:00-19:00, 'fri': 10:00-19:00, 'sat': выходной, 'sun': выходной",58.70554,59.483267,"4,4",100.0,92.0,,,,,,,2024-06-24 04:46:34
116369825983,Альфа-Банк,Санкт-Петербург,"Большая Конюшенная ул., 19/8, Санкт-Петербург","'mon': 10:00-19:00, 'tue': 10:00-19:00, 'wed': 10:00-19:00, 'thu': 10:00-19:00, 'fri': 10:00-19:00, 'sat': выходной, 'sun': выходной",59.938631,30.323037,"4,2",50.0,45.0,55.0,55.0,43.0,38.0,89.0,72.0,2024-06-24 07:29:12
23326474020,Альфа-Банк,Санкт-Петербург,"7-я линия Васильевского острова, 54, Санкт-Петербург","'mon': 10:00-20:00, 'tue': 10:00-20:00, 'wed': 10:00-20:00, 'thu': 10:00-20:00, 'fri': 10:00-20:00, 'sat': 10:00-18:00, 'sun': выходной",59.943616,30.277564,"4,2",64.0,61.0,68.0,62.0,59.0,47.0,93.0,78.0,2024-06-24 07:29:12
149084420390,Альфа-Банк,Санкт-Петербург,"Московский просп., 192-194, Санкт-Петербург","'mon': 10:00-20:00, 'tue': 10:00-20:00, 'wed': 10:00-20:00, 'thu': 10:00-20:00, 'fri': 10:00-20:00, 'sat': 10:00-18:00, 'sun': выходной",59.863365,30.321599,"4,3",55.0,54.0,59.0,47.0,48.0,70.0,100.0,,2024-06-24 07:29:12
1002389822,Альфа-Банк,Санкт-Петербург,"Лиговский просп., 73, Санкт-Петербург","'mon': 10:00-20:00, 'tue': 10:00-20:00, 'wed': 10:00-20:00, 'thu': 10:00-20:00, 'fri': 10:00-20:00, 'sat': 10:00-18:00, 'sun': 12:00-17:00",59.925737,30.357074,"4,3",55.0,52.0,55.0,45.0,53.0,56.0,88.0,,2024-06-24 07:29:12
1721010044,Альфа-Банк,Санкт-Петербург,"Дачный просп., 17, корп. 3, Санкт-Петербург","'mon': 10:00-20:00, 'tue': 10:00-20:00, 'wed': 10:00-20:00, 'thu': 10:00-20:00, 'fri': 10:00-20:00, 'sat': 10:00-18:00, 'sun': выходной",59.84391,30.249491,"4,3",63.0,62.0,67.0,44.0,73.0,47.0,77.0,80.0,2024-06-24 07:29:12
168649361395,Альфа-Банк,Санкт-Петербург,"Малый просп. Петроградской стороны, 87, Санкт-Петербург","'mon': 09:00-18:00, 'tue': 09:00-18:00, 'wed': 09:00-18:00, 'thu': 09:00-18:00, 'fri': 09:00-16:45, 'sat': выходной, 'sun': выходной",59.966872,30.308034,"4,4",78.0,75.0,81.0,71.0,65.0,,,,2024-06-24 07:29:12
233849538090,Альфа-Банк,Санкт-Петербург,"Фурштатская ул., 40, Санкт-Петербург","'mon': 10:00-19:00, 'tue': 10:00-19:00, 'wed': 10:00-19:00, 'thu': 10:00-19:00, 'fri': 10:00-19:00, 'sat': выходной, 'sun': выходной",59.945387,30.360838,"4,3",85.0,84.0,84.0,89.0,91.0,71.0,87.0,83.0,2024-06-24 07:29:12
147486959671,Альфа-Банк,Санкт-Петербург,"просп. Большевиков, 2Б, Санкт-Петербург","'mon': 10:00-20:00, 'tue': 10:00-20:00, 'wed': 10:00-20:00, 'thu': 10:00-20:00, 'fri': 10:00-20:00, 'sat': 10:00-18:00, 'sun': выходной",59.919355,30.472499,"4,3",59.0,58.0,63.0,46.0,64.0,75.0,91.0,,2024-06-24 07:29:12
114955861641,Альфа-Банк,Санкт-Петербург,"Ленинский просп., 130/6, Санкт-Петербург","'mon': 10:00-20:00, 'tue': 10:00-20:00, 'wed': 10:00-20:00, 'thu': 10:00-20:00, 'fri': 10:00-20:00, 'sat': 10:00-18:00, 'sun': выходной",59.852294,30.271123,"4,3",61.0,60.0,63.0,51.0,50.0,60.0,88.0,,2024-06-24 07:29:12
106303811229,Альфа-Банк,Санкт-Петербург,"Московский просп., 94, Санкт-Петербург","'mon': 09:00-18:00, 'tue': 09:00-18:00, 'wed': 09:00-18:00, 'thu': 09:00-18:00, 'fri': 09:00-16:45, 'sat': выходной, 'sun': выходной",59.901743,30.319515,"4,3",84.0,83.0,89.0,84.0,90.0,55.0,83.0,100.0,2024-06-24 07:29:12
1217113671,Альфа-Банк,Санкт-Петербург,"ул. Академика Лебедева, 31, корп. 2, Санкт-Петербург","'mon': 09:00-20:00, 'tue': 09:00-20:00, 'wed': 09:00-20:00, 'thu': 09:00-20:00, 'fri': 09:00-20:00, 'sat': 10:00-18:00, 'sun': выходной",59.958999,30.354011,"4,2",77.0,75.0,78.0,75.0,63.0,36.0,100.0,,2024-06-24 07:29:12
29393631748,Альфа-Банк,Санкт-Петербург,"Каменноостровский просп., 41, Санкт-Петербург","'mon': 10:00-20:00, 'tue': 10:00-20:00, 'wed': 10:00-20:00, 'thu': 10:00-20:00, 'fri': 10:00-20:00, 'sat': 10:00-18:00, 'sun': выходной",59.968308,30.309508,"4,3",70.0,66.0,73.0,61.0,61.0,65.0,95.0,,2024-06-24 07:29:12
28477128015,Альфа-Банк,Санкт-Петербург,"Средний просп. Васильевского острова, 33, Санкт-Петербург","'mon': 10:00-19:00, 'tue': 10:00-18:00, 'wed': выходной, 'thu': 10:00-19:00, 'fri': 10:00-19:00, 'sat': выходной, 'sun': выходной",59.943034,30.277429,"4,7",94.0,92.0,93.0,100.0,94.0,,90.0,,2024-06-24 07:29:12
61843499886,Альфа-Банк,Санкт-Петербург,"просп. Стачек, 47Е, Санкт-Петербург","'mon': 10:00-20:00, 'tue': 10:00-20:00, 'wed': 10:00-20:00, 'thu': 10:00-20:00, 'fri': 10:00-20:00, 'sat': 10:00-18:00, 'sun': выходной",59.880523,30.260415,"4,3",62.0,59.0,65.0,46.0,66.0,,90.0,,2024-06-24 07:29:12
145369459040,Альфа-Банк,Санкт-Петербург,"ул. Полярников, 6, Санкт-Петербург","'mon': 10:00-20:00, 'tue': 10:00-20:00, 'wed': 10:00-20:00, 'thu': 10:00-20:00, 'fri': 10:00-20:00, 'sat': 10:00-18:00, 'sun': выходной",59.876337,30.438102,"4,4",67.0,67.0,73.0,66.0,44.0,56.0,92.0,,2024-06-24 07:29:12
150890656386,Альфа-Банк,Санкт-Петербург,"ул. Савушкина, 127, Санкт-Петербург","'mon': 10:00-20:00, 'tue': 10:00-20:00, 'wed': 10:00-20:00, 'thu': 10:00-20:00, 'fri': 10:00-20:00, 'sat': 10:00-18:00, 'sun': выходной",59.987303,30.219281,"4,4",69.0,67.0,74.0,63.0,78.0,69.0,100.0,80.0,2024-06-24 07:29:12
110155439929,Альфа-Банк,Санкт-Петербург,"просп. Науки, 14, корп. 1, Санкт-Петербург","'mon': 10:00-20:00, 'tue': 10:00-20:00, 'wed': 10:00-20:00, 'thu': 10:00-20:00, 'fri': 10:00-20:00, 'sat': 10:00-18:00, 'sun': выходной",60.012229,30.402942,"4,2",52.0,50.0,56.0,38.0,49.0,53.0,,75.0,2024-06-24 07:29:12
213436423192,Альфа-Банк,Санкт-Петербург,"Комендантский просп., 13, корп. 1, Санкт-Петербург","'mon': 10:00-20:00, 'tue': 10:00-20:00, 'wed': 10:00-20:00, 'thu': 10:00-20:00, 'fri': 10:00-20:00, 'sat': 10:00-18:00, 'sun': выходной",60.009049,30.259778,"4,4",65.0,62.0,64.0,54.0,75.0,,94.0,,2024-06-24 07:29:12
241500614569,Альфа-Банк,Санкт-Петербург,"Бухарестская ул., 74, корп. 3, Санкт-Петербург","'mon': 10:00-20:00, 'tue': 10:00-20:00, 'wed': 10:00-20:00, 'thu': 10:00-20:00, 'fri': 10:00-20:00, 'sat': 10:00-18:00, 'sun': выходной",59.871346,30.381625,"4,3",70.0,70.0,74.0,62.0,71.0,75.0,95.0,,2024-06-24 07:29:12
38545066257,Альфа-Банк,Санкт-Петербург,"просп. Тореза, 9, Санкт-Петербург","'mon': 10:00-20:00, 'tue': 10:00-20:00, 'wed': 10:00-20:00, 'thu': 10:00-20:00, 'fri': 10:00-20:00, 'sat': 10:00-18:00, 'sun': выходной",60.000263,30.364081,"4,7",86.0,83.0,87.0,86.0,94.0,64.0,100.0,,2024-06-24 07:29:12
217503515137,Альфа-Банк,Санкт-Петербург,"Дунайский просп., 31, корп. 1, Санкт-Петербург","'mon': 10:00-20:00, 'tue': 10:00-20:00, 'wed': 10:00-20:00, 'thu': 10:00-20:00, 'fri': 10:00-20:00, 'sat': 10:00-18:00, 'sun': выходной",59.834809,30.383628,"4,3",64.0,61.0,67.0,67.0,54.0,90.0,77.0,,2024-06-24 07:29:12
1047989075,Альфа-Банк,Санкт-Петербург,"Новочеркасский просп., 43/17, Санкт-Петербург","'mon': 10:00-20:00, 'tue': 10:00-20:00, 'wed': 10:00-20:00, 'thu': 10:00-20:00, 'fri': 10:00-20:00, 'sat': 10:00-18:00, 'sun': выходной",59.928217,30.41126,"4,3",67.0,65.0,69.0,61.0,56.0,67.0,85.0,,2024-06-24 07:29:12
104806149902,Альфа-Банк,Санкт-Петербург,"просп. Энгельса, 139/21, Санкт-Петербург","'mon': 10:00-20:00, 'tue': 10:00-20:00, 'wed': 10:00-20:00, 'thu': 10:00-20:00, 'fri': 10:00-20:00, 'sat': 10:00-18:00, 'sun': выходной",60.051499,30.335119,"4,2",49.0,50.0,57.0,35.0,72.0,63.0,89.0,58.0,2024-06-24 07:29:12
88699231578,Альфа-Банк,Санкт-Петербург,"просп. Просвещения, 84, корп. 1, Санкт-Петербург","'mon': 10:00-20:00, 'tue': 10:00-20:00, 'wed': 10:00-20:00, 'thu': 10:00-20:00, 'fri': 10:00-20:00, 'sat': 10:00-18:00, 'sun': выходной",60.03683,30.415554,"4,3",57.0,58.0,62.0,52.0,69.0,54.0,85.0,,2024-06-24 07:29:12
240697104736,Альфа-Банк,Санкт-Петербург,"Коломяжский просп., 15, корп. 2, Санкт-Петербург","'mon': 10:00-20:00, 'tue': 10:00-20:00, 'wed': 10:00-20:00, 'thu': 10:00-20:00, 'fri': 10:00-20:00, 'sat': 10:00-18:00, 'sun': выходной",60.001523,30.299438,"4,4",64.0,61.0,62.0,47.0,83.0,,92.0,87.0,2024-06-24 07:29:12
128302706783,Альфа-Банк,Санкт-Петербург,"просп. Большевиков, 21, Санкт-Петербург","'mon': 10:00-20:00, 'tue': 10:00-20:00, 'wed': 10:00-20:00, 'thu': 10:00-20:00, 'fri': 10:00-20:00, 'sat': 10:00-18:00, 'sun': выходной",59.905154,30.483009,"4,3",69.0,68.0,70.0,51.0,81.0,57.0,83.0,58.0,2024-06-24 07:29:12
1378806523,Альфа-Банк,Зеленоград,"Новокрюковская ул., 1824, Зеленоград","'mon': 10:00-20:00, 'tue': 10:00-20:00, 'wed': 10:00-20:00, 'thu': 10:00-20:00, 'fri': 10:00-20:00, 'sat': 10:00-18:00, 'sun': выходной",55.982079,37.168172,"4,3",51.0,49.0,57.0,35.0,37.0,44.0,58.0,,2024-06-23 19:05:02
154545673516,Альфа-Банк,Южно-Сахалинск,"ул. Ленина, 218, Южно-Сахалинск","'mon': 09:00-19:00, 'tue': 09:00-19:00, 'wed': 09:00-19:00, 'thu': 09:00-19:00, 'fri': 09:00-19:00, 'sat': 10:00-16:00, 'sun': выходной",46.95977,142.72899,"4,8",84.0,85.0,92.0,72.0,100.0,,91.0,,2024-06-23 20:02:06
244816750562,Альфа-Банк,Ростов-На-Дону,"Пушкинская ул., 50В, Ростов-на-Дону","'mon': 09:00-20:00, 'tue': 09:00-20:00, 'wed': 09:00-20:00, 'thu': 09:00-20:00, 'fri': 09:00-20:00, 'sat': 10:00-18:00, 'sun': выходной",47.222268,39.707054,"4,2",57.0,53.0,50.0,45.0,71.0,,80.0,83.0,2024-06-23 16:10:06
1120444285,Альфа-Банк,Ростов-На-Дону,"Красноармейская ул., 170, Ростов-на-Дону","'mon': 09:00-20:00, 'tue': 09:00-20:00, 'wed': 09:00-20:00, 'thu': 09:00-20:00, 'fri': 09:00-20:00, 'sat': 10:00-18:00, 'sun': выходной",47.227892,39.713764,"4,3",53.0,49.0,54.0,43.0,54.0,53.0,86.0,92.0,2024-06-23 16:10:06
107784315143,Альфа-Банк,Ростов-На-Дону,"Ворошиловский просп., 31, Ростов-на-Дону","'mon': 09:00-20:00, 'tue': 09:00-20:00, 'wed': 09:00-20:00, 'thu': 09:00-20:00, 'fri': 09:00-20:00, 'sat': 10:00-18:00, 'sun': выходной",47.219991,39.719001,"4,2",60.0,54.0,61.0,64.0,57.0,67.0,100.0,72.0,2024-06-23 16:10:06
169805377565,Альфа-Банк,Ростов-На-Дону,"просп. Королёва, 14А, Ростов-на-Дону","'mon': 10:00-20:00, 'tue': 10:00-20:00, 'wed': 10:00-20:00, 'thu': 10:00-20:00, 'fri': 10:00-20:00, 'sat': 10:00-18:00, 'sun': выходной",47.294494,39.709264,"4,5",68.0,65.0,64.0,60.0,75.0,76.0,93.0,,2024-06-23 16:10:06
197665628764,Альфа-Банк,Ростов-На-Дону,"площадь Гагарина, 6/87, Ростов-на-Дону","'mon': 09:00-18:00, 'tue': 09:00-18:00, 'wed': 09:00-18:00, 'thu': 09:00-18:00, 'fri': 09:00-16:45, 'sat': выходной, 'sun': выходной",47.23599,39.71353,"4,3",88.0,88.0,89.0,92.0,77.0,,,,2024-06-23 16:10:06
88901059306,Альфа-Банк,Ростов-На-Дону,"Красноармейская ул., 206, Ростов-на-Дону","'mon': 09:00-18:00, 'tue': 09:00-18:00, 'wed': 09:00-18:00, 'thu': 09:00-18:00, 'fri': 09:00-18:00, 'sat': выходной, 'sun': выходной",47.229813,39.72449,"4,4",70.0,65.0,70.0,67.0,70.0,50.0,100.0,,2024-06-23 16:10:06
237620570239,Альфа-Банк,Ростов-На-Дону,"просп. Космонавтов, 15, микрорайон Северный, Ростов-на-Дону","'mon': 09:00-20:00, 'tue': 09:00-20:00, 'wed': 09:00-20:00, 'thu': 09:00-20:00, 'fri': 09:00-20:00, 'sat': 10:00-18:00, 'sun': выходной",47.284153,39.715058,"4,3",64.0,62.0,67.0,63.0,65.0,79.0,93.0,,2024-06-23 16:10:06
209411626377,Альфа-Банк,Ростов-На-Дону,"Коммунистический просп., 27, микрорайон Западный, Ростов-на-Дону","'mon': 09:00-20:00, 'tue': 09:00-20:00, 'wed': 09:00-20:00, 'thu': 09:00-20:00, 'fri': 09:00-20:00, 'sat': 10:00-18:00, 'sun': выходной",47.207456,39.631541,"4,4",64.0,62.0,65.0,61.0,69.0,38.0,100.0,,2024-06-23 16:10:06
163505448051,Альфа-Банк,Асбест,"просп. Ленина, 15, Асбест","'mon': 10:00-19:00, 'tue': 10:00-19:00, 'wed': 10:00-19:00, 'thu': 10:00-19:00, 'fri': 10:00-19:00, 'sat': выходной, 'sun': выходной",57.013563,61.461689,"4,3",75.0,70.0,76.0,64.0,,,,,2024-06-24 01:23:05
23974976351,Альфа-Банк,Рыбинск,"ул. Кирова, 18, Центральный микрорайон, Рыбинск","'mon': 10:00-19:00, 'tue': 10:00-19:00, 'wed': 10:00-19:00, 'thu': 10:00-19:00, 'fri': 10:00-19:00, 'sat': выходной, 'sun': выходной",58.050631,38.832445,"4,9",85.0,86.0,88.0,77.0,84.0,,,92.0,2024-06-23 20:13:33
167623894339,Альфа-Банк,Лебедянь,"ул. Свердлова, 67, Лебедянь","'mon': 07:00-20:00, 'tue': 07:00-20:00, 'wed': 07:00-20:00, 'thu': 07:00-20:00, 'fri': 07:00-20:00, 'sat': 07:00-20:00, 'sun': 07:00-20:00",53.02323,39.13056,,,,,,,,,,2024-06-24 14:45:26
98107144120,Альфа-Банк,Лебедянь,"ул. Льва Толстого, 80, Лебедянь","'mon': 00:00-23:59, 'tue': 00:00-23:59, 'wed': 00:00-23:59, 'thu': 00:00-23:59, 'fri': 00:00-23:59, 'sat': 00:00-23:59, 'sun': 00:00-23:59",53.022515,39.180507,,,,,,,,,,2024-06-24 14:45:26
204656858146,Альфа-Банк,Лебедянь,"Почтовая ул., 33А, Лебедянь","'mon': 08:00-22:00, 'tue': 08:00-22:00, 'wed': 08:00-22:00, 'thu': 08:00-22:00, 'fri': 08:00-22:00, 'sat': 08:00-22:00, 'sun': 08:00-22:00",53.009318,39.128502,,,,,,,,,,2024-06-24 14:45:26
210350834915,Альфа-Банк,Воткинск,"ул. 1 Мая, 102, Воткинск","'mon': 10:00-19:00, 'tue': 10:00-19:00, 'wed': 10:00-19:00, 'thu': 10:00-19:00, 'fri': 10:00-19:00, 'sat': выходной, 'sun': выходной",57.060025,53.998818,"4,6",89.0,92.0,92.0,,,,,,2024-06-23 22:47:18
26853458298,Альфа-Банк,Дзержинск,"ул. Гайдара, 61, Дзержинск","'mon': 09:00-20:00, 'tue': 09:00-20:00, 'wed': 09:00-20:00, 'thu': 09:00-20:00, 'fri': 09:00-20:00, 'sat': 10:00-18:00, 'sun': выходной",56.233345,43.436239,"4,4",74.0,72.0,77.0,73.0,85.0,,,,2024-06-23 19:42:00
49305516182,Альфа-Банк,Тольятти,"ул. Гагарина, 14, Тольятти","'mon': 10:00-19:00, 'tue': 10:00-19:00, 'wed': 10:00-19:00, 'thu': 10:00-19:00, 'fri': 10:00-19:00, 'sat': 10:00-16:00, 'sun': выходной",53.511665,49.421444,"4,3",66.0,66.0,76.0,56.0,63.0,68.0,92.0,,2024-06-23 16:38:49
13005923864,Альфа-Банк,Тольятти,"Тополиная ул., 8А, Тольятти","'mon': 10:00-19:00, 'tue': 10:00-19:00, 'wed': 10:00-19:00, 'thu': 10:00-19:00, 'fri': 10:00-19:00, 'sat': выходной, 'sun': выходной",53.544936,49.345537,"4,7",81.0,79.0,80.0,76.0,87.0,90.0,100.0,73.0,2024-06-23 16:38:49
139456309578,Альфа-Банк,Тольятти,"Революционная ул., 32, Тольятти","'mon': 09:00-19:00, 'tue': 09:00-19:00, 'wed': 09:00-19:00, 'thu': 09:00-19:00, 'fri': 09:00-19:00, 'sat': 10:00-16:00, 'sun': выходной",53.525435,49.274399,"4,4",70.0,69.0,73.0,65.0,61.0,68.0,100.0,92.0,2024-06-23 16:38:49
22087709860,Альфа-Банк,Слюдянка,"ул. Кирова, 1/36, Слюдянка","'mon': 09:00-19:00, 'tue': 09:00-19:00, 'wed': 09:00-19:00, 'thu': 09:00-19:00, 'fri': 09:00-19:00, 'sat': 09:00-19:00, 'sun': 09:00-19:00",51.65558,103.71495,,,,,,,,,,2024-06-24 16:41:57
5623636275,Альфа-Банк,Нижневартовск,"ул. Ленина, 17А, Нижневартовск","'mon': 10:00-20:00, 'tue': 10:00-20:00, 'wed': 10:00-20:00, 'thu': 10:00-20:00, 'fri': 10:00-19:00, 'sat': выходной, 'sun': выходной",60.936539,76.585222,"4,7",77.0,76.0,79.0,64.0,84.0,,,,2024-06-23 18:47:12
16674887178,Альфа-Банк,Нижневартовск,"просп. Победы, 11, Нижневартовск","'mon': 09:00-20:00, 'tue': 09:00-20:00, 'wed': 09:00-20:00, 'thu': 09:00-20:00, 'fri': 09:00-20:00, 'sat': 10:00-18:00, 'sun': выходной",60.935831,76.557681,"4,3",94.0,94.0,94.0,,,,,,2024-06-23 18:47:12
219592418341,Альфа-Банк,Новошахтинск,"просп. Ленина, 5А, Новошахтинск","'mon': 10:00-19:00, 'tue': 10:00-19:00, 'wed': 10:00-19:00, 'thu': 10:00-19:00, 'fri': 10:00-19:00, 'sat': выходной, 'sun': выходной",47.753903,39.933474,"4,4",92.0,100.0,100.0,,,,,,2024-06-24 15:33:02
172085389551,Альфа-Банк,Сертолово,"ул. Молодцова, 7, корп. 2, Сертолово","'mon': 09:00-18:00, 'tue': 09:00-18:00, 'wed': 09:00-18:00, 'thu': 09:00-18:00, 'fri': 09:00-18:00, 'sat': выходной, 'sun': выходной",60.142294,30.213774,,,,,,,,,,2024-06-24 16:33:21
237710404102,Альфа-Банк,Сертолово,"ул. Молодцова, 1, корп. 3, Сертолово","'mon': 10:00-21:00, 'tue': 10:00-21:00, 'wed': 10:00-21:00, 'thu': 10:00-21:00, 'fri': 10:00-21:00, 'sat': 10:00-21:00, 'sun': 10:00-21:00",60.140883,30.212203,,,,,,,,,,2024-06-24 16:33:21
87356755441,Альфа-Банк,Сертолово,"Сосновая ул., 3А, Сертолово","'mon': 10:00-21:00, 'tue': 10:00-21:00, 'wed': 10:00-21:00, 'thu': 10:00-21:00, 'fri': 10:00-21:00, 'sat': 10:00-21:00, 'sun': 10:00-21:00",60.142281,30.210073,,,,,,,,,,2024-06-24 16:33:21
50525209865,Альфа-Банк,Бугульма,"ул. Газинура Гафиатуллина, 31, Бугульма","'mon': 09:00-18:00, 'tue': 09:00-18:00, 'wed': 09:00-18:00, 'thu': 09:00-18:00, 'fri': 09:00-18:00, 'sat': выходной, 'sun': выходной",54.533707,52.794394,"4,0",67.0,67.0,67.0,,,,,,2024-06-23 23:32:03
164211767851,Альфа-Банк,Улан-Удэ,"ул. Ленина, 35, Улан-Удэ","'mon': 09:00-19:00, 'tue': 09:00-19:00, 'wed': 09:00-19:00, 'thu': 09:00-19:00, 'fri': 09:00-19:00, 'sat': 10:00-17:00, 'sun': выходной",51.82966,107.58408,"4,7",84.0,83.0,84.0,70.0,96.0,,100.0,92.0,2024-06-23 17:56:33
192300852723,Альфа-Банк,Улан-Удэ,"ул. Терешковой, 2, Улан-Удэ","'mon': 10:00-19:00, 'tue': 10:00-19:00, 'wed': 10:00-19:00, 'thu': 10:00-19:00, 'fri': 10:00-19:00, 'sat': выходной, 'sun': выходной",51.80931,107.60095,"4,3",100.0,100.0,100.0,,,,,,2024-06-23 17:56:33
128834665278,Альфа-Банк,Донской,"Октябрьская ул., 59А, Донской","'mon': 10:00-19:00, 'tue': 10:00-19:00, 'wed': 10:00-19:00, 'thu': 10:00-19:00, 'fri': 10:00-19:00, 'sat': выходной, 'sun': выходной",53.967383,38.320109,"4,6",94.0,88.0,94.0,,,,,,2024-06-24 01:25:03
155032218644,Альфа-Банк,Рубцовск,"просп. Ленина, 46, Рубцовск","'mon': 10:00-19:00, 'tue': 10:00-19:00, 'wed': 10:00-19:00, 'thu': 10:00-19:00, 'fri': 10:00-19:00, 'sat': выходной, 'sun': выходной",51.521521,81.214287,"4,3",67.0,69.0,75.0,,,,,,2024-06-23 21:02:41
118133117315,Альфа-Банк,Мончегорск,"просп. Металлургов, 34, Мончегорск","'mon': 11:00-19:00, 'tue': 11:00-19:00, 'wed': 11:00-19:00, 'thu': 11:00-19:00, 'fri': 11:00-19:00, 'sat': выходной, 'sun': выходной",67.939157,32.940422,"4,8",100.0,100.0,,,,,,,2024-06-24 04:06:36
121768233075,Альфа-Банк,Минусинск,"Абаканская ул., 48, Минусинск","'mon': 00:00-23:59, 'tue': 00:00-23:59, 'wed': 00:00-23:59, 'thu': 00:00-23:59, 'fri': 00:00-23:59, 'sat': 00:00-23:59, 'sun': 00:00-23:59",53.694989,91.672778,,,,,,,,,,2024-06-24 15:12:11
113577470881,Альфа-Банк,Сасово,"12Г, микрорайон Северный, Сасово","'mon': 09:00-18:00, 'tue': 09:00-18:00, 'wed': 09:00-18:00, 'thu': 09:00-18:00, 'fri': 09:00-18:00, 'sat': выходной, 'sun': выходной",54.361021,41.911394,"4,6",100.0,100.0,,,,,,,2024-06-24 16:14:24
65653576737,Альфа-Банк,Михайловск,"ул. Войкова, 454/1, Михайловск","'mon': 09:00-18:00, 'tue': 09:00-18:00, 'wed': 09:00-18:00, 'thu': 09:00-18:00, 'fri': 09:00-18:00, 'sat': выходной, 'sun': выходной",45.128872,42.035254,"4,4",88.0,92.0,100.0,92.0,,,,,2024-06-23 23:15:19
50368696960,Альфа-Банк,Назарово,"Кооперативная ул., 16, Назарово","'mon': 08:00-17:00, 'tue': 08:00-17:00, 'wed': 08:00-17:00, 'thu': 08:00-17:00, 'fri': 08:00-17:00, 'sat': выходной, 'sun': выходной",56.001474,90.38494,,,,,,,,,,2024-06-24 15:24:27
15713061429,Альфа-Банк,Назарово,"ул. Арбузова, 110, Назарово","'mon': 10:00-19:00, 'tue': 10:00-19:00, 'wed': 10:00-19:00, 'thu': 10:00-19:00, 'fri': 10:00-19:00, 'sat': выходной, 'sun': выходной",56.010971,90.417535,,,,,,,,,,2024-06-24 15:24:27
1749839208,Альфа-Банк,Губкин ,"просп. Губкина, 1, Старый Оскол","'mon': 09:00-22:00, 'tue': 09:00-22:00, 'wed': 09:00-22:00, 'thu': 09:00-22:00, 'fri': 09:00-22:00, 'sat': 09:00-22:00, 'sun': 09:00-22:00",51.286275,37.793848,,,,,,,,,,2024-06-24 06:29:53
143659863152,Альфа-Банк,Губкин ,"ул. Кирова, 53, Губкин","'mon': 00:00-23:59, 'tue': 00:00-23:59, 'wed': 00:00-23:59, 'thu': 00:00-23:59, 'fri': 00:00-23:59, 'sat': 00:00-23:59, 'sun': 00:00-23:59",51.284597,37.52846,,,,,,,,,,2024-06-24 06:29:53
150118363775,Альфа-Банк,Губкин ,"ул. Космонавтов, 14, Губкин","'mon': 09:00-22:00, 'tue': 09:00-22:00, 'wed': 09:00-22:00, 'thu': 09:00-22:00, 'fri': 09:00-22:00, 'sat': 09:00-22:00, 'sun': 09:00-22:00",51.279594,37.504358,,,,,,,,,,2024-06-24 06:29:53
196413889479,Альфа-Банк,Заволжье,"ул. Пономарёва, 4, Заволжье","'mon': 09:00-18:00, 'tue': 09:00-18:00, 'wed': 09:00-18:00, 'thu': 09:00-18:00, 'fri': 09:00-18:00, 'sat': выходной, 'sun': выходной",56.630164,43.411526,"4,6",93.0,100.0,100.0,,,,,,2024-06-24 05:00:26
243961624704,Альфа-Банк,Гусь-Хрустальный,"ул. Калинина, 30, Гусь-Хрустальный","'mon': 09:00-18:00, 'tue': 09:00-18:00, 'wed': 09:00-18:00, 'thu': 09:00-18:00, 'fri': 09:00-18:00, 'sat': выходной, 'sun': выходной",55.614867,40.669967,"4,2",77.0,69.0,82.0,,,,,,2024-06-24 02:39:39
109162952202,Альфа-Банк,Слободской,"Советская ул., 66, Слободской","'mon': 09:00-18:00, 'tue': 09:00-18:00, 'wed': 09:00-18:00, 'thu': 09:00-18:00, 'fri': 09:00-18:00, 'sat': выходной, 'sun': выходной",58.73091,50.183602,"4,4",90.0,89.0,88.0,92.0,,,,,2024-06-24 16:39:54
186020924738,Альфа-Банк,Пыть-Ях,"17, 1-й микрорайон, Пыть-Ях","'mon': 10:00-19:00, 'tue': 10:00-19:00, 'wed': 10:00-19:00, 'thu': 10:00-19:00, 'fri': 10:00-19:00, 'sat': выходной, 'sun': выходной",60.757535,72.839392,"4,6",100.0,100.0,100.0,,,,,,2024-06-24 04:32:21
244084975511,Альфа-Банк,Тейково,"Октябрьская ул., 12, Тейково","'mon': 10:00-19:00, 'tue': 10:00-19:00, 'wed': 10:00-19:00, 'thu': 10:00-19:00, 'fri': 10:00-19:00, 'sat': выходной, 'sun': выходной",56.853735,40.538544,"4,7",94.0,100.0,100.0,,,,,,2024-06-24 06:05:18
12013846686,Альфа-Банк,Радужный,"24, 6-й микрорайон, Радужный","'mon': 10:00-19:00, 'tue': 10:00-19:00, 'wed': 10:00-19:00, 'thu': 10:00-19:00, 'fri': 10:00-19:00, 'sat': выходной, 'sun': выходной",62.133769,77.462787,"4,6",100.0,100.0,100.0,,,,,,2024-06-24 03:39:25
152872347040,Альфа-Банк,Североморск,"ул. Сафонова, 13, Североморск","'mon': 10:00-19:00, 'tue': 10:00-19:00, 'wed': 10:00-19:00, 'thu': 10:00-19:00, 'fri': 10:00-19:00, 'sat': выходной, 'sun': выходной",69.075762,33.420517,"4,5",94.0,93.0,92.0,,,,,,2024-06-24 03:06:38
227463753537,Альфа-Банк,Конаково,"просп. Ленина, 12, Конаково","'mon': 10:00-19:00, 'tue': 10:00-19:00, 'wed': 10:00-19:00, 'thu': 10:00-19:00, 'fri': 10:00-19:00, 'sat': выходной, 'sun': выходной",56.714927,36.774099,"4,4",79.0,75.0,72.0,90.0,,,,,2024-06-24 04:50:27
197435609224,Альфа-Банк,Великие Луки,"просп. Ленина, 39, Великие Луки","'mon': 10:00-19:00, 'tue': 10:00-19:00, 'wed': 10:00-19:00, 'thu': 10:00-19:00, 'fri': 10:00-19:00, 'sat': выходной, 'sun': выходной",56.343558,30.521717,"5,0",93.0,91.0,90.0,94.0,94.0,,,92.0,2024-06-23 23:13:18
185657731644,Альфа-Банк,Брянск,"Красноармейская ул., 41, Брянск","'mon': 09:00-20:00, 'tue': 09:00-20:00, 'wed': 09:00-20:00, 'thu': 09:00-20:00, 'fri': 09:00-20:00, 'sat': 10:00-18:00, 'sun': выходной",53.236825,34.350265,"4,7",78.0,77.0,84.0,73.0,83.0,67.0,,,2024-06-23 18:03:27
86406925140,Альфа-Банк,Киселёвск,"ул. Ленина, 38, Киселёвск","'mon': 09:00-18:00, 'tue': 09:00-18:00, 'wed': 09:00-18:00, 'thu': 09:00-18:00, 'fri': 09:00-18:00, 'sat': выходной, 'sun': выходной",54.002088,86.639293,"4,4",89.0,88.0,88.0,,,,,,2024-06-24 19:22:49
121055795231,Альфа-Банк,Ишимбай,"Стахановская ул., 92, Ишимбай","'mon': 09:00-23:00, 'tue': 09:00-23:00, 'wed': 09:00-23:00, 'thu': 09:00-23:00, 'fri': 09:00-23:00, 'sat': 09:00-23:00, 'sun': 09:00-23:00",53.449473,56.037761,,,,,,,,,,2024-06-24 12:11:58
92682113592,Альфа-Банк,Апрелевка,"Августовская ул., 14, Апрелевка","'mon': 10:00-19:00, 'tue': 10:00-19:00, 'wed': 10:00-19:00, 'thu': 10:00-19:00, 'fri': 10:00-19:00, 'sat': выходной, 'sun': выходной",55.549817,37.068442,"4,3",57.0,57.0,58.0,44.0,100.0,,,,2024-06-24 09:52:39
139972826795,Альфа-Банк,Советск,"ул. Победы, 21, Советск","'mon': 10:00-19:00, 'tue': 10:00-19:00, 'wed': 10:00-19:00, 'thu': 10:00-19:00, 'fri': 10:00-19:00, 'sat': выходной, 'sun': выходной",55.081905,21.895375,"4,7",94.0,94.0,92.0,80.0,,,,,2024-06-24 04:36:19
59932277658,Альфа-Банк,Алатырь,"Комиссариатская ул., 40Б, Алатырь","'mon': 09:00-18:00, 'tue': 09:00-18:00, 'wed': 09:00-18:00, 'thu': 09:00-18:00, 'fri': 09:00-18:00, 'sat': выходной, 'sun': выходной",54.840179,46.592865,"4,5",92.0,92.0,92.0,,,,,,2024-07-02 08:55:56
123532173786,Альфа-Банк,Моршанск,"Интернациональная ул., 49, Моршанск","'mon': 09:00-18:00, 'tue': 09:00-18:00, 'wed': 09:00-18:00, 'thu': 09:00-18:00, 'fri': 09:00-18:00, 'sat': выходной, 'sun': выходной",53.445059,41.811869,"4,5",87.0,93.0,93.0,,,,,,2024-06-24 15:20:14
116343066898,Альфа-Банк,Мценск,"ул. Ленина, 25, Мценск","'mon': 09:00-18:00, 'tue': 09:00-18:00, 'wed': 09:00-18:00, 'thu': 09:00-18:00, 'fri': 09:00-18:00, 'sat': выходной, 'sun': выходной",53.277491,36.576613,"4,3",,,,,,,,,2024-06-24 15:22:24
1267029340,Альфа-Банк,Находка,"Северный просп., 2/1, Находка","'mon': 09:00-20:00, 'tue': 09:00-20:00, 'wed': 09:00-20:00, 'thu': 09:00-20:00, 'fri': 09:00-20:00, 'sat': 10:00-18:00, 'sun': выходной",42.83677,132.88002,"4,7",92.0,91.0,91.0,91.0,90.0,80.0,,,2024-06-23 20:36:52
86505415030,Альфа-Банк,Орёл,"Комсомольская ул., 78, Орёл","'mon': 10:00-20:00, 'tue': 10:00-20:00, 'wed': 10:00-20:00, 'thu': 10:00-20:00, 'fri': 10:00-20:00, 'sat': 10:00-18:00, 'sun': выходной",52.953431,36.061995,"4,4",64.0,63.0,66.0,59.0,66.0,,92.0,,2024-06-24 07:09:45
126000144540,Альфа-Банк,Петрозаводск,"просп. Ленина, 26, Петрозаводск","'mon': 10:00-19:00, 'tue': 10:00-19:00, 'wed': 10:00-19:00, 'thu': 10:00-19:00, 'fri': 10:00-19:00, 'sat': выходной, 'sun': выходной",61.78862,34.357164,"4,7",81.0,80.0,85.0,75.0,80.0,,100.0,90.0,2024-06-23 19:21:31
61010956527,Альфа-Банк,Петрозаводск,"ул. Ровио, 18, Петрозаводск","'mon': 10:00-19:00, 'tue': 10:00-19:00, 'wed': 10:00-19:00, 'thu': 10:00-19:00, 'fri': 10:00-19:00, 'sat': выходной, 'sun': выходной",61.764411,34.371456,"4,7",92.0,91.0,91.0,88.0,91.0,,100.0,,2024-06-23 19:21:31
62559706081,Альфа-Банк,Чита,"Хабаровская ул., 6, Чита","'mon': 09:00-19:00, 'tue': 09:00-19:00, 'wed': 09:00-19:00, 'thu': 09:00-19:00, 'fri': 09:00-19:00, 'sat': выходной, 'sun': выходной",52.03924,113.50554,"4,4",86.0,89.0,89.0,69.0,,,,,2024-06-23 18:18:44
80543410768,Альфа-Банк,Домодедово,"Каширское ш., 51, Домодедово","'mon': 10:00-20:00, 'tue': 10:00-20:00, 'wed': 10:00-20:00, 'thu': 10:00-20:00, 'fri': 10:00-20:00, 'sat': 10:00-18:00, 'sun': выходной",55.434482,37.767438,"4,7",69.0,68.0,75.0,58.0,43.0,65.0,92.0,,2024-06-23 20:38:52
207814284600,Альфа-Банк,Выкса,"ул. Островского, 33, Выкса","'mon': 09:00-18:00, 'tue': 09:00-18:00, 'wed': 09:00-18:00, 'thu': 09:00-18:00, 'fri': 09:00-18:00, 'sat': выходной, 'sun': выходной",55.328576,42.16895,"4,4",88.0,87.0,93.0,,,,,,2024-06-24 02:54:32
25179331732,Альфа-Банк,Череповец,"ул. Ленина, 68, Череповец","'mon': 09:00-18:00, 'tue': 09:00-18:00, 'wed': 09:00-18:00, 'thu': 09:00-18:00, 'fri': 09:00-18:00, 'sat': выходной, 'sun': выходной",59.125328,37.923961,"4,9",89.0,86.0,91.0,85.0,90.0,,,91.0,2024-06-23 18:36:52
183064515223,Альфа-Банк,Новосибирск,"ул. Кирова, 46/1, Новосибирск","'mon': 09:00-18:00, 'tue': 09:00-17:00, 'wed': выходной, 'thu': 09:00-18:00, 'fri': 09:00-18:00, 'sat': выходной, 'sun': выходной",55.018335,82.93942,"4,5",75.0,76.0,84.0,74.0,67.0,,94.0,,2024-06-23 15:38:21
35340132727,Альфа-Банк,Новосибирск,"площадь Карла Маркса, 5, Новосибирск","'mon': 09:00-20:00, 'tue': 09:00-20:00, 'wed': 09:00-19:00, 'thu': выходной, 'fri': 10:00-18:00, 'sat': 10:00-18:00, 'sun': выходной",54.982507,82.892339,"4,6",77.0,75.0,76.0,71.0,72.0,69.0,100.0,100.0,2024-06-23 15:38:21
107761170783,Альфа-Банк,Новосибирск,"ул. Бориса Богаткова, 201/1, Новосибирск","'mon': 10:00-19:00, 'tue': 10:00-19:00, 'wed': 10:00-19:00, 'thu': 10:00-19:00, 'fri': 10:00-19:00, 'sat': выходной, 'sun': выходной",55.035699,82.9745,"4,6",85.0,84.0,85.0,89.0,86.0,,100.0,100.0,2024-06-23 15:38:21
1159730071,Альфа-Банк,Новосибирск,"ул. Дуси Ковальчук, 179/4, Новосибирск","'mon': 09:00-20:00, 'tue': 09:00-20:00, 'wed': 09:00-20:00, 'thu': 09:00-20:00, 'fri': 09:00-20:00, 'sat': 10:00-18:00, 'sun': выходной",55.060622,82.914124,"4,3",74.0,73.0,76.0,74.0,78.0,53.0,93.0,,2024-06-23 15:38:21
242809832592,Альфа-Банк,Новосибирск,"ул. Мичурина, 23, Новосибирск","'mon': 09:00-18:00, 'tue': 09:00-18:00, 'wed': 09:00-18:00, 'thu': 09:00-18:00, 'fri': 09:00-18:00, 'sat': выходной, 'sun': выходной",55.041349,82.921049,"4,5",86.0,84.0,87.0,96.0,83.0,40.0,100.0,100.0,2024-06-23 15:38:21
104151060354,Альфа-Банк,Новосибирск,"просп. Карла Маркса, 55, Новосибирск","'mon': 09:00-18:00, 'tue': 09:00-18:00, 'wed': 09:00-18:00, 'thu': 09:00-18:00, 'fri': 09:00-18:00, 'sat': выходной, 'sun': выходной",54.991801,82.910162,"4,5",89.0,88.0,90.0,90.0,92.0,70.0,,,2024-06-23 15:38:21
2687404631,Альфа-Банк,Новосибирск,"ул. Ленина, 52, Новосибирск","'mon': 09:00-20:00, 'tue': 09:00-20:00, 'wed': 09:00-20:00, 'thu': 09:00-20:00, 'fri': 09:00-20:00, 'sat': 10:00-18:00, 'sun': выходной",55.033548,82.90205,"4,4",70.0,65.0,72.0,73.0,65.0,,93.0,,2024-06-23 15:38:21
8780594738,Альфа-Банк,Новосибирск,"ул. Орджоникидзе, 23, Новосибирск","'mon': 09:00-18:00, 'tue': 09:00-18:00, 'wed': 09:00-18:00, 'thu': 09:00-18:00, 'fri': 09:00-18:00, 'sat': выходной, 'sun': выходной",55.031376,82.917726,"4,4",69.0,62.0,70.0,78.0,63.0,,100.0,,2024-06-23 15:38:21
236920599498,Альфа-Банк,Новосибирск,"ул. Крылова, 31, Новосибирск","'mon': 09:00-18:00, 'tue': 09:00-18:00, 'wed': 09:00-18:00, 'thu': 09:00-18:00, 'fri': 09:00-16:45, 'sat': выходной, 'sun': выходной",55.04156,82.929278,"4,6",96.0,96.0,97.0,96.0,97.0,,91.0,100.0,2024-06-23 15:38:21
224681779681,Альфа-Банк,Новосибирск,"ул. Ильича, 6, Советский район, микрорайон Академгородок, Новосибирск","'mon': 09:00-20:00, 'tue': 09:00-20:00, 'wed': 09:00-20:00, 'thu': 09:00-20:00, 'fri': 09:00-20:00, 'sat': 10:00-18:00, 'sun': выходной",54.839313,83.095359,"4,8",82.0,81.0,84.0,76.0,80.0,80.0,,,2024-06-23 15:38:21
70187004794,Альфа-Банк,Темрюк,"ул. Ленина, 68, Темрюк","'mon': 09:00-18:00, 'tue': 09:00-18:00, 'wed': 09:00-18:00, 'thu': 09:00-18:00, 'fri': 09:00-18:00, 'sat': выходной, 'sun': выходной",45.277763,37.370176,"4,3",71.0,72.0,74.0,67.0,,,,,2024-06-24 04:20:33
228044594869,Альфа-Банк,Электросталь,"Советская ул., 14, Электросталь","'mon': 10:00-19:00, 'tue': 10:00-19:00, 'wed': 10:00-19:00, 'thu': 10:00-19:00, 'fri': 10:00-19:00, 'sat': выходной, 'sun': выходной",55.790696,38.439019,"4,7",84.0,84.0,86.0,82.0,80.0,,,,2024-06-23 21:00:25
125799782574,Альфа-Банк,Кинешма,"ул. имени Ленина, 6, Кинешма","'mon': 09:00-18:00, 'tue': 09:00-18:00, 'wed': 09:00-18:00, 'thu': 09:00-18:00, 'fri': 09:00-18:00, 'sat': выходной, 'sun': выходной",57.443393,42.167602,"4,7",95.0,95.0,94.0,,,,,,2024-06-23 23:38:00
1080885385,Альфа-Банк,Первоуральск,"ул. Ватутина, 37, Первоуральск","'mon': 10:00-20:00, 'tue': 10:00-20:00, 'wed': 10:00-20:00, 'thu': 10:00-20:00, 'fri': 10:00-20:00, 'sat': 10:00-18:00, 'sun': выходной",56.903332,59.942324,"4,5",83.0,80.0,87.0,69.0,68.0,,,,2024-06-23 21:50:18
146837783175,Альфа-Банк,Волжск,"ул. Ленина, 56Б, Волжск","'mon': 09:00-18:00, 'tue': 09:00-18:00, 'wed': 09:00-18:00, 'thu': 09:00-18:00, 'fri': 09:00-18:00, 'sat': выходной, 'sun': выходной",55.865162,48.361379,"4,7",92.0,90.0,,,,,,,2024-06-24 02:56:29
27718098902,Альфа-Банк,Геленджик,"Херсонская ул., 23, Геленджик","'mon': 09:00-18:00, 'tue': 09:00-18:00, 'wed': 09:00-18:00, 'thu': 09:00-18:00, 'fri': 09:00-18:00, 'sat': выходной, 'sun': выходной",44.563055,38.080465,"4,3",63.0,67.0,70.0,33.0,80.0,,,,2024-06-24 00:04:47
1322041331,Альфа-Банк,Ачинск,"5/4, 28-й квартал, Ачинск","'mon': 10:00-19:00, 'tue': 10:00-19:00, 'wed': 10:00-19:00, 'thu': 10:00-19:00, 'fri': 10:00-19:00, 'sat': выходной, 'sun': выходной",56.253212,90.474156,"4,6",85.0,84.0,89.0,92.0,77.0,70.0,,,2024-06-23 22:29:41
26820772860,Альфа-Банк,Берёзовский,"Театральная ул., 6, Берёзовский","'mon': 09:00-23:00, 'tue': 09:00-23:00, 'wed': 09:00-23:00, 'thu': 09:00-23:00, 'fri': 09:00-23:00, 'sat': 09:00-23:00, 'sun': 09:00-23:00",56.907151,60.810798,,,,,,,,,,2024-06-24 07:13:39
201643328832,Альфа-Банк,Берёзовский,"Восточная ул., 11А, Берёзовский","'mon': 00:00-23:59, 'tue': 00:00-23:59, 'wed': 00:00-23:59, 'thu': 00:00-23:59, 'fri': 00:00-23:59, 'sat': 00:00-23:59, 'sun': 00:00-23:59",56.906876,60.809522,,,,,,,,,,2024-06-24 07:13:39
1049195804,Альфа-Банк,Ставрополь,"ул. Ленина, 299, Ставрополь","'mon': 09:00-20:00, 'tue': 09:00-20:00, 'wed': 09:00-20:00, 'thu': 09:00-20:00, 'fri': 09:00-20:00, 'sat': 10:00-18:00, 'sun': выходной",45.03818,41.94768,"4,3",62.0,59.0,68.0,58.0,37.0,67.0,82.0,,2024-06-23 17:11:32
157707951430,Альфа-Банк,Ставрополь,"ул. 50 лет ВЛКСМ, 11/1, Ставрополь","'mon': 10:00-19:00, 'tue': 10:00-19:00, 'wed': 10:00-19:00, 'thu': 10:00-19:00, 'fri': 10:00-19:00, 'sat': выходной, 'sun': выходной",45.01669,41.924509,"4,3",68.0,70.0,76.0,53.0,,,,,2024-06-23 17:11:32
59234863161,Альфа-Банк,Ставрополь,"ул. Дзержинского, 114, Ставрополь","'mon': 09:00-18:00, 'tue': 09:00-18:00, 'wed': 09:00-18:00, 'thu': 09:00-18:00, 'fri': 09:00-18:00, 'sat': выходной, 'sun': выходной",45.044203,41.970952,"4,5",72.0,68.0,75.0,63.0,67.0,72.0,80.0,,2024-06-23 17:11:32
202007863199,Альфа-Банк,Ульяновск,"ул. Гончарова, 25, Ульяновск","'mon': 09:00-20:00, 'tue': 09:00-20:00, 'wed': 09:00-20:00, 'thu': 09:00-20:00, 'fri': 09:00-20:00, 'sat': 10:00-18:00, 'sun': выходной",54.320478,48.399188,"4,7",76.0,75.0,79.0,80.0,69.0,83.0,100.0,,2024-06-23 16:49:26
124438729621,Альфа-Банк,Ульяновск,"ул. Герасимова, 10, стр. 4, Ульяновск","'mon': 10:00-19:00, 'tue': 10:00-19:00, 'wed': 10:00-19:00, 'thu': 10:00-19:00, 'fri': 10:00-19:00, 'sat': выходной, 'sun': выходной",54.296341,48.29501,"4,8",88.0,91.0,89.0,87.0,86.0,83.0,52.0,,2024-06-23 16:49:26
212162467298,Альфа-Банк,Ульяновск,"Ульяновский просп., 6, Ульяновск","'mon': 09:00-20:00, 'tue': 09:00-20:00, 'wed': 09:00-20:00, 'thu': 09:00-20:00, 'fri': 09:00-20:00, 'sat': 10:00-16:00, 'sun': выходной",54.372592,48.585049,"4,6",83.0,80.0,84.0,87.0,76.0,,,,2024-06-23 16:49:26
114133178947,Альфа-Банк,Нурлат,"ул. Карла Маркса, 27, Нурлат","'mon': 09:00-18:00, 'tue': 09:00-18:00, 'wed': 09:00-18:00, 'thu': 09:00-18:00, 'fri': 09:00-18:00, 'sat': выходной, 'sun': выходной",54.430343,50.805856,,,,,,,,,,2024-06-24 15:37:41
48520319242,Альфа-Банк,Курчатов,"Садовая ул., 11А, Курчатов","'mon': 10:00-19:00, 'tue': 10:00-19:00, 'wed': 10:00-19:00, 'thu': 10:00-19:00, 'fri': 10:00-19:00, 'sat': выходной, 'sun': выходной",51.653193,35.684955,"4,7",,,,,,,,,2024-06-24 04:58:24
210744983906,Альфа-Банк,Клинцы,"просп. Ленина, 21, Клинцы","'mon': 10:00-19:00, 'tue': 10:00-19:00, 'wed': 10:00-19:00, 'thu': 10:00-19:00, 'fri': 10:00-19:00, 'sat': выходной, 'sun': выходной",52.753574,32.23519,"4,4",91.0,91.0,95.0,,,,,,2024-06-24 01:29:22
26195126375,Альфа-Банк,Будённовск,"Октябрьская ул., 79, Будённовск","'mon': 09:00-18:00, 'tue': 09:00-18:00, 'wed': 09:00-18:00, 'thu': 09:00-18:00, 'fri': 09:00-18:00, 'sat': выходной, 'sun': выходной",44.78227,44.156301,"4,5",89.0,94.0,100.0,,,,,,2024-06-24 19:18:18
1175040470,Альфа-Банк,Мегион,"Нефтеразведочная ул., 2, Мегион","'mon': 10:00-19:00, 'tue': 10:00-19:00, 'wed': 10:00-19:00, 'thu': 10:00-19:00, 'fri': 10:00-19:00, 'sat': выходной, 'sun': выходной",61.031282,76.121522,"4,8",92.0,90.0,92.0,89.0,90.0,,,,2024-06-24 03:33:31
106741823103,Альфа-Банк,Коркино,"ул. Цвиллинга, 8, Коркино","'mon': 09:00-18:00, 'tue': 09:00-18:00, 'wed': 09:00-18:00, 'thu': 09:00-18:00, 'fri': 09:00-18:00, 'sat': 00:00-23:59, 'sun': 00:00-23:59",54.890324,61.410747,,,,,,,,,,2024-06-24 14:12:43
26205683961,Альфа-Банк,Биробиджан,"ул. Шолом-Алейхема, 8, Биробиджан","'mon': 10:00-19:00, 'tue': 10:00-19:00, 'wed': 10:00-19:00, 'thu': 10:00-19:00, 'fri': 10:00-19:00, 'sat': выходной, 'sun': выходной",48.78951,132.93405,"4,0",43.0,50.0,50.0,,,,,,2024-06-24 00:28:32
203054024025,Альфа-Банк,Кунгур,"ул. Пугачёва, 25, Кунгур","'mon': 10:00-19:00, 'tue': 10:00-19:00, 'wed': 10:00-19:00, 'thu': 10:00-19:00, 'fri': 10:00-19:00, 'sat': выходной, 'sun': выходной",57.426838,56.950233,"4,3",85.0,82.0,94.0,,,,,,2024-06-24 01:19:10
40054607208,Альфа-Банк,Воскресенск,"Октябрьская ул., 2, микрорайон Центральный, Воскресенск","'mon': 10:00-19:00, 'tue': 10:00-19:00, 'wed': 10:00-19:00, 'thu': 10:00-19:00, 'fri': 10:00-19:00, 'sat': выходной, 'sun': выходной",55.322189,38.674341,"4,4",60.0,59.0,64.0,55.0,,,,,2024-06-23 23:05:13
164880606154,Альфа-Банк,Камень-На-Оби,"ул. Пушкина, 25, Камень-на-Оби","'mon': 10:00-19:00, 'tue': 10:00-19:00, 'wed': 10:00-19:00, 'thu': 10:00-19:00, 'fri': 10:00-19:00, 'sat': выходной, 'sun': выходной",53.791098,81.347632,"4,4",85.0,83.0,,,,,,,2024-06-24 04:18:34
15911734252,Альфа-Банк,Ишим,"ул. Карла Маркса, 77А, Ишим","'mon': 10:00-19:00, 'tue': 10:00-19:00, 'wed': 10:00-19:00, 'thu': 10:00-19:00, 'fri': 10:00-19:00, 'sat': выходной, 'sun': выходной",56.110209,69.507325,"4,4",79.0,82.0,78.0,,,,,,2024-06-24 00:58:05
55677171873,Альфа-Банк,Богданович,"Спортивная ул., 2, Богданович","'mon': 10:00-19:00, 'tue': 10:00-19:00, 'wed': 10:00-19:00, 'thu': 10:00-19:00, 'fri': 10:00-19:00, 'sat': выходной, 'sun': выходной",56.7712,62.052548,"4,3",80.0,83.0,77.0,,,,,,2024-06-24 05:59:29
177656117228,Альфа-Банк,Новоуральск,"Комсомольская ул., 6А, Новоуральск","'mon': 10:00-19:00, 'tue': 10:00-19:00, 'wed': 10:00-19:00, 'thu': 10:00-19:00, 'fri': 10:00-19:00, 'sat': выходной, 'sun': выходной",57.247781,60.080673,"4,4",89.0,89.0,94.0,,,,,,2024-06-23 23:58:48
116918127170,Альфа-Банк,Ирбит,"ул. Калинина, 19А, Ирбит","'mon': 10:00-19:00, 'tue': 10:00-19:00, 'wed': 10:00-19:00, 'thu': 10:00-19:00, 'fri': 10:00-19:00, 'sat': выходной, 'sun': выходной",57.678473,63.06353,"4,4",95.0,94.0,93.0,,100.0,,,,2024-06-24 12:08:01
12507243481,Альфа-Банк,Кореновск,"Красная ул., 112, Кореновск","'mon': 09:00-18:00, 'tue': 09:00-18:00, 'wed': 09:00-18:00, 'thu': 09:00-18:00, 'fri': 09:00-18:00, 'sat': выходной, 'sun': выходной",45.465466,39.448384,"4,4",90.0,93.0,100.0,,,,,,2024-06-24 04:10:37
115208039878,Альфа-Банк,Владимир,"просп. Ленина, 26, Владимир","'mon': 09:00-19:00, 'tue': 09:00-19:00, 'wed': 09:00-19:00, 'thu': 09:00-19:00, 'fri': 09:00-19:00, 'sat': выходной, 'sun': выходной",56.120432,40.36771,"4,4",71.0,70.0,75.0,65.0,70.0,50.0,80.0,72.0,2024-06-23 18:09:46
162274101595,Альфа-Банк,Димитровград,"просп. Ленина, 39Г, Димитровград","'mon': 10:00-19:00, 'tue': 10:00-19:00, 'wed': 10:00-19:00, 'thu': 10:00-19:00, 'fri': 10:00-19:00, 'sat': выходной, 'sun': выходной",54.238195,49.564779,"5,0",91.0,88.0,92.0,93.0,93.0,,100.0,,2024-06-23 21:57:24
180566401021,Альфа-Банк,Междуреченск,"Коммунистический просп., 18, Междуреченск","'mon': 09:00-18:00, 'tue': 09:00-18:00, 'wed': 09:00-18:00, 'thu': 09:00-18:00, 'fri': 09:00-18:00, 'sat': выходной, 'sun': выходной",53.689502,88.068917,"4,4",100.0,100.0,100.0,,,,,,2024-06-23 22:55:14
70774682860,Альфа-Банк,Туапсе,"ул. Софьи Перовской, 2, Туапсе","'mon': 09:00-18:00, 'tue': 09:00-18:00, 'wed': 09:00-18:00, 'thu': 09:00-18:00, 'fri': 09:00-18:00, 'sat': выходной, 'sun': выходной",44.099214,39.079832,"4,7",82.0,82.0,84.0,76.0,81.0,,,,2024-06-24 01:37:17
43888265827,Альфа-Банк,Белореченск,"ул. Ленина, 145, Белореченск","'mon': 09:00-18:00, 'tue': 09:00-18:00, 'wed': 09:00-18:00, 'thu': 09:00-18:00, 'fri': 09:00-18:00, 'sat': выходной, 'sun': выходной",44.766606,39.867034,"4,4",80.0,86.0,82.0,80.0,,,,,2024-06-24 03:08:37
219897852111,Альфа-Банк,Ковров,"просп. Ленина, 38, Ковров","'mon': 09:00-18:00, 'tue': 09:00-18:00, 'wed': 09:00-18:00, 'thu': 09:00-18:00, 'fri': 09:00-18:00, 'sat': выходной, 'sun': выходной",56.359609,41.312289,"4,9",87.0,87.0,91.0,84.0,91.0,,,,2024-06-24 07:23:18
65647753272,Альфа-Банк,р.п. Кольцово,"просп. Академика Сандахчиева, 9, рабочий посёлок Кольцово","'mon': 08:00-23:00, 'tue': 08:00-23:00, 'wed': 08:00-23:00, 'thu': 08:00-23:00, 'fri': 08:00-23:00, 'sat': 08:00-23:00, 'sun': 08:00-23:00",54.940107,83.189897,,,,,,,,,,2024-06-24 19:01:00
53528819672,Альфа-Банк,р.п. Кольцово,"Никольский просп., 2, рабочий посёлок Кольцово","'mon': 09:00-21:00, 'tue': 09:00-21:00, 'wed': 09:00-21:00, 'thu': 09:00-21:00, 'fri': 09:00-21:00, 'sat': выходной, 'sun': выходной",54.938948,83.188406,,,,,,,,,,2024-06-24 19:01:00
108641168284,Альфа-Банк,Сафоново,"Советская ул., 56, Сафоново","'mon': 10:00-19:00, 'tue': 10:00-19:00, 'wed': 10:00-19:00, 'thu': 10:00-19:00, 'fri': 10:00-19:00, 'sat': выходной, 'sun': выходной",55.116372,33.238286,"4,6",88.0,86.0,87.0,,,,,,2024-06-24 04:04:38
11731633586,Альфа-Банк,Пушкин,"Ленинградская ул., 29, Пушкин","'mon': 10:00-19:00, 'tue': 10:00-19:00, 'wed': 10:00-19:00, 'thu': 10:00-19:00, 'fri': 10:00-19:00, 'sat': выходной, 'sun': выходной",59.726411,30.418941,"4,0",52.0,56.0,54.0,40.0,88.0,,,,2024-06-23 23:30:00
240894883305,Альфа-Банк,Лесосибирск,"26, 5-й микрорайон, Лесосибирск","'mon': 09:00-18:00, 'tue': 09:00-18:00, 'wed': 09:00-18:00, 'thu': 09:00-18:00, 'fri': 09:00-18:00, 'sat': выходной, 'sun': выходной",58.220842,92.503963,"4,4",76.0,77.0,85.0,,,,,,2024-06-24 02:03:39
106356996346,Альфа-Банк,Черняховск,"ул. Ленина, 39, Черняховск","'mon': 10:00-19:00, 'tue': 10:00-19:00, 'wed': 10:00-19:00, 'thu': 10:00-19:00, 'fri': 10:00-19:00, 'sat': выходной, 'sun': выходной",54.631666,21.819027,"4,4",91.0,90.0,,,,,,,2024-06-24 05:19:19
73198665802,Альфа-Банк,Великий Новгород,"Большая Санкт-Петербургская ул., 13, Великий Новгород","'mon': 10:00-20:00, 'tue': 10:00-20:00, 'wed': 10:00-20:00, 'thu': 10:00-20:00, 'fri': 10:00-20:00, 'sat': 10:00-18:00, 'sun': выходной",58.529619,31.270688,"4,7",76.0,74.0,78.0,71.0,86.0,83.0,100.0,,2024-06-23 19:30:58
33524583785,Альфа-Банк,Армавир,"ул. Ленина, 101А, Армавир","'mon': 09:00-18:00, 'tue': 09:00-18:00, 'wed': 09:00-18:00, 'thu': 09:00-18:00, 'fri': 09:00-18:00, 'sat': выходной, 'sun': выходной",44.999529,41.127371,"5,0",89.0,91.0,91.0,83.0,90.0,92.0,92.0,,2024-06-23 19:55:23
163290531692,Альфа-Банк,р.п. Краснообск,"1, 6-й микрорайон, рабочий посёлок Краснообск","'mon': 09:00-22:00, 'tue': 09:00-22:00, 'wed': 09:00-22:00, 'thu': 09:00-22:00, 'fri': 09:00-22:00, 'sat': 09:00-22:00, 'sun': 09:00-22:00",54.927853,82.985764,,,,,,,,,,2024-06-24 19:03:18
181915765452,Альфа-Банк,р.п. Краснообск,"Западная ул., 200, рабочий посёлок Краснообск","'mon': 08:00-23:00, 'tue': 08:00-23:00, 'wed': 08:00-23:00, 'thu': 08:00-23:00, 'fri': 08:00-23:00, 'sat': 08:00-23:00, 'sun': 08:00-23:00",54.924227,82.980212,,,,,,,,,,2024-06-24 19:03:18
65590975132,Альфа-Банк,Белебей,"Красная ул., 134, Белебей","'mon': 00:00-23:59, 'tue': 00:00-23:59, 'wed': 00:00-23:59, 'thu': 00:00-23:59, 'fri': 00:00-23:59, 'sat': 00:00-23:59, 'sun': 00:00-23:59",54.097528,54.102395,,,,,,,,,,2024-06-24 10:11:53
160926000846,Альфа-Банк,Белебей,"Красная ул., 112, Белебей","'mon': 09:00-22:30, 'tue': 09:00-22:30, 'wed': 09:00-22:30, 'thu': 09:00-22:30, 'fri': 09:00-22:30, 'sat': 09:00-22:30, 'sun': 09:00-22:30",54.103626,54.109438,,,,,,,,,,2024-06-24 10:11:53
208149359101,Альфа-Банк,Чистополь,"ул. Ленина, 42Д, Чистополь","'mon': 09:00-18:00, 'tue': 09:00-18:00, 'wed': 09:00-18:00, 'thu': 09:00-18:00, 'fri': 09:00-18:00, 'sat': выходной, 'sun': выходной",55.369694,50.644581,"4,1",,,,,,,,,2024-06-24 02:01:38
174495500460,Альфа-Банк,Тобольск,"1, 9-й микрорайон, Тобольск","'mon': 10:00-19:00, 'tue': 10:00-19:00, 'wed': 10:00-19:00, 'thu': 10:00-19:00, 'fri': 10:00-19:00, 'sat': выходной, 'sun': выходной",58.2287,68.278411,"5,0",94.0,94.0,93.0,89.0,100.0,,100.0,,2024-06-23 22:42:22
203411068455,Альфа-Банк,Волгоград,"Комсомольская ул., 10, Волгоград","'mon': 09:00-20:00, 'tue': 09:00-20:00, 'wed': 09:00-20:00, 'thu': 09:00-20:00, 'fri': 09:00-20:00, 'sat': 09:00-20:00, 'sun': выходной",48.710177,44.521008,"4,3",66.0,63.0,66.0,64.0,55.0,,100.0,,2024-06-23 16:28:51
1061556597,Альфа-Банк,Волгоград,"просп. имени В.И. Ленина, 2А, Волгоград","'mon': 09:00-20:00, 'tue': 09:00-20:00, 'wed': 09:00-20:00, 'thu': 09:00-20:00, 'fri': 09:00-20:00, 'sat': 10:00-18:00, 'sun': выходной",48.703773,44.512601,"4,4",84.0,85.0,86.0,79.0,86.0,83.0,80.0,100.0,2024-06-23 16:28:51
61225441096,Альфа-Банк,Волгоград,"ул. 8-й Воздушной Армии, 47А, район Семь Ветров, Волгоград","'mon': 10:00-19:00, 'tue': 10:00-19:00, 'wed': 10:00-19:00, 'thu': 10:00-19:00, 'fri': 10:00-19:00, 'sat': выходной, 'sun': выходной",48.756747,44.500303,"4,6",80.0,80.0,82.0,76.0,76.0,77.0,94.0,100.0,2024-06-23 16:28:51
1152425281,Альфа-Банк,Волгоград,"Невская ул., 11А, Волгоград","'mon': 09:00-18:00, 'tue': 09:00-18:00, 'wed': 09:00-18:00, 'thu': 09:00-18:00, 'fri': 09:00-16:45, 'sat': выходной, 'sun': выходной",48.717358,44.5081,"4,5",93.0,93.0,96.0,89.0,100.0,,,,2024-06-23 16:28:51
150348626165,Альфа-Банк,Волгоград,"просп. Героев Сталинграда, 49, Волгоград","'mon': 09:00-20:00, 'tue': 09:00-20:00, 'wed': 09:00-20:00, 'thu': 09:00-20:00, 'fri': 09:00-20:00, 'sat': 10:00-18:00, 'sun': выходной",48.515627,44.536917,"4,5",75.0,72.0,72.0,78.0,78.0,80.0,100.0,,2024-06-23 16:28:51
73419427780,Альфа-Банк,Волгоград,"ул. Николая Отрады, 6, Волгоград","'mon': 10:00-19:00, 'tue': 10:00-19:00, 'wed': 10:00-19:00, 'thu': 10:00-19:00, 'fri': 10:00-19:00, 'sat': выходной, 'sun': выходной",48.81476,44.624064,"4,6",81.0,77.0,78.0,76.0,83.0,90.0,,92.0,2024-06-23 16:28:51
179302984212,Альфа-Банк,Звенигород,"Нахабинское ш., 15А, Звенигород","'mon': 08:00-23:00, 'tue': 08:00-23:00, 'wed': 08:00-23:00, 'thu': 08:00-23:00, 'fri': 08:00-23:00, 'sat': 08:00-23:00, 'sun': 08:00-23:00",55.743522,36.860005,,,,,,,,,,2024-06-24 05:08:32
1332974611,Альфа-Банк,Новотроицк,"Советская ул., 52, Новотроицк","'mon': 09:00-18:00, 'tue': 09:00-18:00, 'wed': 09:00-18:00, 'thu': 09:00-18:00, 'fri': 09:00-18:00, 'sat': выходной, 'sun': выходной",51.195994,58.320964,"4,7",91.0,90.0,92.0,91.0,100.0,,,,2024-06-23 23:25:53
76465325675,Альфа-Банк,Химки,"просп. Мельникова, 2Б, Химки","'mon': 10:00-20:00, 'tue': 10:00-20:00, 'wed': 10:00-20:00, 'thu': 10:00-20:00, 'fri': 10:00-20:00, 'sat': 10:00-20:00, 'sun': выходной",55.901183,37.407538,"4,4",56.0,55.0,61.0,40.0,41.0,67.0,96.0,,2024-06-23 19:00:41
158072099704,Альфа-Банк,Барнаул,"Павловский тракт, 251А, Барнаул","'mon': 09:00-20:00, 'tue': 09:00-20:00, 'wed': 09:00-20:00, 'thu': 09:00-20:00, 'fri': 09:00-20:00, 'sat': 10:00-18:00, 'sun': выходной",53.342936,83.680396,"4,9",88.0,88.0,89.0,78.0,92.0,,,,2024-06-23 16:41:14
64447174094,Альфа-Банк,Барнаул,"ул. Антона Петрова, 219Б, Барнаул","'mon': 09:00-20:00, 'tue': 09:00-20:00, 'wed': 09:00-20:00, 'thu': 09:00-20:00, 'fri': 09:00-20:00, 'sat': 10:00-18:00, 'sun': выходной",53.359055,83.697679,"4,4",76.0,69.0,80.0,68.0,55.0,,,,2024-06-23 16:41:14
101800212967,Альфа-Банк,Барнаул,"Красноармейский просп., 58Б, Барнаул","'mon': 09:00-20:00, 'tue': 09:00-20:00, 'wed': 09:00-20:00, 'thu': 09:00-20:00, 'fri': 09:00-20:00, 'sat': 10:00-18:00, 'sun': выходной",53.33771,83.775095,"4,7",93.0,89.0,95.0,90.0,92.0,,100.0,,2024-06-23 16:41:14
9028783175,Альфа-Банк,Барнаул,"Социалистический просп., 130, Барнаул","'mon': 09:00-18:00, 'tue': 09:00-18:00, 'wed': 09:00-18:00, 'thu': 09:00-18:00, 'fri': 09:00-18:00, 'sat': выходной, 'sun': выходной",53.34979,83.763669,"4,8",94.0,91.0,95.0,92.0,91.0,90.0,100.0,100.0,2024-06-23 16:41:14
150990504689,Альфа-Банк,Барнаул,"просп. Ленина, 58, Барнаул","'mon': 09:00-20:00, 'tue': 09:00-20:00, 'wed': 09:00-20:00, 'thu': 09:00-20:00, 'fri': 09:00-20:00, 'sat': 10:00-18:00, 'sun': выходной",53.348156,83.777548,"4,5",79.0,74.0,80.0,85.0,77.0,92.0,100.0,,2024-06-23 16:41:14
161086873792,Альфа-Банк,Барнаул,"просп. Ленина, 106, Барнаул","'mon': 09:00-18:00, 'tue': 09:00-17:00, 'wed': выходной, 'thu': 09:00-18:00, 'fri': 09:00-18:00, 'sat': выходной, 'sun': выходной",53.365434,83.758926,"4,7",90.0,89.0,93.0,98.0,100.0,,,100.0,2024-06-23 16:41:14
161858338306,Альфа-Банк,Балаково,"Трнавская ул., 23, Балаково","'mon': 10:00-19:00, 'tue': 10:00-19:00, 'wed': 10:00-19:00, 'thu': 10:00-19:00, 'fri': 10:00-19:00, 'sat': выходной, 'sun': выходной",52.02397,47.828068,"4,9",91.0,89.0,91.0,92.0,90.0,,100.0,,2024-06-23 20:00:09
219429658860,Альфа-Банк,Узловая,"ул. Трегубова, 40, Узловая","'mon': 10:00-19:00, 'tue': 10:00-19:00, 'wed': 10:00-19:00, 'thu': 10:00-19:00, 'fri': 10:00-19:00, 'sat': выходной, 'sun': выходной",53.977032,38.15949,"4,5",96.0,96.0,95.0,,,,,,2024-06-24 03:14:35
84075129479,Альфа-Банк,Грязи,"ул. Революции 1905 года, 12/26, Грязи","'mon': 10:00-19:00, 'tue': 10:00-19:00, 'wed': 10:00-19:00, 'thu': 10:00-19:00, 'fri': 10:00-19:00, 'sat': выходной, 'sun': выходной",52.492666,39.947623,"4,4",,,,,,,,,2024-06-24 03:45:11
54594982075,Альфа-Банк,Лениногорск,"просп. 50 лет Победы, 11А, Лениногорск","'mon': 09:00-18:00, 'tue': 09:00-18:00, 'wed': 09:00-18:00, 'thu': 09:00-18:00, 'fri': 09:00-18:00, 'sat': выходной, 'sun': выходной",54.602596,52.455136,"4,0",,,,,,,,,2024-06-24 01:35:22
73210611790,Альфа-Банк,Отрадный,"Отрадная ул., 19, Отрадный","'mon': 09:00-18:00, 'tue': 09:00-18:00, 'wed': 09:00-18:00, 'thu': 09:00-18:00, 'fri': 09:00-18:00, 'sat': выходной, 'sun': выходной",53.378102,51.345653,"4,4",100.0,,,100.0,,,,,2024-06-24 06:03:22
243597884679,Альфа-Банк,Видное,"Школьная ул., 23, Видное","'mon': 10:00-19:00, 'tue': 10:00-19:00, 'wed': 10:00-19:00, 'thu': 10:00-19:00, 'fri': 10:00-19:00, 'sat': выходной, 'sun': выходной",55.556467,37.708086,"5,0",82.0,82.0,84.0,79.0,74.0,78.0,94.0,,2024-06-24 01:12:28
42584495618,Альфа-Банк,Таганрог,"ул. Дзержинского, 1, Таганрог","'mon': 09:00-20:00, 'tue': 09:00-20:00, 'wed': 09:00-20:00, 'thu': 09:00-20:00, 'fri': 09:00-20:00, 'sat': 10:00-18:00, 'sun': выходной",47.221815,38.916078,"4,2",43.0,41.0,47.0,26.0,36.0,,,,2024-06-23 19:13:30
36177987543,Альфа-Банк,Тула,"просп. Ленина, 54А, Тула","'mon': 10:00-19:00, 'tue': 10:00-19:00, 'wed': 10:00-19:00, 'thu': 10:00-19:00, 'fri': 10:00-19:00, 'sat': выходной, 'sun': выходной",54.182206,37.604853,"4,4",70.0,68.0,73.0,71.0,63.0,79.0,100.0,80.0,2024-06-23 17:46:59
151783333708,Альфа-Банк,Тула,"Советская ул., 10, Тула","'mon': 09:00-20:00, 'tue': 09:00-20:00, 'wed': 09:00-20:00, 'thu': 09:00-20:00, 'fri': 09:00-20:00, 'sat': 10:00-18:00, 'sun': выходной",54.194803,37.611472,"4,3",62.0,56.0,62.0,60.0,51.0,92.0,100.0,,2024-06-23 17:46:59
208044410346,Альфа-Банк,Тула,"Красноармейский просп., 27, Тула","'mon': 10:00-19:00, 'tue': 10:00-19:00, 'wed': 10:00-19:00, 'thu': 10:00-19:00, 'fri': 10:00-19:00, 'sat': выходной, 'sun': выходной",54.198042,37.586545,"4,4",75.0,74.0,77.0,68.0,73.0,80.0,75.0,92.0,2024-06-23 17:46:59
101413074310,Альфа-Банк,Нижний Тагил,"просп. Ленина, 69, Нижний Тагил","'mon': 09:00-20:00, 'tue': 09:00-20:00, 'wed': 09:00-20:00, 'thu': 09:00-20:00, 'fri': 09:00-20:00, 'sat': 10:00-18:00, 'sun': выходной",57.909551,59.980943,"4,4",80.0,78.0,79.0,75.0,76.0,82.0,92.0,90.0,2024-06-23 18:14:16
1182714484,Альфа-Банк,Нижний Тагил,"просп. Вагоностроителей, 13, Нижний Тагил","'mon': 10:00-19:00, 'tue': 10:00-19:00, 'wed': 10:00-19:00, 'thu': 10:00-19:00, 'fri': 10:00-19:00, 'sat': выходной, 'sun': выходной",57.920504,60.110723,"4,5",91.0,87.0,90.0,89.0,89.0,80.0,,,2024-06-23 18:14:16
118100582320,Альфа-Банк,Сестрорецк,"Приморское ш., 268, Сестрорецк","'mon': 08:00-23:00, 'tue': 08:00-23:00, 'wed': 08:00-23:00, 'thu': 08:00-23:00, 'fri': 08:00-23:00, 'sat': 08:00-23:00, 'sun': 08:00-23:00",60.083508,29.95444,,,,,,,,,,2024-06-24 04:26:28
10801104854,Альфа-Банк,Анжеро-Судженск,"ул. Ленина, 22, Анжеро-Судженск","'mon': 09:00-18:00, 'tue': 09:00-18:00, 'wed': 09:00-18:00, 'thu': 09:00-18:00, 'fri': 09:00-18:00, 'sat': выходной, 'sun': выходной",56.07888,86.018961,"4,4",80.0,78.0,82.0,,,,,,2024-06-24 00:44:00
128146793716,Альфа-Банк,Жигулёвск,"Московское ш., 18, Жигулёвск","'mon': 10:00-21:00, 'tue': 10:00-21:00, 'wed': 10:00-21:00, 'thu': 10:00-21:00, 'fri': 10:00-21:00, 'sat': 10:00-21:00, 'sun': 10:00-21:00",53.406594,49.474274,,,,,,,,,,2024-06-24 06:59:39
123281879999,Альфа-Банк,Волгодонск,"просп. Строителей, 21, Волгодонск","'mon': 09:00-18:00, 'tue': 09:00-18:00, 'wed': 09:00-18:00, 'thu': 09:00-18:00, 'fri': 09:00-18:00, 'sat': выходной, 'sun': выходной",47.517634,42.198298,"4,1",61.0,58.0,56.0,43.0,50.0,,,,2024-06-23 20:17:40
74784220222,Альфа-Банк,Липецк,"ул. Барашева, 7А, Липецк","'mon': 09:00-20:00, 'tue': 09:00-19:00, 'wed': выходной, 'thu': 09:00-20:00, 'fri': 09:00-20:00, 'sat': 10:00-18:00, 'sun': выходной",52.602854,39.587479,"4,8",88.0,86.0,88.0,83.0,96.0,70.0,94.0,100.0,2024-06-23 17:33:17
1248735251,Альфа-Банк,Липецк,"ул. Космонавтов, 16/1, Липецк","'mon': 09:00-20:00, 'tue': 09:00-20:00, 'wed': 09:00-20:00, 'thu': 09:00-20:00, 'fri': 09:00-20:00, 'sat': 10:00-18:00, 'sun': выходной",52.617236,39.575333,"4,4",74.0,73.0,82.0,71.0,68.0,,87.0,,2024-06-23 17:33:17
177896371080,Альфа-Банк,Липецк,"просп. Победы, 20, Липецк","'mon': 09:00-20:00, 'tue': 09:00-20:00, 'wed': 09:00-20:00, 'thu': 09:00-20:00, 'fri': 09:00-20:00, 'sat': 10:00-18:00, 'sun': выходной",52.596405,39.565245,"4,6",75.0,74.0,80.0,69.0,65.0,87.0,94.0,,2024-06-23 17:33:17
195135099009,Альфа-Банк,Липецк,"ул. имени Генерала Меркулова, 10А, Липецк","'mon': 09:00-20:00, 'tue': 09:00-20:00, 'wed': 09:00-20:00, 'thu': 09:00-20:00, 'fri': 09:00-20:00, 'sat': 10:00-18:00, 'sun': выходной",52.590491,39.54232,"4,5",77.0,73.0,77.0,73.0,67.0,,100.0,,2024-06-23 17:33:17
27680423777,Альфа-Банк,Елизово,"ул. Завойко, 7, Елизово","'mon': 10:00-18:00, 'tue': 10:00-18:00, 'wed': 10:00-18:00, 'thu': 10:00-18:00, 'fri': 10:00-18:00, 'sat': выходной, 'sun': выходной",53.18702,158.38389,"4,8",100.0,100.0,100.0,,,,,,2024-06-24 04:42:24
205403345303,Альфа-Банк,Уфа,"ул. Менделеева, 130, Уфа","'mon': выходной, 'tue': 09:00-18:00, 'wed': 09:00-18:00, 'thu': 09:00-18:00, 'fri': 09:00-18:00, 'sat': выходной, 'sun': выходной",54.714382,56.00144,"4,5",84.0,85.0,89.0,80.0,78.0,,100.0,,2024-06-23 16:06:52
1009613475,Альфа-Банк,Уфа,"просп. Октября, 6, Уфа","'mon': 09:00-20:00, 'tue': 09:00-20:00, 'wed': 09:00-20:00, 'thu': 09:00-20:00, 'fri': 09:00-20:00, 'sat': 10:00-18:00, 'sun': выходной",54.742678,55.989135,"4,3",70.0,66.0,72.0,68.0,67.0,43.0,100.0,80.0,2024-06-23 16:06:52
96414574271,Альфа-Банк,Уфа,"ул. Ленина, 32/1, Уфа","'mon': 09:00-20:00, 'tue': 09:00-20:00, 'wed': 09:00-20:00, 'thu': 09:00-20:00, 'fri': 09:00-20:00, 'sat': 10:00-18:00, 'sun': выходной",54.727567,55.949017,"4,3",68.0,63.0,69.0,68.0,67.0,75.0,88.0,60.0,2024-06-23 16:06:52
202783716281,Альфа-Банк,Уфа,"ул. Маршала Жукова, 29, Уфа","'mon': выходной, 'tue': 10:00-19:00, 'wed': 10:00-19:00, 'thu': 10:00-19:00, 'fri': 10:00-19:00, 'sat': выходной, 'sun': выходной",54.771746,56.058745,"4,7",87.0,86.0,86.0,86.0,84.0,73.0,90.0,,2024-06-23 16:06:52
103246309828,Альфа-Банк,Уфа,"просп. Октября, 107А, Уфа","'mon': выходной, 'tue': 10:00-19:00, 'wed': 10:00-19:00, 'thu': 10:00-19:00, 'fri': 10:00-19:00, 'sat': выходной, 'sun': выходной",54.782744,56.03176,"4,7",82.0,83.0,87.0,89.0,89.0,,100.0,,2024-06-23 16:06:52
144021261595,Альфа-Банк,Уфа,"Первомайская ул., 24, Уфа","'mon': выходной, 'tue': 09:00-20:00, 'wed': 09:00-20:00, 'thu': 09:00-20:00, 'fri': 09:00-20:00, 'sat': 10:00-18:00, 'sun': выходной",54.817407,56.0739,"4,4",82.0,80.0,84.0,75.0,88.0,,92.0,,2024-06-23 16:06:52
162202969190,Альфа-Банк,Полевской,"4А, микрорайон Зелёный Бор-1, Полевской","'mon': 10:00-19:00, 'tue': 10:00-19:00, 'wed': 10:00-19:00, 'thu': 10:00-19:00, 'fri': 10:00-19:00, 'sat': выходной, 'sun': выходной",56.505247,60.264164,"4,5",84.0,85.0,89.0,83.0,92.0,,,,2024-06-24 01:43:18
78650178492,Альфа-Банк,Дивногорск,"ул. 30 лет Победы, 16, Дивногорск","'mon': 00:00-23:59, 'tue': 00:00-23:59, 'wed': 00:00-23:59, 'thu': 00:00-23:59, 'fri': 00:00-23:59, 'sat': 00:00-23:59, 'sun': 00:00-23:59",55.956758,92.369089,,,,,,,,,,2024-06-24 11:22:12
207467182301,Альфа-Банк,Валуйки,"ул. Максима Горького, 2, Валуйки","'mon': 09:00-18:00, 'tue': 09:00-18:00, 'wed': 09:00-18:00, 'thu': 09:00-18:00, 'fri': 09:00-18:00, 'sat': выходной, 'sun': выходной",50.211731,38.098531,"4,4",80.0,83.0,83.0,,,,,,2024-06-24 05:41:34
96325011638,Альфа-Банк,Мирный,"Ленинградский просп., 25, Мирный","'mon': 10:00-18:00, 'tue': 10:00-18:00, 'wed': 10:00-18:00, 'thu': 10:00-17:00, 'fri': выходной, 'sat': выходной, 'sun': выходной",62.54020,113.97752,"4,6",92.0,91.0,,,,,,,2024-06-24 05:27:28
43755178039,Альфа-Банк,Боровичи,"ул. Подбельского, 36, Боровичи","'mon': 09:00-18:00, 'tue': 09:00-18:00, 'wed': 09:00-18:00, 'thu': 09:00-18:00, 'fri': 09:00-18:00, 'sat': выходной, 'sun': выходной",58.393342,33.917789,"4,5",87.0,100.0,100.0,,,,,,2024-06-24 03:21:04
45425958743,Альфа-Банк,Можайск,"ул. Мира, 11/1, Можайск","'mon': 10:00-19:00, 'tue': 10:00-19:00, 'wed': 10:00-19:00, 'thu': 10:00-19:00, 'fri': 10:00-19:00, 'sat': выходной, 'sun': выходной",55.504884,36.032046,"4,4",69.0,72.0,79.0,63.0,,,,,2024-06-24 06:15:26
59219103982,Альфа-Банк,Заволжье ,"Колхозная ул., 1, Городец","'mon': 09:00-18:00, 'tue': 09:00-18:00, 'wed': 09:00-18:00, 'thu': 09:00-18:00, 'fri': 09:00-18:00, 'sat': выходной, 'sun': выходной",56.645366,43.471983,"4,4",86.0,83.0,90.0,,,,,,2024-06-24 06:34:53
34376605990,Альфа-Банк,Ржев,"ул. Ленина, 7, Ржев","'mon': 10:00-19:00, 'tue': 10:00-19:00, 'wed': 10:00-19:00, 'thu': 10:00-19:00, 'fri': 10:00-19:00, 'sat': выходной, 'sun': выходной",56.265052,34.328759,"4,3",75.0,73.0,74.0,82.0,,,,,2024-06-24 02:07:53
183559953327,Альфа-Банк,Архангельск,"Воскресенская ул., 6, Архангельск","'mon': 10:00-19:00, 'tue': 10:00-19:00, 'wed': 10:00-19:00, 'thu': 10:00-19:00, 'fri': 10:00-19:00, 'sat': выходной, 'sun': выходной",64.539203,40.521799,"5,0",91.0,90.0,95.0,88.0,89.0,100.0,100.0,,2024-06-23 18:40:50
52229468615,Альфа-Банк,Архангельск,"Воскресенская ул., 108, Архангельск","'mon': 09:00-18:00, 'tue': 09:00-18:00, 'wed': 09:00-18:00, 'thu': 09:00-18:00, 'fri': 09:00-18:00, 'sat': 10:00-17:00, 'sun': выходной",64.546832,40.556971,"4,6",85.0,83.0,88.0,86.0,74.0,62.0,,,2024-06-23 18:40:50
67414350087,Альфа-Банк,Кирово-Чепецк,"просп. Мира, 74, Кирово-Чепецк","'mon': 09:00-18:00, 'tue': 09:00-18:00, 'wed': 09:00-18:00, 'thu': 09:00-18:00, 'fri': 09:00-18:00, 'sat': выходной, 'sun': выходной",58.547876,50.055071,"4,3",100.0,100.0,100.0,,,,,,2024-06-24 01:01:58
1016669445,Альфа-Банк,Юрга,"Московская ул., 37, Юрга","'mon': 09:00-18:00, 'tue': 09:00-18:00, 'wed': 09:00-18:00, 'thu': 09:00-18:00, 'fri': 09:00-18:00, 'sat': выходной, 'sun': выходной",55.715272,84.922505,"4,7",93.0,91.0,96.0,95.0,87.0,,,,2024-06-23 23:48:49
1178226406,Альфа-Банк,Балашиха,"ш. Энтузиастов, 7/1, Балашиха","'mon': 10:00-20:00, 'tue': 10:00-20:00, 'wed': 10:00-20:00, 'thu': 10:00-20:00, 'fri': 10:00-20:00, 'sat': 10:00-18:00, 'sun': выходной",55.795469,37.933977,"4,3",61.0,58.0,65.0,50.0,39.0,55.0,65.0,58.0,2024-06-23 17:21:47
224344887474,Альфа-Банк,Балашиха,"Пролетарская ул., 2, корп. 2, микрорайон Железнодорожный, Балашиха","'mon': 10:00-19:00, 'tue': 10:00-19:00, 'wed': 10:00-19:00, 'thu': 10:00-19:00, 'fri': 10:00-19:00, 'sat': выходной, 'sun': выходной",55.750282,38.006831,"4,8",85.0,87.0,90.0,84.0,77.0,80.0,92.0,100.0,2024-06-23 17:21:47
38187592406,Альфа-Банк,Якутск,"просп. Ленина, 24, Якутск","'mon': 10:00-19:00, 'tue': 10:00-19:00, 'wed': 10:00-19:00, 'thu': 10:00-18:00, 'fri': выходной, 'sat': 10:00-18:00, 'sun': выходной",62.02930,129.73423,"4,4",84.0,82.0,83.0,,,,,,2024-06-23 18:07:45
226635251128,Альфа-Банк,Шатура,"просп. Ильича, 42, Шатура","'mon': 10:00-19:00, 'tue': 10:00-19:00, 'wed': 10:00-19:00, 'thu': 10:00-19:00, 'fri': 10:00-19:00, 'sat': выходной, 'sun': выходной",55.575505,39.529637,"4,3",80.0,73.0,88.0,70.0,,,,,2024-06-24 06:01:25
65339816136,Альфа-Банк,Черепаново,"Пролетарская ул., 97А/1, Черепаново","'mon': 08:00-22:00, 'tue': 08:00-22:00, 'wed': 08:00-22:00, 'thu': 08:00-22:00, 'fri': 08:00-22:00, 'sat': 08:00-22:00, 'sun': 08:00-22:00",54.222943,83.374088,,,,,,,,,,2024-06-24 17:50:51
74979444632,Альфа-Банк,Искитим,"ул. Пушкина, 40А, Искитим","'mon': 10:00-19:00, 'tue': 10:00-19:00, 'wed': 10:00-19:00, 'thu': 10:00-19:00, 'fri': 10:00-19:00, 'sat': выходной, 'sun': выходной",54.639419,83.303947,"4,6",92.0,92.0,92.0,,,,,,2024-06-24 02:28:23
100672076307,Альфа-Банк,Усинск,"ул. Нефтяников, 50, Усинск","'mon': 10:00-19:00, 'tue': 10:00-19:00, 'wed': 10:00-19:00, 'thu': 10:00-19:00, 'fri': 10:00-19:00, 'sat': выходной, 'sun': выходной",65.993453,57.560495,"4,3",,,,,,,,,2024-06-24 04:56:22
167662490764,Альфа-Банк,Наро-Фоминск,"площадь Свободы, 2, Наро-Фоминск","'mon': 10:00-19:00, 'tue': 10:00-19:00, 'wed': 10:00-19:00, 'thu': 10:00-19:00, 'fri': 10:00-19:00, 'sat': выходной, 'sun': выходной",55.386896,36.733423,"4,2",57.0,64.0,71.0,37.0,,,,,2024-06-24 01:41:16
1232920239,Альфа-Банк,Омск,"ул. 70 лет Октября, 13/3, Омск","'mon': 09:00-20:00, 'tue': 09:00-20:00, 'wed': 09:00-20:00, 'thu': 09:00-20:00, 'fri': 09:00-20:00, 'sat': 10:00-18:00, 'sun': выходной",54.982975,73.3174,"4,4",70.0,64.0,69.0,57.0,78.0,85.0,100.0,,2024-06-23 16:14:41
135702008778,Альфа-Банк,Омск,"просп. Мира, 54, Омск","'mon': 09:00-20:00, 'tue': 09:00-20:00, 'wed': 09:00-20:00, 'thu': 09:00-20:00, 'fri': 09:00-20:00, 'sat': 10:00-18:00, 'sun': выходной",55.029456,73.2806,"4,4",77.0,72.0,79.0,65.0,75.0,,,,2024-06-23 16:14:41
1139237534,Альфа-Банк,Омск,"просп. Карла Маркса, 10, Омск","'mon': 09:00-20:00, 'tue': 09:00-20:00, 'wed': 09:00-20:00, 'thu': 09:00-20:00, 'fri': 09:00-20:00, 'sat': 10:00-18:00, 'sun': выходной",54.973817,73.381659,"4,4",87.0,84.0,88.0,77.0,91.0,100.0,100.0,,2024-06-23 16:14:41
195335506618,Альфа-Банк,Омск,"ул. Маршала Жукова, 25, Омск","'mon': 09:00-20:00, 'tue': 09:00-20:00, 'wed': 09:00-20:00, 'thu': 09:00-20:00, 'fri': 09:00-20:00, 'sat': 10:00-18:00, 'sun': выходной",54.984837,73.387346,"4,4",81.0,78.0,82.0,83.0,78.0,100.0,87.0,,2024-06-23 16:14:41
171003202283,Альфа-Банк,Омск,"ул. Богдана Хмельницкого, 162, Омск","'mon': 09:00-20:00, 'tue': 09:00-20:00, 'wed': 09:00-20:00, 'thu': 09:00-20:00, 'fri': 09:00-20:00, 'sat': 10:00-18:00, 'sun': выходной",54.971833,73.411654,"4,4",87.0,84.0,88.0,79.0,96.0,57.0,89.0,,2024-06-23 16:14:41
228135213726,Альфа-Банк,Омск,"ул. Красный Путь, 61, Омск","'mon': 10:00-19:00, 'tue': 10:00-19:00, 'wed': 10:00-19:00, 'thu': 10:00-19:00, 'fri': 10:00-19:00, 'sat': выходной, 'sun': выходной",54.996097,73.356911,"4,4",76.0,71.0,79.0,71.0,71.0,,,,2024-06-23 16:14:41
233116781352,Альфа-Банк,Лянтор,"ул. Назаргалеева, 6, Лянтор","'mon': 08:30-22:00, 'tue': 08:30-22:00, 'wed': 08:30-22:00, 'thu': 08:30-22:00, 'fri': 08:30-22:00, 'sat': 08:30-22:00, 'sun': 08:30-22:00",61.624652,72.163868,,,,,,,,,,2024-06-24 15:02:00
89484726721,Альфа-Банк,Сарапул,"ул. Горького, 15А, Центральный жилой район, Сарапул","'mon': 09:00-18:00, 'tue': 09:00-18:00, 'wed': 09:00-18:00, 'thu': 09:00-18:00, 'fri': 09:00-18:00, 'sat': выходной, 'sun': выходной",56.475519,53.815221,"4,2",100.0,100.0,100.0,,,,,,2024-06-23 22:51:13
48204584871,Альфа-Банк,Краснотурьинск,"ул. Ленина, 37, Краснотурьинск","'mon': 10:00-19:00, 'tue': 10:00-19:00, 'wed': 10:00-19:00, 'thu': 10:00-19:00, 'fri': 10:00-19:00, 'sat': выходной, 'sun': выходной",59.764073,60.199521,"4,4",85.0,82.0,82.0,,,,,,2024-06-24 14:22:53
1140909772,Альфа-Банк,Комсомольск-На-Амуре,"просп. Ленина, 13, Комсомольск-на-Амуре","'mon': 10:00-19:00, 'tue': 10:00-19:00, 'wed': 10:00-19:00, 'thu': 10:00-19:00, 'fri': 10:00-19:00, 'sat': выходной, 'sun': выходной",50.55284,137.01357,"4,4",85.0,86.0,88.0,74.0,74.0,73.0,,90.0,2024-06-23 19:19:35
154045127144,Альфа-Банк,Шадринск,"Февральская ул., 54, Шадринск","'mon': 10:00-19:00, 'tue': 10:00-19:00, 'wed': 10:00-19:00, 'thu': 10:00-19:00, 'fri': 10:00-19:00, 'sat': выходной, 'sun': выходной",56.084873,63.628597,"4,3",,,,,,,,,2024-06-24 00:15:51
1795225222,Альфа-Банк,Лыткарино,"Парковая ул., с2, Лыткарино","'mon': 10:00-22:00, 'tue': 10:00-22:00, 'wed': 10:00-22:00, 'thu': 10:00-22:00, 'fri': 10:00-22:00, 'sat': 10:00-22:00, 'sun': 10:00-22:00",55.582014,37.912228,,,,,,,,,,2024-06-24 14:58:00
120099580390,Альфа-Банк,Кузнецк,"ул. Белинского, 127/1, Кузнецк","'mon': 09:00-18:00, 'tue': 09:00-18:00, 'wed': 09:00-18:00, 'thu': 09:00-18:00, 'fri': 09:00-18:00, 'sat': выходной, 'sun': выходной",53.1184,46.589568,"4,6",87.0,92.0,92.0,,,,,,2024-06-23 23:39:58
69189973550,Альфа-Банк,Белгород,"ул. Щорса, 8, Белгород","'mon': 09:00-20:00, 'tue': 09:00-20:00, 'wed': 09:00-20:00, 'thu': 09:00-20:00, 'fri': 09:00-20:00, 'sat': 10:00-18:00, 'sun': выходной",50.582702,36.566633,"4,5",77.0,76.0,80.0,79.0,87.0,,,,2024-06-23 18:11:48
17453555868,Альфа-Банк,Белгород,"просп. Ватутина, 9Б, Белгород","'mon': 09:00-18:00, 'tue': 09:00-18:00, 'wed': 09:00-18:00, 'thu': 09:00-18:00, 'fri': 09:00-18:00, 'sat': выходной, 'sun': выходной",50.574253,36.584196,"4,4",65.0,66.0,67.0,54.0,81.0,64.0,,,2024-06-23 18:11:48
185184650074,Альфа-Банк,Коломна,"площадь Восстания, 7, Коломна","'mon': 10:00-19:00, 'tue': 10:00-19:00, 'wed': 10:00-19:00, 'thu': 10:00-19:00, 'fri': 10:00-19:00, 'sat': выходной, 'sun': выходной",55.084132,38.804947,"4,0",54.0,57.0,59.0,46.0,,,,,2024-06-23 21:11:39
172876765173,Альфа-Банк,Минеральные Воды,"просп. 22-го Партсъезда, 94/1, Минеральные Воды","'mon': 10:00-19:00, 'tue': 10:00-19:00, 'wed': 10:00-19:00, 'thu': 10:00-19:00, 'fri': 10:00-19:00, 'sat': выходной, 'sun': выходной",44.195849,43.132034,"4,4",81.0,82.0,83.0,67.0,,,,,2024-06-24 00:20:36
60602772912,Альфа-Банк,Ефремов,"ул. Свердлова, 55, Ефремов","'mon': 10:00-19:00, 'tue': 10:00-19:00, 'wed': 10:00-19:00, 'thu': 10:00-19:00, 'fri': 10:00-19:00, 'sat': выходной, 'sun': выходной",53.146094,38.113946,"4,3",77.0,67.0,75.0,55.0,,,,,2024-06-24 05:31:37
196720251535,Альфа-Банк,Заречный,"ул. Ленина, 20А, Заречный","'mon': 10:00-19:00, 'tue': 10:00-19:00, 'wed': 10:00-19:00, 'thu': 10:00-19:00, 'fri': 10:00-19:00, 'sat': выходной, 'sun': выходной",53.192841,45.165819,"4,7",100.0,100.0,100.0,,,,,,2024-06-24 02:13:56
35729403161,Альфа-Банк,Урай,"88, 2-й микрорайон, Урай","'mon': 10:00-19:00, 'tue': 10:00-19:00, 'wed': 10:00-19:00, 'thu': 10:00-19:00, 'fri': 10:00-19:00, 'sat': выходной, 'sun': выходной",60.130327,64.80247,"4,4",,,,,,,,,2024-06-24 17:27:39
111094848821,Альфа-Банк,Златоуст,"14А, 3-й микрорайон проспекта имени Ю.А. Гагарина, Златоуст","'mon': 09:00-20:00, 'tue': 09:00-20:00, 'wed': 09:00-20:00, 'thu': 09:00-20:00, 'fri': 09:00-20:00, 'sat': 10:00-18:00, 'sun': выходной",55.142864,59.667403,"4,7",88.0,89.0,90.0,83.0,85.0,,,,2024-06-23 20:32:53
232252556470,Альфа-Банк,Кандалакша,"Первомайская ул., 44, Кандалакша","'mon': 11:00-19:00, 'tue': 11:00-19:00, 'wed': 11:00-19:00, 'thu': 11:00-19:00, 'fri': 11:00-19:00, 'sat': выходной, 'sun': выходной",67.152649,32.417782,"4,7",100.0,100.0,100.0,,,,,,2024-06-24 13:44:39
48111066686,Альфа-Банк,Печора,"ул. Гагарина, 41, Печора","'mon': 10:00-19:00, 'tue': 10:00-19:00, 'wed': 10:00-19:00, 'thu': 10:00-19:00, 'fri': 10:00-19:00, 'sat': выходной, 'sun': выходной",65.122876,57.157987,"4,7",,,,,,,,,2024-06-24 15:51:23
221711167733,Альфа-Банк,Лабинск,"ул. Халтурина, 18, Лабинск","'mon': 09:00-18:00, 'tue': 09:00-18:00, 'wed': 09:00-18:00, 'thu': 09:00-18:00, 'fri': 09:00-18:00, 'sat': выходной, 'sun': выходной",44.634464,40.733721,"4,7",80.0,80.0,85.0,,,,,,2024-06-24 14:41:25
151199915612,Альфа-Банк,Майкоп ,"Советская ул., 199, Майкоп","'mon': 09:00-18:00, 'tue': 09:00-18:00, 'wed': 09:00-18:00, 'thu': 09:00-18:00, 'fri': 09:00-18:00, 'sat': выходной, 'sun': выходной",44.605394,40.106804,"4,4",71.0,68.0,71.0,,,,,,2024-06-24 06:47:44
50544743019,Альфа-Банк,Курган,"ул. Гоголя, 17/1, Курган","'mon': 09:00-18:00, 'tue': 09:00-18:00, 'wed': 09:00-18:00, 'thu': 09:00-18:00, 'fri': 09:00-18:00, 'sat': выходной, 'sun': выходной",55.435948,65.332117,"4,8",94.0,92.0,95.0,91.0,96.0,,83.0,,2024-06-23 18:34:38
1129043502,Альфа-Банк,Курган,"ул. Гоголя, 39Б, Курган","'mon': 10:00-19:00, 'tue': 10:00-19:00, 'wed': 10:00-19:00, 'thu': 10:00-19:00, 'fri': 10:00-19:00, 'sat': выходной, 'sun': выходной",55.438997,65.338297,"4,4",82.0,81.0,85.0,78.0,77.0,,,,2024-06-23 18:34:38
119085340677,Альфа-Банк,Ивантеевка,"Советский просп., 2Б, Ивантеевка","'mon': 10:00-22:00, 'tue': 10:00-22:00, 'wed': 10:00-22:00, 'thu': 10:00-22:00, 'fri': 10:00-22:00, 'sat': 10:00-22:00, 'sun': 10:00-22:00",55.975254,37.906902,,,,,,,,,,2024-06-24 00:08:44
218780154555,Альфа-Банк,Верещагино,"ул. Карла Маркса, 17, Верещагино","'mon': 00:00-23:59, 'tue': 00:00-23:59, 'wed': 00:00-23:59, 'thu': 00:00-23:59, 'fri': 00:00-23:59, 'sat': 00:00-23:59, 'sun': 00:00-23:59",58.076649,54.655451,,,,,,,,,,2024-06-24 10:38:02
194237430912,Альфа-Банк,Одинцово,"Советская ул., 9, Одинцово","'mon': 10:00-21:00, 'tue': 10:00-21:00, 'wed': 10:00-21:00, 'thu': 10:00-21:00, 'fri': 10:00-21:00, 'sat': 10:00-21:00, 'sun': 10:00-21:00",55.673269,37.277458,,,,,,,,,,2024-06-23 20:04:01
228217375112,Альфа-Банк,Одинцово,"Можайское ш., 76А, Одинцово","'mon': 00:00-23:59, 'tue': 00:00-23:59, 'wed': 00:00-23:59, 'thu': 00:00-23:59, 'fri': 00:00-23:59, 'sat': 00:00-23:59, 'sun': 00:00-23:59",55.682729,37.294817,,,,,,,,,,2024-06-23 20:04:01
1219245073,Альфа-Банк,Одинцово,"ул. Чистяковой, 1, Одинцово","'mon': 09:00-22:00, 'tue': 09:00-22:00, 'wed': 09:00-22:00, 'thu': 09:00-22:00, 'fri': 09:00-22:00, 'sat': 09:00-22:00, 'sun': 09:00-22:00",55.695115,37.333163,,,,,,,,,,2024-06-23 20:04:01
22657027713,Альфа-Банк,Орск,"просп. Ленина, 78, микрорайон Новый город, Орск","'mon': 09:00-19:00, 'tue': 09:00-19:00, 'wed': 09:00-19:00, 'thu': 09:00-19:00, 'fri': 09:00-19:00, 'sat': 10:00-16:00, 'sun': выходной",51.244137,58.466787,"4,4",79.0,80.0,84.0,75.0,70.0,,,,2024-06-23 19:49:45
148676659543,Альфа-Банк,Кстово,"ул. 40 лет Октября, 4, Кстово","'mon': 10:00-19:00, 'tue': 10:00-19:00, 'wed': 10:00-19:00, 'thu': 10:00-19:00, 'fri': 10:00-19:00, 'sat': выходной, 'sun': выходной",56.150881,44.204532,"4,4",85.0,84.0,83.0,79.0,,,,,2024-06-24 00:56:05
175326207781,Альфа-Банк,Тихвин,"ул. Карла Маркса, 50, Тихвин","'mon': 10:00-19:00, 'tue': 10:00-19:00, 'wed': 10:00-19:00, 'thu': 10:00-19:00, 'fri': 10:00-19:00, 'sat': выходной, 'sun': выходной",59.643118,33.544818,"4,5",,,,,,,,,2024-06-24 02:18:08
107518028325,Альфа-Банк,Волжский,"ул. Мира, 74А, Волжский","'mon': 09:00-20:00, 'tue': 09:00-20:00, 'wed': 09:00-20:00, 'thu': 09:00-20:00, 'fri': 09:00-20:00, 'sat': 10:00-18:00, 'sun': выходной",48.767472,44.807823,"4,4",73.0,71.0,77.0,64.0,78.0,50.0,,86.0,2024-06-23 18:22:44
83221995187,Альфа-Банк,Новомосковск,"ул. Трудовые Резервы, 34, Новомосковск","'mon': 10:00-19:00, 'tue': 10:00-18:00, 'wed': выходной, 'thu': 10:00-19:00, 'fri': 10:00-19:00, 'sat': выходной, 'sun': выходной",54.011353,38.287778,"4,9",89.0,89.0,91.0,87.0,88.0,,,90.0,2024-06-23 21:41:00
34590533644,Альфа-Банк,Щёкино,"Советская ул., 12Г, Щёкино","'mon': 10:00-19:00, 'tue': 10:00-19:00, 'wed': 10:00-19:00, 'thu': 10:00-19:00, 'fri': 10:00-19:00, 'sat': выходной, 'sun': выходной",54.011549,37.514374,"4,3",89.0,89.0,89.0,,,,,,2024-06-24 07:46:05
103175421141,Альфа-Банк,Спасск-Дальний,"ул. Борисова, 23, Спасск-Дальний","'mon': 10:00-19:00, 'tue': 10:00-19:00, 'wed': 10:00-19:00, 'thu': 10:00-19:00, 'fri': 10:00-19:00, 'sat': выходной, 'sun': выходной",44.59787,132.81646,"4,3",100.0,100.0,,,,,,,2024-06-24 04:22:29
211489545511,Альфа-Банк,Новочеркасск,"Платовский просп., 90/1, Новочеркасск","'mon': 09:00-19:00, 'tue': 09:00-19:00, 'wed': 09:00-19:00, 'thu': 09:00-19:00, 'fri': 09:00-19:00, 'sat': 10:00-16:00, 'sun': выходной",47.410784,40.099968,"4,4",73.0,75.0,76.0,62.0,68.0,,,,2024-06-23 20:26:05
168810608049,Альфа-Банк,Пенза,"Московская ул., 73, Пенза","'mon': 09:00-19:00, 'tue': 09:00-19:00, 'wed': 09:00-19:00, 'thu': 09:00-19:00, 'fri': 09:00-19:00, 'sat': 10:00-18:00, 'sun': выходной",53.194748,45.017642,"4,4",76.0,70.0,76.0,73.0,79.0,50.0,87.0,,2024-06-23 17:28:13
178328508628,Альфа-Банк,Пенза,"ул. Суворова, 139, Пенза","'mon': 10:00-19:00, 'tue': 10:00-19:00, 'wed': 10:00-19:00, 'thu': 10:00-19:00, 'fri': 10:00-19:00, 'sat': 10:00-18:00, 'sun': выходной",53.20147,45.001633,"4,6",82.0,81.0,89.0,81.0,81.0,,85.0,77.0,2024-06-23 17:28:13
207304593332,Альфа-Банк,Екатеринбург,"ул. Вильгельма де Геннина, 31, Екатеринбург","'mon': 10:00-19:00, 'tue': 10:00-19:00, 'wed': 10:00-19:00, 'thu': 10:00-19:00, 'fri': 10:00-19:00, 'sat': выходной, 'sun': выходной",56.792404,60.521351,"4,9",89.0,88.0,93.0,82.0,79.0,90.0,100.0,100.0,2024-06-23 15:43:06
210757813545,Альфа-Банк,Екатеринбург,"Белореченская ул., 12А, Екатеринбург","'mon': 10:00-20:00, 'tue': 10:00-20:00, 'wed': 10:00-20:00, 'thu': 10:00-20:00, 'fri': 10:00-20:00, 'sat': 10:00-18:00, 'sun': выходной",56.821026,60.56792,"4,4",71.0,71.0,76.0,60.0,74.0,60.0,,,2024-06-23 15:43:06
197157133230,Альфа-Банк,Екатеринбург,"ул. 8 Марта, 10, Екатеринбург","'mon': 10:00-20:00, 'tue': 10:00-20:00, 'wed': 10:00-20:00, 'thu': 10:00-20:00, 'fri': 10:00-20:00, 'sat': 10:00-18:00, 'sun': выходной",56.833703,60.599694,"4,2",53.0,48.0,58.0,53.0,54.0,59.0,84.0,75.0,2024-06-23 15:43:06
126057036045,Альфа-Банк,Екатеринбург,"ул. Крауля, 44, Екатеринбург","'mon': 10:00-19:00, 'tue': 10:00-19:00, 'wed': 10:00-19:00, 'thu': 10:00-19:00, 'fri': 10:00-19:00, 'sat': выходной, 'sun': выходной",56.830478,60.56023,"4,4",87.0,85.0,86.0,91.0,94.0,,,100.0,2024-06-23 15:43:06
1046227220,Альфа-Банк,Екатеринбург,"ул. 8 Марта, 194, Екатеринбург","'mon': 10:00-20:00, 'tue': 10:00-20:00, 'wed': 10:00-20:00, 'thu': 10:00-20:00, 'fri': 10:00-20:00, 'sat': 10:00-18:00, 'sun': выходной",56.801445,60.611282,"4,3",75.0,72.0,75.0,63.0,76.0,,89.0,,2024-06-23 15:43:06
75276657208,Альфа-Банк,Екатеринбург,"просп. Ленина, 60, Екатеринбург","'mon': 09:00-20:00, 'tue': 09:00-20:00, 'wed': 09:00-20:00, 'thu': 09:00-20:00, 'fri': 09:00-19:00, 'sat': выходной, 'sun': выходной",56.841679,60.636525,"4,3",73.0,74.0,79.0,67.0,71.0,64.0,,,2024-06-23 15:43:06
4886075019,Альфа-Банк,Екатеринбург,"ул. Горького, 7А, Екатеринбург","'mon': 10:00-19:00, 'tue': 10:00-19:00, 'wed': 10:00-19:00, 'thu': 10:00-19:00, 'fri': 10:00-19:00, 'sat': 10:00-18:00, 'sun': выходной",56.842568,60.605311,"4,3",77.0,76.0,79.0,67.0,79.0,,100.0,,2024-06-23 15:43:06
1226244982,Альфа-Банк,Екатеринбург,"ул. Сони Морозовой, 190, Екатеринбург","'mon': 10:00-19:00, 'tue': 10:00-19:00, 'wed': 10:00-19:00, 'thu': 10:00-19:00, 'fri': 10:00-19:00, 'sat': выходной, 'sun': выходной",56.832359,60.625583,"4,4",79.0,77.0,81.0,74.0,71.0,,,,2024-06-23 15:43:06
1124266124,Альфа-Банк,Екатеринбург,"ул. Кузнецова, 2, Екатеринбург","'mon': 10:00-20:00, 'tue': 10:00-20:00, 'wed': 10:00-20:00, 'thu': 10:00-20:00, 'fri': 10:00-20:00, 'sat': 10:00-18:00, 'sun': выходной",56.888033,60.610393,"4,6",72.0,70.0,77.0,67.0,76.0,,,,2024-06-23 15:43:06
152223420751,Альфа-Банк,Екатеринбург,"Уральская ул., 75, Екатеринбург","'mon': 10:00-19:00, 'tue': 10:00-19:00, 'wed': 10:00-19:00, 'thu': 10:00-19:00, 'fri': 10:00-19:00, 'sat': выходной, 'sun': выходной",56.853848,60.63802,"4,4",63.0,63.0,71.0,56.0,54.0,58.0,88.0,,2024-06-23 15:43:06
1013430452,Альфа-Банк,Екатеринбург,"ул. Машиностроителей, 19, Екатеринбург","'mon': 10:00-19:00, 'tue': 10:00-19:00, 'wed': 10:00-19:00, 'thu': 10:00-19:00, 'fri': 10:00-19:00, 'sat': выходной, 'sun': выходной",56.885275,60.588743,"4,4",78.0,75.0,75.0,67.0,67.0,,93.0,,2024-06-23 15:43:06
157098920814,Альфа-Банк,Осинники,"ул. Ефимова, 9, Осинники","'mon': 09:00-18:00, 'tue': 09:00-18:00, 'wed': 09:00-18:00, 'thu': 09:00-18:00, 'fri': 09:00-18:00, 'sat': выходной, 'sun': выходной",53.59146,87.334347,"4,6",93.0,93.0,93.0,,,,,,2024-06-24 04:00:36
44517997391,Альфа-Банк,Рузаевка,"Привокзальная площадь, 4, Рузаевка","'mon': 09:00-18:00, 'tue': 09:00-18:00, 'wed': 09:00-18:00, 'thu': 09:00-18:00, 'fri': 09:00-18:00, 'sat': выходной, 'sun': выходной",54.057825,44.950098,"4,3",,,,,,,,,2024-06-24 03:35:32
244334932205,Альфа-Банк,Колпино,"Тверская ул., 34, Колпино","'mon': 10:00-19:00, 'tue': 10:00-19:00, 'wed': 10:00-19:00, 'thu': 10:00-19:00, 'fri': 10:00-19:00, 'sat': выходной, 'sun': выходной",59.740987,30.611297,"4,2",60.0,57.0,63.0,56.0,80.0,,,,2024-06-23 21:06:42
233103818317,Альфа-Банк,Малоярославец,"ул. Ленина, 20, Малоярославец","'mon': 10:00-19:00, 'tue': 10:00-19:00, 'wed': 10:00-19:00, 'thu': 10:00-19:00, 'fri': 10:00-19:00, 'sat': выходной, 'sun': выходной",55.010029,36.465411,"4,8",,,,,,,,,2024-06-24 15:08:13
1210626824,Альфа-Банк,Чебоксары,"ул. Карла Маркса, 51, Чебоксары","'mon': 09:00-20:00, 'tue': 09:00-20:00, 'wed': 09:00-20:00, 'thu': 09:00-20:00, 'fri': 09:00-20:00, 'sat': 10:00-18:00, 'sun': выходной",56.133312,47.246875,"4,3",70.0,68.0,75.0,68.0,63.0,55.0,81.0,,2024-06-23 17:30:44
123426664438,Альфа-Банк,Чебоксары,"Ярославская ул., 27, Чебоксары","'mon': 09:00-20:00, 'tue': 09:00-20:00, 'wed': 09:00-19:00, 'thu': выходной, 'fri': 10:00-18:00, 'sat': 10:00-18:00, 'sun': выходной",56.142546,47.254061,"4,4",65.0,60.0,66.0,70.0,56.0,,54.0,,2024-06-23 17:30:44
195295406780,Альфа-Банк,Салехард,"ул. Мира, 2, Салехард","'mon': 10:00-19:00, 'tue': 10:00-19:00, 'wed': 10:00-19:00, 'thu': 10:00-19:00, 'fri': 10:00-19:00, 'sat': выходной, 'sun': выходной",66.530726,66.615379,"4,3",87.0,87.0,93.0,,,,,,2024-06-24 03:25:04
48058903906,Альфа-Банк,Лангепас,"Солнечная ул., 20, Лангепас","'mon': 10:00-18:00, 'tue': 10:00-18:00, 'wed': 10:00-18:00, 'thu': 10:00-18:00, 'fri': 10:00-18:00, 'sat': 00:00-23:59, 'sun': 00:00-23:59",61.25439,75.183159,,,,,,,,,,2024-06-24 14:43:24
113841125389,Альфа-Банк,Орехово-Зуево,"ул. Ленина, 53, Орехово-Зуево","'mon': 10:00-19:00, 'tue': 10:00-19:00, 'wed': 10:00-19:00, 'thu': 10:00-19:00, 'fri': 10:00-19:00, 'sat': выходной, 'sun': выходной",55.799725,38.977801,"4,8",80.0,80.0,81.0,63.0,91.0,,,,2024-06-23 22:12:27
26229324872,Альфа-Банк,Рязань,"ул. Ленина, 9, Рязань","'mon': выходной, 'tue': выходной, 'wed': выходной, 'thu': 09:00-20:00, 'fri': 09:00-20:00, 'sat': 10:00-18:00, 'sun': выходной",54.623045,39.753757,"4,3",73.0,69.0,78.0,69.0,80.0,71.0,89.0,75.0,2024-06-23 17:19:30
93339129519,Альфа-Банк,Рязань,"Первомайский просп., 39/2, Рязань","'mon': 09:00-18:00, 'tue': 09:00-18:00, 'wed': 09:00-18:00, 'thu': 09:00-18:00, 'fri': 09:00-18:00, 'sat': выходной, 'sun': выходной",54.628825,39.715732,"4,3",67.0,59.0,70.0,69.0,53.0,,100.0,,2024-06-23 17:19:30
149231765935,Альфа-Банк,Пугачёв,"ул. Максима Горького, 21/3, Пугачёв","'mon': 09:00-18:00, 'tue': 09:00-18:00, 'wed': 09:00-18:00, 'thu': 09:00-18:00, 'fri': 09:00-18:00, 'sat': выходной, 'sun': выходной",52.008791,48.810222,"4,3",92.0,92.0,91.0,,,,,,2024-06-24 07:11:43
99532788218,Альфа-Банк,Кострома,"Советская ул., 30, Кострома","'mon': 10:00-19:00, 'tue': 10:00-19:00, 'wed': 10:00-19:00, 'thu': 10:00-19:00, 'fri': 10:00-19:00, 'sat': выходной, 'sun': выходной",57.763252,40.941482,"4,7",82.0,81.0,85.0,73.0,92.0,80.0,100.0,,2024-06-23 18:51:39
67985212531,Альфа-Банк,Аксай,"просп. Ленина, 26, Аксай","'mon': 10:00-19:00, 'tue': 10:00-19:00, 'wed': 10:00-19:00, 'thu': 10:00-19:00, 'fri': 10:00-19:00, 'sat': выходной, 'sun': выходной",47.266209,39.860611,"4,3",88.0,87.0,86.0,,,,,,2024-06-24 07:52:44
208219863240,Альфа-Банк,Ангарск,"15, 212-й квартал, Ангарск","'mon': 09:00-20:00, 'tue': 09:00-20:00, 'wed': 09:00-20:00, 'thu': 09:00-20:00, 'fri': 09:00-20:00, 'sat': 10:00-18:00, 'sun': выходной",52.49911,103.83435,"4,6",91.0,90.0,93.0,94.0,77.0,,,,2024-06-24 07:19:08
92574324061,Альфа-Банк,Карасук,"ул. Ленина, 120В, Карасук","'mon': 00:00-23:59, 'tue': 00:00-23:59, 'wed': 00:00-23:59, 'thu': 00:00-23:59, 'fri': 00:00-23:59, 'sat': 00:00-23:59, 'sun': 00:00-23:59",53.738294,78.030549,,,,,,,,,,2024-06-24 13:48:42
129670419776,Альфа-Банк,Михайловка,"ул. Обороны, 44, Михайловка","'mon': 09:00-18:00, 'tue': 09:00-18:00, 'wed': 09:00-18:00, 'thu': 09:00-18:00, 'fri': 09:00-18:00, 'sat': выходной, 'sun': выходной",50.071679,43.234127,"4,4",94.0,93.0,93.0,,,,,,2024-06-24 15:14:10
126336178870,Альфа-Банк,Лесозаводск,"Калининская ул., 11, Лесозаводск","'mon': 10:00-19:00, 'tue': 10:00-19:00, 'wed': 10:00-19:00, 'thu': 10:00-19:00, 'fri': 10:00-19:00, 'sat': выходной, 'sun': выходной",45.46654,133.39462,"4,5",100.0,100.0,100.0,,,,,,2024-06-24 05:25:33
108683066405,Альфа-Банк,Касимов,"Советская ул., 11, Касимов","'mon': 09:00-18:00, 'tue': 09:00-18:00, 'wed': 09:00-18:00, 'thu': 09:00-18:00, 'fri': 09:00-18:00, 'sat': выходной, 'sun': выходной",54.938855,41.393901,"4,5",,,,,,,,,2024-06-24 13:52:43
194526712498,Альфа-Банк,Уссурийск,"ул. Пушкина, 27, Уссурийск","'mon': 09:00-20:00, 'tue': 09:00-20:00, 'wed': 09:00-20:00, 'thu': 09:00-20:00, 'fri': 09:00-20:00, 'sat': 10:00-18:00, 'sun': выходной",43.79942,131.94946,"4,5",85.0,86.0,91.0,80.0,85.0,,,,2024-06-23 20:08:46
