,ID,name,address,website,ypage,lat,lon,rating,phone,social,opening_hours.mon,opening_hours.tue,opening_hours.wed,opening_hours.thu,opening_hours.fri,opening_hours.sat,opening_hours.sun
0,48002977228,Банк ВТБ,"ул. имени 40-летия Победы, 144/4А, Краснодар",vtb.ru,https://yandex.ru/maps/org/bank_vtb/48002977228/?ll=39.018010%2C45.055308&z=16,45.055308,39.018010,"4,2",['8 (800) 100-24-24Показать телефон'],"['https://ok.ru/vtb', 'https://t.me/vtb_main_bot', 'https://vk.com/vtb']",09:00-18:00,09:00-18:00,09:00-18:00,09:00-18:00,09:00-18:00,09:00-16:00,выходной
1,1097029654,Банк ВТБ,"Красная ул., 145/1, Краснодар",vtb.ru,https://yandex.ru/maps/org/bank_vtb/1097029654/?ll=38.977756%2C45.047610&z=16,45.047610,38.977756,"4,0",['8 (800) 100-24-24Показать телефон'],"['https://ok.ru/vtb', 'https://t.me/vtb_main_bot', 'https://vk.com/vtb']",09:00-18:00,09:00-18:00,09:00-18:00,09:00-18:00,09:00-18:00,выходной,выходной
2,93268413117,Банк ВТБ,"ул. Александра Покрышкина, 30, Краснодар",vtb.ru,https://yandex.ru/maps/org/bank_vtb/93268413117/?ll=38.980883%2C45.101834&z=16,45.101834,38.980883,"4,2",['8 (800) 100-24-24Показать телефон'],"['https://ok.ru/vtb', 'https://t.me/vtb_main_bot', 'https://vk.com/vtb']",09:00-19:00,09:00-19:00,09:00-19:00,09:00-19:00,09:00-19:00,09:00-16:00,выходной
3,1231399260,Банк ВТБ,"ул. Гоголя, 68, Центральный внутригородской округ, микрорайон Центральный, Краснодар",vtb.ru,https://yandex.ru/maps/org/bank_vtb/1231399260/?ll=38.972681%2C45.026311&z=16,45.026311,38.972681,"4,3",['8 (800) 100-24-24Показать телефон'],"['https://ok.ru/vtb', 'https://t.me/vtb_main_bot', 'https://vk.com/vtb']",09:00-19:00,09:00-19:00,09:00-19:00,09:00-19:00,09:00-19:00,09:00-16:00,выходной
4,1179011486,Банк ВТБ,"ул. имени Тургенева, 138/3, Фестивальный микрорайон, Краснодар",,https://yandex.ru/maps/org/bank_vtb/1179011486/?ll=38.962260%2C45.058243&z=16,45.058243,38.962260,"4,1",['8 (800) 100-24-24Показать телефон'],"['https://ok.ru/vtb', 'https://t.me/vtb_main_bot', 'https://vk.com/vtb']",09:00-18:00,09:00-18:00,09:00-18:00,09:00-18:00,09:00-18:00,выходной,выходной
5,152943943068,Банк ВТБ,"Северная ул., 324Н, Краснодар",vtb.ru,https://yandex.ru/maps/org/bank_vtb/152943943068/?ll=38.969420%2C45.040795&z=16,45.040795,38.969420,"4,1",['8 (800) 100-24-24Показать телефон'],"['https://ok.ru/vtb', 'https://t.me/vtb_main_bot', 'https://vk.com/vtb']",09:00-18:00,09:00-18:00,09:00-18:00,09:00-18:00,09:00-18:00,выходной,выходной
6,138806887578,Банк ВТБ,"ул. Стасова, 186, Краснодар",vtb.ru,https://yandex.ru/maps/org/bank_vtb/138806887578/?ll=39.044124%2C45.031337&z=16,45.031337,39.044124,"4,1",['8 (800) 100-24-24Показать телефон'],"['https://ok.ru/vtb', 'https://t.me/vtb_main_bot', 'https://vk.com/vtb']",09:00-19:00,09:00-19:00,09:00-19:00,09:00-19:00,09:00-19:00,выходной,выходной
7,54629154843,Банк ВТБ,"ул. имени В.Н. Мачуги, 49/1, Краснодар",vtb.ru,https://yandex.ru/maps/org/bank_vtb/54629154843/?ll=39.074317%2C45.012784&z=16,45.012784,39.074317,"4,0",['8 (800) 200-77-99Показать телефон'],"['https://ok.ru/vtb', 'https://t.me/vtb_main_bot', 'https://vk.com/vtb']",09:00-18:00,09:00-18:00,09:00-18:00,09:00-18:00,09:00-18:00,выходной,выходной
8,20492258447,Банк ВТБ,"Октябрьская ул., 28, Центральный внутригородской округ, микрорайон Центральный, Краснодар",vtb.ru,https://yandex.ru/maps/org/bank_vtb/20492258447/?ll=38.964156%2C45.018054&z=16,45.018054,38.964156,"4,3",['8 (800) 100-24-24Показать телефон'],"['https://ok.ru/vtb', 'https://t.me/vtb_main_bot', 'https://vk.com/vtb']",09:00-18:00,09:00-18:00,09:00-18:00,09:00-18:00,09:00-18:00,выходной,выходной
