,ID,name,address,website,opening_hours,lat,lon,rating,phone,social,Персонал,Время ожидания,Банкомат,Расположение,load_time
0,sberbank/1144406334,СберБанк,"ул. Ленина, 1А, Альметьевск",www.sberbank.com,"'mon': 08:30-18:00, 'tue': 08:30-18:00, 'wed': 08:30-18:00, 'thu': 08:30-18:00, 'fri': 08:30-18:00, 'sat': 08:30-15:00, 'sun': выходной, ",54.902615,52.315268,"4,3",['8 (800) 555-55-50Показать телефон'],['https://vk.com/sberbank'],91,75,,,2024-07-28 18:19:56
1,sberbank/1049058616,СберБанк,"Советская ул., 153А, Альметьевск",www.sberbank.com,"'mon': 08:00-18:00, 'tue': 08:00-18:00, 'wed': 08:00-18:00, 'thu': 08:00-18:00, 'fri': 08:00-18:00, 'sat': 08:30-13:30, 'sun': выходной, ",54.911714,52.323371,"4,6",['8 (800) 555-55-50Показать телефон'],"['http://ok.ru/sberbank', 'https://vk.com/sberbank']",93,75,,,2024-07-28 18:19:56
2,sberbank/47303004126,СберБанк,"ул. Ленина, 16, Альметьевск",www.sberbank.com,"'mon': 08:30-18:00, 'tue': 08:30-18:00, 'wed': 08:30-18:00, 'thu': 08:30-18:00, 'fri': 08:30-18:00, 'sat': выходной, 'sun': выходной, ",54.904562,52.306815,"4,6",['8 (800) 555-55-50Показать телефон'],"['http://ok.ru/sberbank', 'https://vk.com/sberbank']",95,71,,,2024-07-28 18:19:56
3,sberbank/1240539904,СберБанк,"ул. Ленина, 117, Альметьевск",www.sberbank.com,"'mon': 08:30-18:30, 'tue': 08:30-18:30, 'wed': 08:30-18:30, 'thu': 08:30-18:30, 'fri': 08:30-18:30, 'sat': 09:00-14:30, 'sun': выходной, ",54.898106,52.271232,"4,5",['8 (800) 555-55-50Показать телефон'],"['http://ok.ru/sberbank', 'https://vk.com/sberbank']",85,70,,,2024-07-28 18:19:56
4,sberbank/1262293538,СберБанк,"ул. Ленина, 122, Альметьевск",www.sberbank.com,"'mon': 08:00-18:30, 'tue': 08:00-18:30, 'wed': 08:00-18:30, 'thu': 08:00-18:30, 'fri': 08:00-18:30, 'sat': выходной, 'sun': выходной, ",54.903392,52.261639,"4,5",['8 (800) 555-55-50Показать телефон'],"['http://ok.ru/sberbank', 'https://vk.com/sberbank']",88,74,85,,2024-07-28 18:19:56
5,sberbank/1097685356,СберБанк,"ул. Ленина, 201, Альметьевск",www.sberbank.com,"'mon': 09:00-18:00, 'tue': 09:00-18:00, 'wed': 09:00-18:00, 'thu': 09:00-18:00, 'fri': 09:00-18:00, 'sat': 09:00-13:00, 'sun': выходной, ",54.906254,52.250895,"4,8",['8 (800) 555-55-50Показать телефон'],"['http://ok.ru/sberbank', 'https://vk.com/sberbank']",81,65,,92,2024-07-28 18:19:56
6,sberbank/1102972497,СберБанк,"ул. Гафиатуллина, 8, Альметьевск",www.sberbank.com,"'mon': 09:00-18:00, 'tue': 09:00-18:00, 'wed': 09:00-18:00, 'thu': 09:00-18:00, 'fri': 09:00-18:00, 'sat': выходной, 'sun': выходной, ",54.906472,52.281141,"4,4",['8 (800) 555-55-50Показать телефон'],"['http://ok.ru/sberbank', 'https://vk.com/sberbank']",,,,,2024-07-28 18:19:56
7,sberbank/1208171302,СберБанк,"Заводская ул., 16, п. г. т. Нижняя Мактама",www.sberbank.com,"'mon': выходной, 'tue': выходной, 'wed': выходной, 'thu': выходной, 'fri': выходной, 'sat': выходной, 'sun': выходной, ",54.867596,52.433046,"4,1",['8 (800) 555-55-50Показать телефон'],"['http://ok.ru/sberbank', 'https://vk.com/sberbank']",,,,,2024-07-28 18:19:56
