,ID,name,address,website,opening_hours,lat,lon,rating,phone,social,Отношение к клиентам,Обслуживание,Персонал,Банкомат,Время ожидания,load_time
0,1093333945,СберБанк,"ул. С. Кирова, 66, Белорецк",www.sberbank.ru,"'mon': 09:00-17:00, 'tue': 09:00-17:00, 'wed': 09:00-17:00, 'thu': 09:00-17:00, 'fri': 09:00-17:00, 'sat': выходной, 'sun': выходной",53.959809,58.404132,"4,2",['8 (800) 555-55-50Показать телефон'],"['http://ok.ru/sberbank', 'https://vk.com/sberbank']",78,81,81,27,,2024-06-22 19:51:15
1,1051406688,СберБанк,"ул. В. Ленина, 57, Белорецк",www.sberbank.ru,"'mon': выходной, 'tue': выходной, 'wed': выходной, 'thu': выходной, 'fri': выходной, 'sat': выходной, 'sun': выходной",53.970291,58.406484,"4,6",['8 (800) 555-55-50Показать телефон'],"['http://ok.ru/sberbank', 'https://vk.com/sberbank']",80,82,81,79,68,2024-06-22 19:51:15
2,1244475013,СберБанк,"ул. Крупской, 53, Белорецк",www.sberbank.ru,"'mon': 09:00-18:00, 'tue': 09:00-18:00, 'wed': 09:00-18:00, 'thu': 09:00-18:00, 'fri': 09:00-18:00, 'sat': 09:30-14:00, 'sun': выходной",53.971193,58.422039,"4,4",['8 (800) 555-55-50Показать телефон'],"['http://ok.ru/sberbank', 'https://vk.com/sberbank']",91,87,,,,2024-06-22 19:51:15
3,1161455225,СберБанк,"ул. Ленина, 36, село Ломовка",www.sberbank.ru,"'mon': выходной, 'tue': выходной, 'wed': выходной, 'thu': выходной, 'fri': выходной, 'sat': выходной, 'sun': выходной",53.918997,58.360471,"4,1",['8 (800) 555-55-50Показать телефон'],"['http://ok.ru/sberbank', 'https://vk.com/sberbank']",,,,,,2024-06-22 19:51:15
4,1146398888,СберБанк,"ул. С. Тюленина, 52, Белорецк",www.sberbank.ru,"'mon': выходной, 'tue': 09:00-13:00,14:00-17:45, 'wed': 09:00-10:00, 'thu': выходной, 'fri': выходной, 'sat': выходной, 'sun': выходной",53.953493,58.380063,"3,8",['8 (800) 555-55-50Показать телефон'],"['http://ok.ru/sberbank', 'https://vk.com/sberbank']",,,,,,2024-06-22 19:51:15
