,ID,name,address,website,opening_hours,lat,lon,rating,phone,social,Персонал,Время ожидания,Расположение,Банкомат,Кредит,График работы,load_time
0,sberbank/1035723734,СберБанк,"ул. Островского, 55, Бердск",,"'mon': 09:00-18:30, 'tue': 09:00-18:30, 'wed': 09:00-18:30, 'thu': 09:00-18:30, 'fri': 09:00-18:30, 'sat': 09:00-15:30, 'sun': выходной, ",54.759005,83.095996,"4,4",['8 (800) 555-55-50Показать телефон'],"['http://ok.ru/sberbank', 'https://vk.com/sberbank']",80,67,88,82,30,,2024-08-04 20:06:46
1,sberbank/1264023581,СберБанк,"ул. Красная Сибирь, 136, Бердск",,"'mon': 09:00-18:30, 'tue': 09:00-18:30, 'wed': 09:00-18:30, 'thu': 09:00-18:30, 'fri': 09:00-18:30, 'sat': 10:00-16:00, 'sun': выходной, ",54.747725,83.058986,"4,5",['8 (800) 555-55-50Показать телефон'],"['http://ok.ru/sberbank', 'https://vk.com/sberbank', 'https://youtube.com/user/Sberbank']",77,60,90,40,,,2024-08-04 20:06:46
2,sberbank/1369888544,СберБанк,"ул. Кутузова, 2, Бердск",,"'mon': 09:00-18:30, 'tue': 09:00-18:30, 'wed': 09:00-18:30, 'thu': 09:00-18:30, 'fri': 09:00-18:30, 'sat': выходной, 'sun': выходной, ",54.765320,83.086569,"4,5",['8 (800) 555-55-50Показать телефон'],"['http://ok.ru/sberbank', 'https://vk.com/sberbank']",78,71,,69,,,2024-08-04 20:06:46
3,sberbank/1225058250,СберБанк,"Вокзальная ул., 52, Бердск",,"'mon': 09:00-18:00, 'tue': 09:00-18:00, 'wed': 09:00-18:00, 'thu': 09:00-18:00, 'fri': 09:00-18:00, 'sat': выходной, 'sun': выходной, ",54.761373,83.113801,"4,3",['8 (800) 555-55-50Показать телефон'],"['http://ok.ru/sberbank', 'https://vk.com/sberbank']",70,60,36,,,,2024-08-04 20:06:46
4,sberbank/1077764958,СберБанк,"Морской просп., 18, Новосибирск",,"'mon': 09:00-19:00, 'tue': 09:00-19:00, 'wed': 09:00-19:00, 'thu': 09:00-19:00, 'fri': 09:00-19:00, 'sat': выходной, 'sun': выходной, ",54.839681,83.107369,"4,3",['8 (800) 555-55-50Показать телефон'],"['http://ok.ru/sberbank', 'https://vk.com/sberbank']",82,52,,53,,,2024-08-04 20:06:46
5,sberbank/1284564377,СберБанк,"ул. Лыкова, 7, Советский район, микрорайон Академгородок, Новосибирск",,"'mon': 09:00-19:00, 'tue': 09:00-19:00, 'wed': 09:00-19:00, 'thu': 09:00-19:00, 'fri': 09:00-19:00, 'sat': 10:00-15:00, 'sun': выходной, ",54.860913,83.084141,"4,5",['8 (800) 555-55-50Показать телефон'],"['https://ok.ru/sber', 'https://t.me/sberbank', 'https://vk.com/sberbank']",84,65,69,75,,,2024-08-04 20:06:46
6,sberbank/1093768325,СберБанк,"ул. Демакова, 20, Советский район, микрорайон Академгородок, Новосибирск",,"'mon': 09:00-19:00, 'tue': 09:00-19:00, 'wed': 09:00-19:00, 'thu': 09:00-19:00, 'fri': 09:00-19:00, 'sat': выходной, 'sun': выходной, ",54.863228,83.109301,"4,3",['8 (800) 555-55-50Показать телефон'],"['http://ok.ru/sberbank', 'https://vk.com/sberbank']",75,64,,60,,9,2024-08-04 20:06:46
7,sberbank/1114048734,СберБанк,"ул. 40 лет Комсомола, 5, Новосибирск",,"'mon': 09:00-19:00, 'tue': 09:00-19:00, 'wed': 09:00-19:00, 'thu': 09:00-19:00, 'fri': 09:00-19:00, 'sat': 10:00-14:00, 'sun': выходной, ",54.859046,82.980536,"4,4",['8 (800) 555-55-50Показать телефон'],"['http://ok.ru/sberbank', 'https://vk.com/sberbank']",83,61,,35,,,2024-08-04 20:06:46
8,sberbank/1081452327,СберБанк,"ул. Гидростроителей, 7, Советский район, микрорайон Шлюз, Новосибирск",,"'mon': 09:00-18:00, 'tue': 09:00-18:00, 'wed': 09:00-18:00, 'thu': 09:00-18:00, 'fri': 09:00-18:00, 'sat': выходной, 'sun': выходной, ",54.848338,83.045161,"4,4",['8 (800) 555-55-50Показать телефон'],"['http://ok.ru/sberbank', 'https://vk.com/sberbank']",94,86,,,,,2024-08-04 20:06:46
