,ID,name,address,website,opening_hours,lat,lon,rating,phone,social,Персонал,Время ожидания,load_time
0,sberbank/232499656275,СберБанк,"Красная ул., 65, Белореченск",www.sberbank.com,"'mon': выходной, 'tue': 08:00-17:30, 'wed': 08:00-17:30, 'thu': 08:00-17:30, 'fri': 08:00-17:30, 'sat': 08:00-15:00, 'sun': выходной, ",44.765070,39.868409,"4,5",['8 (800) 555-55-50Показать телефон'],"['http://ok.ru/sberbank', 'https://vk.com/sberbank']",90,55,2024-07-28 19:59:17
1,sberbank/111051221682,СберБанк,"ул. Гоголя, 51, Белореченск",www.sberbank.com,"'mon': 08:00-17:00, 'tue': 08:00-17:00, 'wed': 08:00-17:00, 'thu': 08:00-17:00, 'fri': 08:00-15:45, 'sat': выходной, 'sun': выходной, ",44.757806,39.870655,"4,7",['8 (800) 555-55-50Показать телефон'],"['http://ok.ru/sberbank', 'https://vk.com/sberbank']",92,57,2024-07-28 19:59:17
2,sberbank/182316380645,Сбербанк,"ул. Ленина, 165, Белореченск",www.sberbank.com,"'mon': выходной, 'tue': выходной, 'wed': выходной, 'thu': выходной, 'fri': выходной, 'sat': выходной, 'sun': выходной, ",44.770894,39.862722,"4,3",['900Показать телефон'],['https://vk.com/sberbank'],,,2024-07-28 19:59:17
3,sberbank/2706468686,СберБанк,"ул. Гоголя, 51, Белореченск",www.sberbank.ru,"'mon': выходной, 'tue': выходной, 'wed': выходной, 'thu': выходной, 'fri': выходной, 'sat': выходной, 'sun': выходной, ",44.757240,39.870109,"4,4",['8 (800) 555-55-50Показать телефон'],"['http://ok.ru/sberbank', 'https://vk.com/sberbank']",,,2024-07-28 19:59:17
4,sberbank/1106695003,СберБанк,"Центральная ул., 6/1, посёлок Родники",www.sberbank.com,"'mon': 08:00-17:15, 'tue': выходной, 'wed': 08:00-17:15, 'thu': выходной, 'fri': выходной, 'sat': выходной, 'sun': выходной, ",44.752103,39.905994,"3,9",['8 (800) 555-55-50Показать телефон'],['https://vk.com/sberbank'],,,2024-07-28 19:59:17
5,sberbank/91237001218,СберБанк,"Мостовая ул., 17, станица Пшехская",www.sberbank.com,"'mon': выходной, 'tue': 08:15-14:30, 'wed': 08:15-14:30, 'thu': выходной, 'fri': выходной, 'sat': выходной, 'sun': выходной, ",44.695931,39.802580,"4,1",['8 (800) 555-55-50Показать телефон'],"['http://ok.ru/sberbank', 'https://vk.com/sberbank']",,,2024-07-28 19:59:17
