,ID,name,address,website,opening_hours,lat,lon,rating,phone,social,Персонал,Время ожидания,Банкомат,Расположение,График работы,Ипотека,Кредит,Ремонт,load_time
0,29999320507,СберБанк,"Успенский просп., 125, Верхняя Пышма",www.sberbank.ru,"'mon': 09:00-19:00, 'tue': 09:00-19:00, 'wed': 09:00-19:00, 'thu': 09:00-19:00, 'fri': 09:00-19:00, 'sat': 09:00-15:30, 'sun': выходной, ",56.980135,60.547393,"4,7",['8 (800) 555-55-50Показать телефон'],"['http://ok.ru/sberbank', 'https://vk.com/sberbank']",87,64,67,100,82,,,,2024-07-12 03:08:55
1,1593202304,СберБанк,"ул. Строителей, 4, Берёзовский",,"'mon': выходной, 'tue': выходной, 'wed': выходной, 'thu': выходной, 'fri': выходной, 'sat': выходной, 'sun': выходной, ",56.906217,60.813250,"4,4",['8 (800) 555-55-50Показать телефон'],"['http://ok.ru/sberbank', 'https://vk.com/sberbank']",73,57,33,,,,,,2024-07-12 03:08:55
2,105145847307,СберБанк,"ул. Бориса Ельцина, 3, Екатеринбург",,"'mon': 10:00-19:00, 'tue': 10:00-19:00, 'wed': 10:00-19:00, 'thu': 10:00-19:00, 'fri': 10:00-19:00, 'sat': 10:00-15:00, 'sun': выходной, ",56.844894,60.591437,"4,6",['8 (800) 555-55-50Показать телефон'],"['https://ok.ru/sberbank', 'https://vk.com/sberbank']",81,62,,93,,63,54,,2024-07-12 03:08:55
3,159029923665,СберБанк,"ул. Бебеля, 138, Екатеринбург",www.sberbank.ru,"'mon': 10:00-19:00, 'tue': 10:00-19:00, 'wed': 10:00-19:00, 'thu': 10:00-19:00, 'fri': 10:00-19:00, 'sat': выходной, 'sun': выходной, ",56.861934,60.551553,"4,4",['8 (800) 555-55-50Показать телефон'],"['http://ok.ru/sberbank', 'https://vk.com/sberbank']",87,70,25,94,,,,,2024-07-12 03:08:55
4,155564736643,СберБанк,"Боровая ул., 19, Екатеринбург",www.sberbank.ru,"'mon': 09:30-19:00, 'tue': 09:30-19:00, 'wed': 09:30-19:00, 'thu': 09:30-19:00, 'fri': 09:30-19:00, 'sat': 09:30-14:30, 'sun': выходной, ",56.861584,60.646361,"4,7",['8 (800) 555-55-50Показать телефон'],"['http://ok.ru/sberbank', 'https://vk.com/sberbank']",93,68,74,100,55,,,,2024-07-12 03:08:55
5,1080278902,СберБанк,"ул. Баумана, 49, Екатеринбург",www.sberbank.ru,"'mon': 09:00-19:00, 'tue': 09:00-19:00, 'wed': 09:00-19:00, 'thu': 09:00-19:00, 'fri': 09:00-19:00, 'sat': выходной, 'sun': выходной, ",56.896416,60.639390,"4,7",['8 (800) 555-55-50Показать телефон'],"['http://ok.ru/sberbank', 'https://vk.com/sberbank']",92,65,71,95,63,,,,2024-07-12 03:08:55
6,1148235401,СберБанк,"ул. Победы, 34, Екатеринбург",,"'mon': 09:00-19:30, 'tue': 09:00-19:30, 'wed': 09:00-19:30, 'thu': 09:00-19:30, 'fri': 09:00-19:30, 'sat': 09:30-17:00, 'sun': выходной, ",56.898766,60.601149,"4,5",['8 (800) 555-55-50Показать телефон'],"['http://ok.ru/sberbank', 'https://t.me/sberbank', 'https://vk.com/sberbank']",81,58,50,69,83,,,,2024-07-12 03:08:55
7,93330341415,СберБанк,"ул. Красных Командиров, 29, Екатеринбург",www.sberbank.ru,"'mon': 10:00-19:00, 'tue': 10:00-19:00, 'wed': 10:00-19:00, 'thu': 10:00-19:00, 'fri': 10:00-19:00, 'sat': выходной, 'sun': выходной, ",56.897847,60.628539,"4,6",['8 (800) 555-55-50Показать телефон'],"['http://ok.ru/sberbank', 'https://vk.com/sber']",83,67,50,90,,,,,2024-07-12 03:08:55
8,1108571081,СберБанк,"Опалихинская ул., 15, Екатеринбург",www.sberbank.ru,"'mon': 09:00-19:00, 'tue': 09:00-19:00, 'wed': 09:00-19:00, 'thu': 09:00-19:00, 'fri': 09:00-19:00, 'sat': выходной, 'sun': выходной, ",56.848656,60.564443,"4,4",['8 (800) 555-55-50Показать телефон'],"['https://ok.ru/sberbank', 'https://vk.com/sberbank']",81,58,47,100,,,,,2024-07-12 03:08:55
9,82565956244,СберБанк,"Июльская ул., 21, Екатеринбург",www.sberbank.ru,"'mon': 09:30-18:30, 'tue': 09:30-18:30, 'wed': 09:30-18:30, 'thu': 09:30-18:30, 'fri': 09:30-18:30, 'sat': выходной, 'sun': выходной, ",56.858981,60.640657,"4,6",['8 (800) 555-55-50Показать телефон'],"['http://ok.ru/sberbank', 'https://t.me/sberbank', 'https://vk.com/sberbank']",89,64,75,,,,,100,2024-07-12 03:08:55
10,1034974431,СберБанк,"Мельковская ул., 2Б, Екатеринбург",www.sberbank.ru,"'mon': 09:30-18:30, 'tue': 09:30-18:30, 'wed': 09:30-18:30, 'thu': 09:30-18:30, 'fri': 09:30-18:30, 'sat': 09:30-16:00, 'sun': выходной, ",56.850423,60.602371,"4,4",['8 (800) 555-55-50Показать телефон'],"['http://ok.ru/sberbank', 'https://t.me/sberbank', 'https://vk.com/sberbank']",84,68,73,95,,,,,2024-07-12 03:08:55
11,1169971264,СберБанк,"Красноармейская ул., 3, Верхняя Пышма",www.sberbank.ru,"'mon': 09:00-18:30, 'tue': 09:00-18:30, 'wed': 09:00-18:30, 'thu': 09:00-18:30, 'fri': 09:00-18:30, 'sat': 10:00-16:00, 'sun': выходной, ",56.968214,60.581664,"4,3",['8 (800) 555-55-50Показать телефон'],"['http://ok.ru/sberbank', 'https://vk.com/sberbank']",92,59,9,,8,,,,2024-07-12 03:08:55
12,1553033960,СберБанк,"Техническая ул., 32, Екатеринбург",www.sberbank.ru,"'mon': 09:00-19:00, 'tue': 09:00-19:00, 'wed': 09:00-19:00, 'thu': 09:00-19:00, 'fri': 09:00-19:00, 'sat': 10:30-15:30, 'sun': выходной, ",56.866436,60.533856,"4,6",['8 (800) 555-55-50Показать телефон'],"['http://ok.ru/sberbank', 'https://vk.com/sberbank']",88,60,51,86,,,,,2024-07-12 03:08:55
13,1105627355,СберБанк,"Билимбаевская ул., 31, корп. 1, Екатеринбург",www.sberbank.ru,"'mon': 09:30-19:00, 'tue': 09:30-19:00, 'wed': 09:30-19:00, 'thu': 09:30-19:00, 'fri': 09:30-19:00, 'sat': выходной, 'sun': выходной, ",56.882939,60.510132,"4,5",['8 (800) 555-55-50Показать телефон'],"['http://ok.ru/sberbank', 'https://vk.com/sberbank']",82,57,39,76,,,,,2024-07-12 03:08:55
14,1616878275,СберБанк,"просп. Космонавтов, 47Д, Екатеринбург",www.sberbank.ru,"'mon': 09:30-19:00, 'tue': 09:30-19:00, 'wed': 09:30-19:00, 'thu': 09:30-19:00, 'fri': 10:00-19:00, 'sat': 10:00-15:00, 'sun': выходной, ",56.903194,60.612934,"4,7",['8 (800) 555-55-50Показать телефон'],"['http://ok.ru/sberbank', 'https://vk.com/sberbank']",85,63,73,100,77,73,67,,2024-07-12 03:08:55
15,238091994590,СберБанк,"ул. Героев Труда, 25, Берёзовский",www.sberbank.ru,"'mon': 09:30-18:30, 'tue': 09:30-18:30, 'wed': 09:30-18:30, 'thu': 09:30-18:30, 'fri': 09:30-18:30, 'sat': выходной, 'sun': выходной, ",56.896868,60.741546,"4,7",['8 (800) 555-55-50Показать телефон'],"['http://ok.ru/sberbank', 'https://vk.com/sberbank']",95,82,60,,,,,,2024-07-12 03:08:55
16,39823245362,СберБанк,"просп. Орджоникидзе, 20, Екатеринбург",www.sberbank.ru,"'mon': 09:00-19:00, 'tue': 09:00-19:00, 'wed': 09:00-19:00, 'thu': 09:00-19:00, 'fri': 09:00-19:00, 'sat': выходной, 'sun': выходной, ",56.895767,60.589955,"4,5",['8 (800) 555-55-50Показать телефон'],"['http://ok.ru/sberbank', 'https://vk.com/sberbank']",89,79,67,93,,,,,2024-07-12 03:08:55
17,1017583236,СберБанк,"ул. Блюхера, 59, Екатеринбург",www.sberbank.ru,"'mon': 09:30-18:30, 'tue': 09:30-18:30, 'wed': 09:30-18:30, 'thu': 09:30-18:30, 'fri': 09:30-18:30, 'sat': выходной, 'sun': выходной, ",56.856560,60.650017,"4,1",['8 (800) 555-55-50Показать телефон'],"['http://ok.ru/sberbank', 'https://t.me/sberbank', 'https://vk.com/sberbank']",77,48,8,,5,,,,2024-07-12 03:08:55
18,1027195005,СберБанк,"ул. Гагарина, 9, Берёзовский",www.sberbank.ru,"'mon': выходной, 'tue': выходной, 'wed': выходной, 'thu': выходной, 'fri': выходной, 'sat': выходной, 'sun': выходной, ",56.909392,60.822870,"4,4",['8 (800) 555-55-50Показать телефон'],"['http://ok.ru/sberbank', 'https://vk.com/sberbank', 'https://www.youtube.com/channel/UCM4aBRnEiNCf9fQFl2qx2Bg']",90,76,71,90,,,,,2024-07-12 03:08:55
19,159973554104,СберБанк,"просп. Космонавтов, 23А, Екатеринбург",,"'mon': 09:00-19:00, 'tue': 09:00-19:00, 'wed': 09:00-19:00, 'thu': 09:00-19:00, 'fri': 09:00-19:00, 'sat': 10:00-15:00, 'sun': выходной, ",56.888702,60.612620,"4,7",['8 (800) 555-55-50Показать телефон'],"['https://ok.ru/sberbank', 'https://vk.com/sberbank']",81,74,,100,,,,,2024-07-12 03:08:55
20,1173066309,СберБанк,"ул. Бебеля, 166, Екатеринбург",www.sberbank.ru,"'mon': 09:00-19:00, 'tue': 09:00-19:00, 'wed': 09:00-19:00, 'thu': 09:00-19:00, 'fri': 09:00-19:00, 'sat': 09:00-16:00, 'sun': 09:00-14:00, ",56.871119,60.550591,"4,6",['8 (800) 555-55-50Показать телефон'],"['http://ok.ru/sberbank', 'https://vk.com/sber']",82,60,56,83,55,,,71,2024-07-12 03:08:55
21,1210892820,СберБанк,"ул. Луначарского, 40, Екатеринбург",www.sberbank.ru,"'mon': 09:00-18:00, 'tue': 09:00-18:00, 'wed': 09:00-18:00, 'thu': 09:00-18:00, 'fri': 09:00-18:00, 'sat': выходной, 'sun': выходной, ",56.852450,60.615440,"4,3",['8 (800) 555-55-50Показать телефон'],"['http://ok.ru/sberbank', 'https://t.me/sberbank', 'https://vk.com/sberbank']",79,59,12,100,,,,,2024-07-12 03:08:55
22,1060361750,СберБанк,"Уральская ул., 75, Екатеринбург",www.sberbank.ru,"'mon': 09:00-20:00, 'tue': 09:00-20:00, 'wed': 09:00-20:00, 'thu': 09:00-20:00, 'fri': 09:00-20:00, 'sat': 09:30-17:00, 'sun': выходной, ",56.853725,60.638061,"4,5",['8 (800) 555-55-50Показать телефон'],"['http://ok.ru/sberbank', 'https://t.me/sberbank', 'https://vk.com/sberbank']",79,54,35,91,50,,,,2024-07-12 03:08:55
