,ID,name,address,website,opening_hours,lat,lon,rating,phone,social,Обслуживание,Отношение к клиентам,Персонал,Время ожидания,load_time
0,232499656275,СберБанк,"Красная ул., 65, Белореченск",www.sberbank.ru,"'mon': выходной, 'tue': 08:00-17:30, 'wed': 08:00-17:30, 'thu': 08:00-17:30, 'fri': 08:00-17:30, 'sat': 08:00-15:00, 'sun': выходной",44.764954,39.868159,"4,4",['8 (800) 555-55-50Показать телефон'],"['http://ok.ru/sberbank', 'https://vk.com/sberbank']",87,88,90,55,2024-06-21 14:50:11
1,111051221682,СберБанк,"ул. Гоголя, 51, Белореченск",www.sberbank.ru,"'mon': 08:00-17:00, 'tue': 08:00-17:00, 'wed': 08:00-17:00, 'thu': 08:00-17:00, 'fri': 08:00-15:45, 'sat': выходной, 'sun': выходной",44.757229,39.870094,"4,7",['8 (800) 555-55-50Показать телефон'],"['http://ok.ru/sberbank', 'https://vk.com/sberbank']",86,88,92,62,2024-06-21 14:50:11
2,182316380645,Сбербанк,"ул. Ленина, 165, Белореченск",www.sberbank.ru,"'mon': выходной, 'tue': выходной, 'wed': выходной, 'thu': выходной, 'fri': выходной, 'sat': выходной, 'sun': выходной",44.770916,39.862820,"4,3",['900Показать телефон'],['https://vk.com/sberbank'],,,,,2024-06-21 14:50:11
3,2706468686,СберБанк,"ул. Гоголя, 51, Белореченск",www.sberbank.ru,"'mon': выходной, 'tue': выходной, 'wed': выходной, 'thu': выходной, 'fri': выходной, 'sat': выходной, 'sun': выходной",44.757240,39.870109,"4,4",['8 (800) 555-55-50Показать телефон'],"['http://ok.ru/sberbank', 'https://vk.com/sberbank']",63,67,77,,2024-06-21 14:50:11
4,1106695003,СберБанк,"Центральная ул., 6/1, посёлок Родники",www.sberbank.ru,"'mon': 08:00-12:00,12:30-17:15, 'tue': выходной, 'wed': 08:00-12:00,12:30-17:15, 'thu': выходной, 'fri': выходной, 'sat': выходной, 'sun': выходной",44.752103,39.905994,"3,8",['8 (800) 555-55-50Показать телефон'],['https://vk.com/sberbank'],,,,,2024-06-21 14:50:11
5,91237001218,СберБанк,"Мостовая ул., 17, станица Пшехская",www.sberbank.ru,"'mon': выходной, 'tue': 08:15-12:00,12:30-14:30, 'wed': 08:15-12:00,12:30-14:30, 'thu': выходной, 'fri': 08:15-12:00,12:30-14:30, 'sat': выходной, 'sun': выходной",44.695931,39.802580,"4,0",['8 (800) 555-55-50Показать телефон'],"['http://ok.ru/sberbank', 'https://vk.com/sberbank']",,,,,2024-06-21 14:50:11
