,ID,name,address,website,opening_hours,lat,lon,rating,phone,social,Персонал,Время ожидания,Банкомат,load_time
0,sberbank/1241816381,СберБанк,"ул. Шестакова, 13, Волжск",,"'mon': 09:00-18:00, 'tue': 09:00-18:00, 'wed': 09:00-18:00, 'thu': 09:00-18:00, 'fri': 09:00-18:00, 'sat': выходной, 'sun': выходной, ",55.870890,48.336908,"4,5",['8 (800) 555-55-50Показать телефон'],"['http://ok.ru/sberbank', 'https://vk.com/sberbank']",,,,2024-08-04 22:07:17
1,sberbank/94526176797,СберБанк,"ул. Татарстан, 10, Зеленодольск",,"'mon': 09:00-18:00, 'tue': 09:00-18:00, 'wed': 09:00-18:00, 'thu': 09:00-18:00, 'fri': 09:00-18:00, 'sat': выходной, 'sun': выходной, ",55.848286,48.501938,"4,4",['8 (800) 555-55-50Показать телефон'],"['http://ok.ru/sberbank', 'https://t.me/sberbank', 'https://vk.com/sberbank']",89,69,,2024-08-04 22:07:17
2,sberbank/1020962258,СберБанк,"ул. Ленина, 70, Зеленодольск",,"'mon': 08:30-18:00, 'tue': 08:30-18:00, 'wed': 08:30-18:00, 'thu': 08:30-18:00, 'fri': 08:30-18:00, 'sat': 08:30-15:30, 'sun': выходной, ",55.845542,48.524944,"4,6",['8 (800) 555-55-50Показать телефон'],"['http://ok.ru/sberbank', 'https://vk.com/sberbank']",86,72,83,2024-08-04 22:07:17
3,sberbank/1254822849,СберБанк,"ул. Лобачевского, 33А, Козловка",,"'mon': 08:00-17:00, 'tue': 08:00-17:00, 'wed': 08:00-17:00, 'thu': 08:00-17:00, 'fri': 08:00-17:00, 'sat': выходной, 'sun': выходной, ",55.839289,48.242576,"4,4",['8 (800) 555-55-50Показать телефон'],"['http://ok.ru/sberbank', 'https://vk.com/sberbank']",,,,2024-08-04 22:07:17
4,sberbank/1084877492,СберБанк,"Паратская ул., 13, Зеленодольск",,"'mon': выходной, 'tue': выходной, 'wed': выходной, 'thu': выходной, 'fri': выходной, 'sat': выходной, 'sun': выходной, ",55.851905,48.488823,"4,3",['8 (800) 555-55-50Показать телефон'],"['http://ok.ru/sberbank', 'https://vk.com/sberbank']",,,,2024-08-04 22:07:17
5,sberbank/1061519275,СберБанк,"Первомайская ул., 7, п. г. т. Приволжский",,"'mon': 08:00-16:15, 'tue': 08:00-16:15, 'wed': 08:00-16:15, 'thu': 08:00-16:15, 'fri': 08:00-16:15, 'sat': выходной, 'sun': выходной, ",55.960800,48.417226,"3,6",['8 (800) 555-55-50Показать телефон'],"['http://ok.ru/sberbank', 'https://vk.com/sberbank']",,,,2024-08-04 22:07:17
6,sberbank/1003829325,СберБанк,"Первомайская ул., 32, п. г. т. Нижние Вязовые",,"'mon': выходной, 'tue': 09:00-17:45, 'wed': 09:00-17:45, 'thu': 09:00-17:45, 'fri': 09:00-17:45, 'sat': 09:00-12:30, 'sun': выходной, ",55.798759,48.525168,"3,8",['8 (800) 555-55-50Показать телефон'],"['http://ok.ru/sberbank', 'https://vk.com/sberbank']",,,,2024-08-04 22:07:17
