,ID,name,address,website,opening_hours,lat,lon,rating,phone,social,Обслуживание,Отношение к клиентам,Персонал,Время ожидания,load_time
0,1072259736,СберБанк,"Комсомольская ул., 191, Вольск",www.sberbank.ru,"'mon': 09:00-17:30, 'tue': 09:00-17:30, 'wed': 09:00-17:30, 'thu': 09:00-17:30, 'fri': 09:00-17:30, 'sat': выходной, 'sun': выходной",52.052851,47.367868,"4,7",['8 (800) 555-55-50Показать телефон'],"['http://ok.ru/sberbank', 'https://vk.com/sberbank']",82,82,88,75,2024-06-21 17:22:09
1,1010067349,СберБанк,"ул. Пугачёва, 45, Вольск",www.sberbank.ru,"'mon': 08:30-17:30, 'tue': 08:30-17:30, 'wed': 08:30-17:30, 'thu': 08:30-17:30, 'fri': 08:30-17:30, 'sat': выходной, 'sun': выходной",52.039512,47.388893,"4,9",['8 (800) 555-55-50Показать телефон'],"['http://ok.ru/sberbank', 'https://vk.com/sberbank']",94,93,93,93,2024-06-21 17:22:09
2,1056562010,СберБанк,"Октябрьская ул., 112А, Вольск",www.sberbank.ru,"'mon': 08:30-17:30, 'tue': 08:30-17:30, 'wed': 08:30-17:30, 'thu': 08:30-17:30, 'fri': 08:30-17:30, 'sat': 09:00-13:00, 'sun': выходной",52.040838,47.392466,"4,6",['8 (800) 555-55-50Показать телефон'],"['http://ok.ru/sberbank', 'https://vk.com/sberbank']",83,85,88,82,2024-06-21 17:22:09
3,1239347353,СберБанк,"Школьная ул., 7, Шиханы",www.sberbank.ru,"'mon': 08:30-13:00,13:30-17:00, 'tue': 08:30-13:00,13:30-17:00, 'wed': 08:30-13:00,13:30-17:00, 'thu': 08:30-13:00,13:30-17:00, 'fri': 08:30-13:00,13:30-17:00, 'sat': выходной, 'sun': выходной",52.112070,47.192338,"4,1",['8 (800) 555-55-50Показать телефон'],"['http://ok.ru/sberbank', 'https://vk.com/sberbank']",,,,,2024-06-21 17:22:09
4,73100673171,СберБанк,"ул. Ленина, 6, село Терса",www.sberbank.ru,"'mon': 09:00-12:00,12:45-16:45, 'tue': 09:00-12:00,12:45-16:45, 'wed': 09:00-12:00,12:45-16:45, 'thu': выходной, 'fri': выходной, 'sat': выходной, 'sun': выходной",52.078464,47.533401,"4,2",['8 (800) 555-55-50Показать телефон'],"['http://ok.ru/sberbank', 'https://vk.com/sberbank']",,,,,2024-06-21 17:22:09
5,221197814125,СберБанк,"Краснознамённая ул., 475, посёлок Шиханы-2",www.sberbank.ru,"'mon': 08:30-12:00,12:30-16:30, 'tue': 08:30-12:00,12:30-16:30, 'wed': 08:30-12:00,12:30-16:30, 'thu': 08:30-12:00,12:30-16:30, 'fri': 08:30-12:00,12:30-16:30, 'sat': выходной, 'sun': выходной",52.104332,47.154833,"3,8",['8 (800) 555-55-50Показать телефон'],"['http://ok.ru/sberbank', 'https://vk.com/sberbank']",,,,,2024-06-21 17:22:09
