,ID,name,address,website,opening_hours,lat,lon,rating,phone,social,Персонал,Время ожидания,load_time
0,sberbank/1072259736,СберБанк,"Комсомольская ул., 191, Вольск",www.sberbank.com,"'mon': 09:00-17:30, 'tue': 09:00-17:30, 'wed': 09:00-17:30, 'thu': 09:00-17:30, 'fri': 09:00-17:30, 'sat': выходной, 'sun': выходной, ",52.052868,47.367868,"4,7",['8 (800) 555-55-50Показать телефон'],"['http://ok.ru/sberbank', 'https://vk.com/sberbank']",88,75,2024-07-28 22:24:11
1,sberbank/1010067349,СберБанк,"ул. Пугачёва, 45, Вольск",www.sberbank.com,"'mon': 08:30-17:30, 'tue': 08:30-17:30, 'wed': 08:30-17:30, 'thu': 08:30-17:30, 'fri': 08:30-17:30, 'sat': выходной, 'sun': выходной, ",52.039508,47.388925,"4,9",['8 (800) 555-55-50Показать телефон'],"['http://ok.ru/sberbank', 'https://vk.com/sberbank']",93,94,2024-07-28 22:24:11
2,sberbank/1056562010,СберБанк,"Октябрьская ул., 112А, Вольск",www.sberbank.com,"'mon': 08:30-17:30, 'tue': 08:30-17:30, 'wed': 08:30-17:30, 'thu': 08:30-17:30, 'fri': 08:30-17:30, 'sat': 09:00-13:00, 'sun': выходной, ",52.040893,47.392464,"4,6",['8 (800) 555-55-50Показать телефон'],"['http://ok.ru/sberbank', 'https://vk.com/sberbank']",89,82,2024-07-28 22:24:11
3,sberbank/1239347353,СберБанк,"Школьная ул., 7, Шиханы",www.sberbank.com,"'mon': 08:30-17:00, 'tue': 08:30-17:00, 'wed': 08:30-17:00, 'thu': 08:30-17:00, 'fri': 08:30-17:00, 'sat': выходной, 'sun': выходной, ",52.112070,47.192338,"4,1",['8 (800) 555-55-50Показать телефон'],"['http://ok.ru/sberbank', 'https://vk.com/sberbank']",,,2024-07-28 22:24:11
4,sberbank/73100673171,СберБанк,"ул. Ленина, 6, село Терса",www.sberbank.com,"'mon': 09:00-16:45, 'tue': 09:00-16:45, 'wed': 09:00-16:45, 'thu': 09:00-16:45, 'fri': 09:00-16:45, 'sat': выходной, 'sun': выходной, ",52.078464,47.533401,"4,2",['8 (800) 555-55-50Показать телефон'],"['http://ok.ru/sberbank', 'https://vk.com/sberbank']",,,2024-07-28 22:24:11
5,sberbank/221197814125,СберБанк,"Краснознамённая ул., 475, посёлок Шиханы-2",www.sberbank.com,"'mon': 08:30-16:30, 'tue': 08:30-16:30, 'wed': 08:30-16:30, 'thu': выходной, 'fri': 08:30-16:30, 'sat': выходной, 'sun': выходной, ",52.104332,47.154833,"3,8",['8 (800) 555-55-50Показать телефон'],"['http://ok.ru/sberbank', 'https://vk.com/sberbank']",,,2024-07-28 22:24:11
