,ID,name,address,website,opening_hours,lat,lon,rating,phone,social,Обслуживание,Отношение к клиентам,Персонал,Время ожидания,Банкомат,Расположение,Ремонт,load_time
0,1107178714,СберБанк,"Комсомольская ул., 36, Жигулёвск",www.sberbank.ru,"'mon': 08:30-17:30, 'tue': 08:30-17:30, 'wed': 08:30-17:30, 'thu': 08:30-17:30, 'fri': 08:30-17:30, 'sat': 09:00-13:30, 'sun': выходной",53.403091,49.503609,"4,7",['8 (800) 555-55-50Показать телефон'],"['http://ok.ru/sberbank', 'https://vk.com/sberbank']",83,85,87,79,,,,2024-06-21 20:14:12
1,1231792541,СберБанк,"18, микрорайон В-1, Жигулёвск",www.sberbank.ru,"'mon': 08:30-17:30, 'tue': 08:30-17:30, 'wed': 08:30-17:30, 'thu': 08:30-17:30, 'fri': 08:30-17:30, 'sat': выходной, 'sun': выходной",53.402714,49.521916,"4,7",['8 (800) 555-55-50Показать телефон'],"['http://ok.ru/sberbank', 'https://vk.com/sberbank']",91,89,93,72,73,100,,2024-06-21 20:14:12
2,186332326768,СберБанк,"Гидротехническая ул., 27А, микрорайон Шлюзовой, Тольятти",www.sberbank.ru,"'mon': 09:00-18:00, 'tue': 09:00-18:00, 'wed': 09:00-18:00, 'thu': 09:00-18:00, 'fri': 09:00-18:00, 'sat': 09:00-13:00, 'sun': выходной",53.472997,49.527453,"4,7",['8 (800) 555-55-50Показать телефон'],"['http://ok.ru/sberbank', 'https://vk.com/sberbank']",84,84,88,60,33,87,,2024-06-21 20:14:12
3,1116239035,СберБанк,"ул. Лизы Чайкиной, 79А, Тольятти",www.sberbank.ru,"'mon': выходной, 'tue': выходной, 'wed': выходной, 'thu': выходной, 'fri': выходной, 'sat': выходной, 'sun': выходной",53.481905,49.480400,"4,4",['8 (800) 555-55-50Показать телефон'],"['http://ok.ru/sberbank', 'https://vk.com/sberbank']",77,77,78,50,12,95,,2024-06-21 20:14:12
4,1130469358,СберБанк,"ул. Пушкина, 3, Жигулёвск",www.sberbank.ru,"'mon': 09:00-18:00, 'tue': 09:00-18:00, 'wed': 09:00-18:00, 'thu': 09:00-18:00, 'fri': 09:00-18:00, 'sat': 09:00-14:00, 'sun': выходной",53.403949,49.494720,"4,5",['8 (800) 555-55-50Показать телефон'],"['http://ok.ru/sberbank', 'https://vk.com/sberbank']",85,84,88,67,60,,,2024-06-21 20:14:12
5,1067579232,СберБанк,"ул. Никитина, 16, посёлок Яблоневый Овраг, Жигулёвск",www.sberbank.ru,"'mon': 09:00-13:00,14:00-17:00, 'tue': 09:00-13:00,14:00-17:00, 'wed': 09:00-13:00,14:00-17:00, 'thu': 09:00-13:00,14:00-17:00, 'fri': 09:00-13:00,14:00-17:00, 'sat': выходной, 'sun': выходной",53.406916,49.406272,"4,4",['8 (800) 555-55-50Показать телефон'],"['https://ok.ru/sberbank', 'https://vk.com/sberbank']",,,,,,,,2024-06-21 20:14:12
6,1051674218,СберБанк,"ул. Лизы Чайкиной, 43А, Тольятти",www.sberbank.ru,"'mon': 08:30-18:30, 'tue': 08:30-18:30, 'wed': 08:30-18:30, 'thu': 08:30-18:30, 'fri': 08:30-18:30, 'sat': 09:00-13:30, 'sun': выходной",53.482576,49.465843,"4,4",['8 (800) 555-55-50Показать телефон'],"['http://ok.ru/sberbank', 'https://t.me/s/sberbank', 'https://vk.com/sberbank']",81,81,88,68,44,100,92,2024-06-21 20:14:12
