,ID,name,address,website,opening_hours,lat,lon,rating,phone,social,Персонал,Время ожидания,Банкомат,Расположение,Ремонт,load_time
0,sberbank/1107178714,СберБанк,"Комсомольская ул., 36, Жигулёвск",www.sberbank.com,"'mon': 08:30-17:30, 'tue': 08:30-17:30, 'wed': 08:30-17:30, 'thu': 08:30-17:30, 'fri': 08:30-17:30, 'sat': 09:00-13:30, 'sun': выходной, ",53.403091,49.503609,"4,7",['8 (800) 555-55-50Показать телефон'],"['http://ok.ru/sberbank', 'https://vk.com/sberbank']",88,79,,,,2024-07-29 01:15:16
1,sberbank/1231792541,СберБанк,"18, микрорайон В-1, Жигулёвск",www.sberbank.com,"'mon': 08:30-17:30, 'tue': 08:30-17:30, 'wed': 08:30-17:30, 'thu': 08:30-17:30, 'fri': 08:30-17:30, 'sat': выходной, 'sun': выходной, ",53.402718,49.522531,"4,7",['8 (800) 555-55-50Показать телефон'],"['http://ok.ru/sberbank', 'https://vk.com/sberbank']",93,72,73,100,,2024-07-29 01:15:16
2,sberbank/186332326768,СберБанк,"Гидротехническая ул., 27А, микрорайон Шлюзовой, Тольятти",www.sberbank.com,"'mon': 09:00-18:00, 'tue': 09:00-18:00, 'wed': 09:00-18:00, 'thu': 09:00-18:00, 'fri': 09:00-18:00, 'sat': 09:00-13:00, 'sun': выходной, ",53.472922,49.527375,"4,7",['8 (800) 555-55-50Показать телефон'],"['http://ok.ru/sberbank', 'https://vk.com/sberbank']",87,59,35,87,,2024-07-29 01:15:16
3,sberbank/1116239035,СберБанк,"ул. Лизы Чайкиной, 79А, Тольятти",,"'mon': выходной, 'tue': выходной, 'wed': выходной, 'thu': выходной, 'fri': выходной, 'sat': выходной, 'sun': выходной, ",53.481920,49.480445,"4,4",['8 (800) 555-55-50Показать телефон'],"['http://ok.ru/sberbank', 'https://vk.com/sberbank']",78,50,12,95,,2024-07-29 01:15:16
4,sberbank/1130469358,СберБанк,"ул. Пушкина, 3, Жигулёвск",www.sberbank.com,"'mon': 09:00-18:00, 'tue': 09:00-18:00, 'wed': 09:00-18:00, 'thu': 09:00-18:00, 'fri': 09:00-18:00, 'sat': 09:00-14:00, 'sun': выходной, ",53.404205,49.494810,"4,5",['8 (800) 555-55-50Показать телефон'],"['http://ok.ru/sberbank', 'https://vk.com/sberbank']",86,67,60,,,2024-07-29 01:15:16
5,sberbank/1067579232,СберБанк,"ул. Никитина, 16, посёлок Яблоневый Овраг, Жигулёвск",www.sberbank.com,"'mon': 09:00-17:00, 'tue': 09:00-17:00, 'wed': 09:00-17:00, 'thu': 09:00-17:00, 'fri': 09:00-17:00, 'sat': выходной, 'sun': выходной, ",53.406916,49.406272,"4,4",['8 (800) 555-55-50Показать телефон'],"['https://ok.ru/sberbank', 'https://vk.com/sberbank']",,,,,,2024-07-29 01:15:16
6,sberbank/1051674218,СберБанк,"ул. Лизы Чайкиной, 43А, Тольятти",www.sberbank.com,"'mon': 08:30-18:30, 'tue': 08:30-18:30, 'wed': 08:30-18:30, 'thu': 08:30-18:30, 'fri': 08:30-18:30, 'sat': 09:00-13:30, 'sun': выходной, ",53.482981,49.465614,"4,5",['8 (800) 555-55-50Показать телефон'],"['http://ok.ru/sberbank', 'https://t.me/s/sberbank', 'https://vk.com/sberbank']",88,63,41,100,92,2024-07-29 01:15:16
