,ID,name,address,website,opening_hours,lat,lon,rating,phone,social,Обслуживание,Отношение к клиентам,Персонал,Время ожидания,Банкомат,load_time
0,1114990316,СберБанк,"ул. Комарова, 23, Зеленодольск",www.sberbank.ru,"'mon': выходной, 'tue': выходной, 'wed': выходной, 'thu': выходной, 'fri': выходной, 'sat': выходной, 'sun': выходной",55.857407,48.563616,"4,4",['8 (800) 555-55-50Показать телефон'],"['http://ok.ru/sberbank', 'https://vk.com/sberbank']",85,86,83,80,,2024-06-21 20:40:33
1,1101618506,СберБанк,"Столичная ул., 18А, Зеленодольск",www.sberbank.ru,"'mon': 09:00-18:00, 'tue': 09:00-18:00, 'wed': 09:00-18:00, 'thu': 09:00-18:00, 'fri': 09:00-18:00, 'sat': 09:00-14:30, 'sun': выходной",55.851282,48.564461,"4,4",['8 (800) 555-55-50Показать телефон'],"['http://ok.ru/sberbank', 'https://vk.com/sberbank']",70,69,72,,,2024-06-21 20:40:33
2,1020962258,СберБанк,"ул. Ленина, 70, Зеленодольск",www.sberbank.ru,"'mon': 08:30-18:00, 'tue': 08:30-18:00, 'wed': 08:30-18:00, 'thu': 08:30-18:00, 'fri': 08:30-18:00, 'sat': 08:30-15:30, 'sun': выходной",55.845592,48.524872,"4,5",['8 (800) 555-55-50Показать телефон'],"['http://ok.ru/sberbank', 'https://vk.com/sberbank']",82,83,86,72,83,2024-06-21 20:40:33
3,1120255562,СберБанк,"Школьная ул., 10И, село Айша",www.sberbank.ru,"'mon': 08:00-12:00,12:30-15:30, 'tue': 08:00-12:00,12:30-15:30, 'wed': 08:00-12:00,12:30-15:30, 'thu': 08:00-12:00,12:30-15:30, 'fri': 08:00-12:00,12:30-15:15, 'sat': выходной, 'sun': выходной",55.870324,48.631016,"4,1",['8 (800) 555-55-50Показать телефон'],"['http://ok.ru/sberbank', 'https://vk.com/sberbank']",,,,,,2024-06-21 20:40:33
4,1830723681,СберБанк,"Спортивная ул., 18, п. г. т. Васильево",www.sberbank.ru,"'mon': 08:45-13:00,14:00-18:00, 'tue': 08:45-13:00,14:00-18:00, 'wed': 08:45-13:00,14:00-18:00, 'thu': выходной, 'fri': 08:45-13:00,14:00-18:00, 'sat': 08:15-13:30, 'sun': выходной",55.835049,48.662411,"4,4",['8 (800) 555-55-50Показать телефон'],"['http://ok.ru/sberbank', 'https://vk.com/sberbank']",,,,,,2024-06-21 20:40:33
5,1015074699,СберБанк,"Школьная ул., 25, п. г. т. Васильево",www.sberbank.ru,"'mon': 08:00-17:00, 'tue': 08:00-17:00, 'wed': 08:00-17:00, 'thu': 08:00-17:00, 'fri': 08:00-17:00, 'sat': выходной, 'sun': выходной",55.830023,48.687287,"4,3",['8 (800) 555-55-50Показать телефон'],"['http://ok.ru/sberbank', 'https://vk.com/sberbank']",82,81,85,,,2024-06-21 20:40:33
6,94526176797,СберБанк,"ул. Татарстан, 10, Зеленодольск",www.sberbank.ru,"'mon': 09:00-18:00, 'tue': 09:00-18:00, 'wed': 09:00-18:00, 'thu': 09:00-18:00, 'fri': 09:00-18:00, 'sat': выходной, 'sun': выходной",55.848516,48.501818,"4,4",['8 (800) 555-55-50Показать телефон'],"['http://ok.ru/sberbank', 'https://t.me/sberbank', 'https://vk.com/sberbank']",81,83,88,69,,2024-06-21 20:40:33
7,1084877492,СберБанк,"Паратская ул., 13, Зеленодольск",www.sberbank.ru,"'mon': выходной, 'tue': выходной, 'wed': выходной, 'thu': выходной, 'fri': выходной, 'sat': выходной, 'sun': выходной",55.851950,48.488768,"4,3",['8 (800) 555-55-50Показать телефон'],"['http://ok.ru/sberbank', 'https://vk.com/sberbank']",84,81,88,,,2024-06-21 20:40:33
8,215252238175,СберБанк,"Первомайская ул., 2, посёлок Октябрьский",www.sberbank.ru,"'mon': 08:30-12:00,12:45-16:15, 'tue': 08:30-12:00,12:45-16:15, 'wed': 08:30-12:00,12:45-16:15, 'thu': 08:30-12:00,12:45-16:15, 'fri': 08:30-12:00,12:45-16:15, 'sat': выходной, 'sun': выходной",55.831757,48.800601,"3,2",['8 (800) 555-55-50Показать телефон'],"['http://ok.ru/sberbank', 'https://vk.com/sberbank']",,,,,,2024-06-21 20:40:33
