,ID,name,address,website,opening_hours,lat,lon,rating,phone,social,Персонал,Время ожидания,Банкомат,load_time
0,sberbank/1114990316,СберБанк,"ул. Комарова, 23, Зеленодольск",www.sberbank.com,"'mon': 09:00-18:00, 'tue': 09:00-18:00, 'wed': 09:00-18:00, 'thu': 09:00-18:00, 'fri': 09:00-18:00, 'sat': 09:00-14:30, 'sun': выходной, ",55.857407,48.563616,"4,4",['8 (800) 555-55-50Показать телефон'],"['http://ok.ru/sberbank', 'https://vk.com/sberbank']",83,80,,2024-07-29 01:41:32
1,sberbank/1101618506,СберБанк,"Столичная ул., 18А, Зеленодольск",www.sberbank.com,"'mon': 09:00-18:00, 'tue': 09:00-18:00, 'wed': 09:00-18:00, 'thu': 09:00-18:00, 'fri': 09:00-18:00, 'sat': выходной, 'sun': выходной, ",55.851329,48.564568,"4,4",['8 (800) 555-55-50Показать телефон'],"['http://ok.ru/sberbank', 'https://vk.com/sberbank']",,,,2024-07-29 01:41:32
2,sberbank/1020962258,СберБанк,"ул. Ленина, 70, Зеленодольск",www.sberbank.com,"'mon': 08:30-18:00, 'tue': 08:30-18:00, 'wed': 08:30-18:00, 'thu': 08:30-18:00, 'fri': 08:30-18:00, 'sat': 08:30-15:30, 'sun': выходной, ",55.845542,48.524944,"4,5",['8 (800) 555-55-50Показать телефон'],"['http://ok.ru/sberbank', 'https://vk.com/sberbank']",86,72,83,2024-07-29 01:41:32
3,sberbank/1120255562,СберБанк,"Школьная ул., 10И, село Айша",www.sberbank.com,"'mon': 08:00-15:30, 'tue': 08:00-15:30, 'wed': 08:00-15:30, 'thu': 08:00-15:30, 'fri': 08:00-15:15, 'sat': выходной, 'sun': выходной, ",55.870324,48.631016,"4,1",['8 (800) 555-55-50Показать телефон'],"['http://ok.ru/sberbank', 'https://vk.com/sberbank']",,,,2024-07-29 01:41:32
4,sberbank/1830723681,СберБанк,"Спортивная ул., 18, п. г. т. Васильево",www.sberbank.com,"'mon': 08:45-18:00, 'tue': 08:45-18:00, 'wed': 08:45-18:00, 'thu': выходной, 'fri': 08:45-18:00, 'sat': 08:15-13:30, 'sun': выходной, ",55.835104,48.662449,"4,4",['8 (800) 555-55-50Показать телефон'],"['http://ok.ru/sberbank', 'https://vk.com/sberbank']",,,,2024-07-29 01:41:32
5,sberbank/1015074699,СберБанк,"Школьная ул., 25, п. г. т. Васильево",www.sberbank.com,"'mon': 08:00-17:00, 'tue': 08:00-17:00, 'wed': 08:00-17:00, 'thu': 08:00-17:00, 'fri': 08:00-17:00, 'sat': выходной, 'sun': выходной, ",55.829977,48.687341,"4,3",['8 (800) 555-55-50Показать телефон'],"['http://ok.ru/sberbank', 'https://vk.com/sberbank']",,,,2024-07-29 01:41:32
6,sberbank/94526176797,СберБанк,"ул. Татарстан, 10, Зеленодольск",www.sberbank.com,"'mon': 09:00-18:00, 'tue': 09:00-18:00, 'wed': 09:00-18:00, 'thu': 09:00-18:00, 'fri': 09:00-18:00, 'sat': выходной, 'sun': выходной, ",55.848286,48.501938,"4,4",['8 (800) 555-55-50Показать телефон'],"['http://ok.ru/sberbank', 'https://t.me/sberbank', 'https://vk.com/sberbank']",89,69,,2024-07-29 01:41:32
7,sberbank/1084877492,СберБанк,"Паратская ул., 13, Зеленодольск",,"'mon': выходной, 'tue': выходной, 'wed': выходной, 'thu': выходной, 'fri': выходной, 'sat': выходной, 'sun': выходной, ",55.851905,48.488823,"4,3",['8 (800) 555-55-50Показать телефон'],"['http://ok.ru/sberbank', 'https://vk.com/sberbank']",,,,2024-07-29 01:41:32
8,sberbank/215252238175,СберБанк,"Первомайская ул., 2, посёлок Октябрьский",www.sberbank.com,"'mon': 08:30-16:15, 'tue': 08:30-16:15, 'wed': 08:30-16:15, 'thu': 08:30-16:15, 'fri': 08:30-16:15, 'sat': выходной, 'sun': выходной, ",55.831757,48.800601,"3,3",['8 (800) 555-55-50Показать телефон'],"['http://ok.ru/sberbank', 'https://vk.com/sberbank']",,,,2024-07-29 01:41:32
