,ID,name,address,website,opening_hours,lat,lon,rating,phone,social,Персонал,Время ожидания,График работы,Банкомат,Расположение,Кредит,Ипотека,load_time
0,sberbank/1031233215,СберБанк,"ул. 8 Марта, 32, Иваново",www.sberbank.com,"'mon': 10:00-21:00, 'tue': 10:00-21:00, 'wed': 10:00-21:00, 'thu': 10:00-21:00, 'fri': 10:00-21:00, 'sat': 10:00-21:00, 'sun': 10:00-21:00, ",57.005534,40.985311,"4,6",['8 (800) 555-55-50Показать телефон'],"['http://ok.ru/sberbank', 'https://t.me/sberbank', 'https://vk.com/sberbank']",77,56,94,61,93,,,2024-07-29 01:51:30
1,sberbank/65188014159,СберБанк,"Шереметевский просп., 83, Иваново",www.sberbank.com,"'mon': 09:00-18:30, 'tue': 09:00-18:30, 'wed': 09:00-18:30, 'thu': 09:00-18:30, 'fri': 09:00-18:30, 'sat': 09:30-13:00, 'sun': выходной, ",57.006524,40.989130,"4,5",['8 (800) 555-55-50Показать телефон'],"['https://ok.ru/sberbank', 'https://vk.com/sberbank']",82,75,,,83,73,70,2024-07-29 01:51:30
2,sberbank/1083636880,СберБанк,"просп. Ленина, 116, Иваново",www.sberbank.com,"'mon': выходной, 'tue': выходной, 'wed': выходной, 'thu': выходной, 'fri': выходной, 'sat': выходной, 'sun': выходной, ",57.020697,40.969115,"4,6",['8 (800) 555-55-50Показать телефон'],"['http://ok.ru/sberbank', 'https://t.me/sberbank', 'https://vk.com/sberbank']",82,73,,80,,,,2024-07-29 01:51:30
3,sberbank/1118139117,СберБанк,"ул. Бубнова, 47, Иваново",www.sberbank.com,"'mon': 09:00-18:00, 'tue': 09:00-18:00, 'wed': 09:00-18:00, 'thu': 09:00-18:00, 'fri': 09:00-18:00, 'sat': 09:30-13:30, 'sun': выходной, ",56.994990,40.992022,"4,7",['8 (800) 555-55-50Показать телефон'],"['http://ok.ru/sberbank', 'https://vk.com/sberbank']",78,67,91,82,100,,,2024-07-29 01:51:30
4,sberbank/1013579197,СберБанк,"просп. Ленина, 62А, Иваново",www.sberbank.com,"'mon': 09:00-18:00, 'tue': 09:00-18:00, 'wed': 09:00-18:00, 'thu': 09:00-18:00, 'fri': 09:00-18:00, 'sat': выходной, 'sun': выходной, ",57.008127,40.973265,"4,3",['8 (800) 555-55-50Показать телефон'],"['https://ok.ru/sberbank', 'https://vk.com/sberbank']",73,61,,38,77,,,2024-07-29 01:51:30
5,sberbank/1087470587,СберБанк,"ул. Свободы, 52, Иваново",www.sberbank.com,"'mon': 09:00-18:00, 'tue': 09:00-18:00, 'wed': 09:00-18:00, 'thu': 09:00-18:00, 'fri': 09:00-18:00, 'sat': 09:30-13:00, 'sun': выходной, ",57.017213,41.011479,"4,6",['8 (800) 555-55-50Показать телефон'],"['http://ok.ru/sberbank', 'https://t.me/sberbank', 'https://vk.com/sberbank']",82,62,70,92,,,,2024-07-29 01:51:30
6,sberbank/1059529985,СберБанк,"ул. Пушкина, 9Б, Иваново",www.sberbank.com,"'mon': 09:00-18:00, 'tue': 09:00-18:00, 'wed': 09:00-18:00, 'thu': 09:00-18:00, 'fri': 09:00-18:00, 'sat': выходной, 'sun': выходной, ",56.999782,40.983672,"4,5",['8 (800) 555-55-50Показать телефон'],"['http://ok.ru/sberbank', 'https://t.me/sberbank', 'https://vk.com/sberbank']",100,100,,,,,,2024-07-29 01:51:30
7,sberbank/1210632533,СберБанк,"ул. Богдана Хмельницкого, 3, Иваново",www.sberbank.com,"'mon': 09:00-18:00, 'tue': 09:00-18:00, 'wed': 09:00-18:00, 'thu': 09:00-18:00, 'fri': 09:00-18:00, 'sat': 09:30-14:00, 'sun': выходной, ",56.991278,40.973615,"4,4",['8 (800) 555-55-50Показать телефон'],"['https://ok.ru/sberbank', 'https://vk.com/sberbank']",73,44,,27,,,,2024-07-29 01:51:30
8,sberbank/1105177209,СберБанк,"ул. Кузнецова, 28, Иваново",www.sberbank.com,"'mon': 09:00-18:00, 'tue': 09:00-18:00, 'wed': 09:00-18:00, 'thu': 09:00-18:00, 'fri': 09:00-18:00, 'sat': выходной, 'sun': выходной, ",56.999608,40.964731,"4,4",['8 (800) 555-55-50Показать телефон'],"['http://ok.ru/sberbank', 'https://vk.com/sberbank']",79,59,,46,,,,2024-07-29 01:51:30
9,sberbank/1068045174,СберБанк,"ул. Парижской Коммуны, 24, Иваново",www.sberbank.com,"'mon': 09:00-18:00, 'tue': 09:00-18:00, 'wed': 09:00-18:00, 'thu': 09:04-18:00, 'fri': 09:00-18:00, 'sat': выходной, 'sun': выходной, ",56.998907,40.948831,"4,4",['8 (800) 555-55-50Показать телефон'],"['https://ok.ru/sberbank', 'https://t.me/sberbank', 'https://vk.com/sberbank']",80,48,,30,60,,,2024-07-29 01:51:30
10,sberbank/1030051381,СберБанк,"Лежневская ул., 157, Иваново",www.sberbank.com,"'mon': 08:30-19:00, 'tue': 08:30-19:00, 'wed': 08:30-19:00, 'thu': 08:30-19:00, 'fri': 08:30-19:00, 'sat': 09:30-14:30, 'sun': выходной, ",56.972276,40.974730,"4,5",['8 (800) 555-55-50Показать телефон'],"['http://ok.ru/sberbank', 'https://t.me/sberbank', 'https://vk.com/sberbank']",70,42,73,86,100,,,2024-07-29 01:51:30
11,sberbank/1071012886,СберБанк,"площадь Меланжистов, 5, Иваново",www.sberbank.com,"'mon': 09:00-18:00, 'tue': 09:00-18:00, 'wed': 09:00-18:00, 'thu': 09:00-18:00, 'fri': 09:00-18:00, 'sat': выходной, 'sun': выходной, ",56.986609,41.027900,"4,7",['8 (800) 555-55-50Показать телефон'],"['http://ok.ru/sberbank', 'https://t.me/s/sberbank', 'https://vk.com/sberbank', 'https://www.youtube.com/channel/UC1ZKyde6xeiK47dPqUWwZYw']",89,63,,65,92,,,2024-07-29 01:51:30
12,sberbank/1097171815,СберБанк,"просп. Текстильщиков, 10/16, Иваново",www.sberbank.com,"'mon': 08:00-19:00, 'tue': 08:00-19:00, 'wed': 08:00-19:00, 'thu': 08:00-19:00, 'fri': 08:00-19:00, 'sat': 08:30-14:00, 'sun': выходной, ",56.960387,41.007886,"4,7",['8 (800) 555-55-50Показать телефон'],"['https://ok.ru/sberbank', 'https://t.me/s/sberbank', 'https://vk.com/sberbank', 'https://www.youtube.com/channel/UCC1AHvtI8Z7w7y7DGCMdZpg']",83,67,,68,100,52,79,2024-07-29 01:51:30
13,sberbank/1055692612,СберБанк,"ул. Богдана Хмельницкого, 73, Иваново",www.sberbank.com,"'mon': 09:00-18:00, 'tue': 09:00-18:00, 'wed': 09:00-18:00, 'thu': 09:00-18:00, 'fri': 09:00-18:00, 'sat': 09:30-13:30, 'sun': выходной, ",56.983005,40.959126,"4,6",['8 (800) 555-55-50Показать телефон'],"['http://ok.ru/sberbank', 'https://t.me/sberbank', 'https://vk.com/sberbank']",70,54,,47,,,,2024-07-29 01:51:30
14,sberbank/1716101379,СберБанк,"Революционная ул., 16, Иваново",www.sberbank.com,"'mon': 09:00-18:00, 'tue': 09:00-18:00, 'wed': 09:00-18:00, 'thu': 09:00-18:00, 'fri': 09:00-18:00, 'sat': выходной, 'sun': выходной, ",57.031470,40.921989,"4,5",['8 (800) 555-55-50Показать телефон'],"['http://ok.ru/sberbank', 'https://vk.com/sberbank', 'https://www.youtube.com/channel/UC1ZKyde6xeiK47dPqUWwZYw']",77,67,,45,,,,2024-07-29 01:51:30
15,sberbank/1095243879,СберБанк,"Кохомское ш., 4А, Иваново",www.sberbank.com,"'mon': 09:00-18:30, 'tue': 09:00-18:30, 'wed': 09:00-18:30, 'thu': 09:00-18:30, 'fri': 09:00-18:30, 'sat': 09:30-13:00, 'sun': выходной, ",56.949260,41.051527,"4,7",['8 (800) 555-55-50Показать телефон'],"['http://ok.ru/sberbank', 'https://t.me/sberbank', 'https://vk.com/sberbank']",82,72,,68,90,,,2024-07-29 01:51:30
16,sberbank/108862040949,СберБанк,"Ивановская ул., 65, Кохма",www.sberbank.com,"'mon': 09:00-18:00, 'tue': 09:00-18:00, 'wed': 09:00-18:00, 'thu': 09:00-18:00, 'fri': 09:00-18:00, 'sat': выходной, 'sun': выходной, ",56.940457,41.059935,"4,5",['8 (800) 555-55-50Показать телефон'],"['http://ok.ru/sberbank', 'https://vk.com/sberbank']",48,32,,,,,,2024-07-29 01:51:30
17,sberbank/1059181506,СберБанк,"Радужная ул., 1В, село Ново-Талицы",www.sberbank.com,"'mon': выходной, 'tue': 08:45-17:00, 'wed': 08:45-17:00, 'thu': 08:45-17:00, 'fri': 08:45-17:00, 'sat': 08:45-13:15, 'sun': выходной, ",57.006348,40.863931,"4,3",['8 (800) 555-55-50Показать телефон'],"['http://ok.ru/sberbank', 'https://vk.com/sberbank']",,,,,,,,2024-07-29 01:51:30
