,ID,name,address,website,opening_hours,lat,lon,rating,phone,social,Персонал,Время ожидания,Банкомат,График работы,Расположение,load_time
0,sberbank/1209542396,СберБанк,"Большевистская ул., 4, посёлок Карагайлинский",www.sberbank.com,"'mon': выходной, 'tue': 08:30-17:45, 'wed': 08:30-17:45, 'thu': 08:30-17:45, 'fri': 08:30-17:45, 'sat': 08:30-13:00, 'sun': выходной, ",54.148343,86.609118,"3,9",['8 (800) 555-55-50Показать телефон'],"['http://ok.ru/sberbank', 'https://vk.com/sberbank']",,,,,,2024-07-30 10:24:45
1,sberbank/1268080222,СберБанк,"Союзная ул., 51, Прокопьевск",www.sberbank.com,"'mon': выходной, 'tue': 08:30-18:00, 'wed': 08:30-18:00, 'thu': 08:30-18:00, 'fri': 08:30-18:00, 'sat': 08:30-14:30, 'sun': выходной, ",53.946763,86.733140,"4,2",['8 (800) 555-55-50Показать телефон'],"['http://ok.ru/sberbank', 'https://vk.com/sberbank']",88,54,,,,2024-07-30 10:24:45
2,sberbank/1256302772,СберБанк,"Студенческая ул., 10, Киселёвск",www.sberbank.com,"'mon': 09:00-18:00, 'tue': 09:00-18:00, 'wed': 09:00-18:00, 'thu': 09:00-18:00, 'fri': 09:00-18:00, 'sat': выходной, 'sun': выходной, ",54.005538,86.706711,"4,4",['8 (800) 555-55-50Показать телефон'],"['http://ok.ru/sberbank', 'https://vk.com/sberbank']",83,,28,0,,2024-07-30 10:24:45
3,sberbank/1194468036,СберБанк,"просп. Гагарина, 28, Прокопьевск",www.sberbank.com,"'mon': 09:00-18:00, 'tue': 09:00-18:00, 'wed': 09:00-18:00, 'thu': 09:00-18:00, 'fri': 09:00-18:00, 'sat': 09:30-15:00, 'sun': выходной, ",53.872406,86.642437,"4,6",['8 (800) 555-55-50Показать телефон'],"['http://ok.ru/sberbank', 'https://vk.com/sberbank']",88,80,77,,100,2024-07-30 10:24:45
4,sberbank/93836385383,СберБанк,"ул. 50 лет Города, 27А, Киселёвск",www.sberbank.ru,"'mon': выходной, 'tue': выходной, 'wed': выходной, 'thu': выходной, 'fri': выходной, 'sat': выходной, 'sun': выходной, ",53.999272,86.550396,"4,5",['8 (800) 555-55-50Показать телефон'],"['http://ok.ru/sberbank', 'https://vk.com/sberbank', 'https://youtube.com/user/Sberbank']",77,60,,,,2024-07-30 10:24:45
5,sberbank/1083655986,СберБанк,"Центральная ул., 30, село Терентьевское",www.sberbank.com,"'mon': выходной, 'tue': 09:00-17:00, 'wed': 09:00-17:00, 'thu': выходной, 'fri': 09:00-17:00, 'sat': 09:00-13:00, 'sun': выходной, ",54.093351,86.946283,"4,4",['8 (800) 555-55-50Показать телефон'],"['http://ok.ru/sberbank', 'https://vk.com/sberbank']",,,,,,2024-07-30 10:24:45
6,sberbank/1140137880,СберБанк,"просп. Гагарина, 3, Прокопьевск",www.sberbank.com,"'mon': 09:00-17:30, 'tue': 09:00-17:30, 'wed': 09:00-17:30, 'thu': 09:00-17:30, 'fri': 09:00-17:30, 'sat': 09:30-13:30, 'sun': выходной, ",53.871753,86.655993,"4,4",['8 (800) 555-55-50Показать телефон'],"['http://ok.ru/sberbank', 'https://vk.com/sberbank']",81,68,73,,,2024-07-30 10:24:45
7,sberbank/4432171923,СберБанк,"ул. Есенина, 102, Прокопьевск",www.sberbank.com,"'mon': 09:00-17:30, 'tue': 09:00-17:30, 'wed': 09:00-17:30, 'thu': 09:00-17:30, 'fri': 09:00-17:30, 'sat': выходной, 'sun': выходной, ",53.876526,86.610547,"4,5",['8 (800) 555-55-50Показать телефон'],"['http://ok.ru/sberbank', 'https://vk.com/sberbank']",,,,,,2024-07-30 10:24:45
8,sberbank/1096740311,СберБанк,"Комсомольская ул., 20, п. г. т. Краснобродский",www.sberbank.com,"'mon': 09:00-17:30, 'tue': 09:00-17:30, 'wed': 09:00-17:30, 'thu': 09:00-17:30, 'fri': 09:00-17:30, 'sat': выходной, 'sun': выходной, ",54.162410,86.445409,"4,4",['8 (800) 555-55-50Показать телефон'],"['http://ok.ru/sberbank', 'https://vk.com/sberbank']",,,,,,2024-07-30 10:24:45
9,sberbank/1093002557,СберБанк,"Промышленная ул., 3, Киселёвск",www.sberbank.com,"'mon': 09:00-18:00, 'tue': 09:00-18:00, 'wed': 09:00-18:00, 'thu': 09:00-18:00, 'fri': 09:00-18:00, 'sat': 09:00-13:30, 'sun': выходной, ",54.003358,86.632017,"4,1",['8 (800) 555-55-50Показать телефон'],"['http://ok.ru/sberbank', 'https://vk.com/sberbank', 'https://youtube.com/user/Sberbank']",86,67,,,,2024-07-30 10:24:45
10,sberbank/1165016861,СберБанк,"ул. Селиванова, 2, Прокопьевск",www.sberbank.com,"'mon': 09:00-17:30, 'tue': 09:00-17:30, 'wed': 09:00-17:30, 'thu': 09:00-17:30, 'fri': 09:00-17:30, 'sat': 09:00-13:30, 'sun': выходной, ",53.881998,86.750810,"4,4",['8 (800) 555-55-50Показать телефон'],"['http://ok.ru/sberbank', 'https://t.me/sberbank', 'https://vk.com/sberbank']",90,74,92,,,2024-07-30 10:24:45
11,sberbank/1211891222,СберБанк,"Томская ул., 20/5, Киселёвск",www.sberbank.com,"'mon': 09:00-17:30, 'tue': 09:00-17:30, 'wed': 09:00-17:30, 'thu': 09:00-17:30, 'fri': 09:00-17:30, 'sat': выходной, 'sun': выходной, ",53.970608,86.721974,"4,6",['8 (800) 555-55-50Показать телефон'],"['http://ok.ru/sberbank', 'https://vk.com/sberbank']",,,,,,2024-07-30 10:24:45
12,sberbank/1167469485,СберБанк,"Советская ул., 48, посёлок Трудармейский",www.sberbank.com,"'mon': выходной, 'tue': 09:15-17:45, 'wed': 09:15-17:45, 'thu': 09:15-17:45, 'fri': 09:15-17:45, 'sat': 09:30-13:00, 'sun': выходной, ",54.130003,86.409666,"2,5",['8 (800) 555-55-50Показать телефон'],"['http://ok.ru/sberbank', 'https://vk.com/sberbank']",,,,,,2024-07-30 10:24:45
13,sberbank/1325576278,СберБанк,"ул. Кучина, 1А, Прокопьевск",www.sberbank.com,"'mon': 09:00-17:30, 'tue': 09:00-17:30, 'wed': 09:00-17:30, 'thu': 09:00-17:30, 'fri': 09:00-17:30, 'sat': выходной, 'sun': выходной, ",53.910792,86.789743,"4,5",['8 (800) 555-55-50Показать телефон'],"['http://ok.ru/sberbank', 'https://vk.com/sberbank']",84,80,0,,,2024-07-30 10:24:45
