,ID,name,address,website,opening_hours,lat,lon,rating,phone,social,Персонал,Время ожидания,Банкомат,Расположение,График работы,load_time
0,sberbank/1099643556,СберБанк,"Февральская ул., 55, Апрелевка",www.sberbank.com,"'mon': 09:00-18:00, 'tue': 09:00-18:00, 'wed': 09:00-18:00, 'thu': 09:00-18:00, 'fri': 09:00-18:00, 'sat': 09:00-15:00, 'sun': выходной, ",55.552327,37.083955,"4,6",['8 (800) 555-55-50Показать телефон'],"['http://ok.ru/sberbank', 'https://vk.com/sberbank']",80,59,55,40,,2024-07-30 04:09:51
1,sberbank/1150473829,СберБанк,"Молодёжная ул., 2/1, Краснознаменск",www.sberbank.com,"'mon': 10:00-20:00, 'tue': 10:00-20:00, 'wed': 10:00-20:00, 'thu': 10:00-20:00, 'fri': 10:00-20:00, 'sat': 10:00-19:00, 'sun': 10:00-16:00, ",55.601498,37.044231,"4,5",['8 (800) 555-55-50Показать телефон'],"['http://ok.ru/sberbank', 'https://vk.com/sberbank']",79,57,42,,24,2024-07-30 04:09:51
2,sberbank/1110576565,СберБанк,"Парковая ул., 3, Апрелевка",www.sberbank.com,"'mon': 09:00-18:30, 'tue': 09:00-18:30, 'wed': 09:00-18:30, 'thu': 09:00-18:30, 'fri': 10:30-18:30, 'sat': выходной, 'sun': выходной, ",55.553656,37.072672,"4,8",['8 (800) 555-55-50Показать телефон'],"['http://ok.ru/sberbank', 'https://vk.com/sberbank']",89,74,44,83,,2024-07-30 04:09:51
3,sberbank/1259332543,СберБанк,"2-я Советская ул., 1, стр. 1, село Жаворонки",www.sberbank.com,"'mon': выходной, 'tue': 08:45-18:15, 'wed': 08:45-18:15, 'thu': выходной, 'fri': 08:45-18:15, 'sat': 08:45-18:15, 'sun': выходной, ",55.642438,37.097735,"1,4",['8 (800) 555-55-50Показать телефон'],"['http://ok.ru/sberbank', 'https://vk.com/sberbank']",,,0,,0,2024-07-30 04:09:51
4,sberbank/1067192676,СберБанк,"Зелёная ул., 2, посёлок Летний Отдых",www.sberbank.com,"'mon': выходной, 'tue': выходной, 'wed': выходной, 'thu': выходной, 'fri': 09:00-16:30, 'sat': выходной, 'sun': выходной, ",55.641072,36.972259,"2,3",['8 (800) 555-55-50Показать телефон'],"['http://ok.ru/sberbank', 'https://vk.com/sberbank']",,,,,,2024-07-30 04:09:51
5,sberbank/1033382579,СберБанк,"Можайское ш., 4, рабочий посёлок Большие Вязёмы",www.sberbank.com,"'mon': 09:00-18:00, 'tue': 09:00-18:00, 'wed': 09:00-18:00, 'thu': 09:00-18:00, 'fri': 09:00-18:00, 'sat': выходной, 'sun': выходной, ",55.629146,37.005452,"4,6",['8 (800) 555-55-50Показать телефон'],"['http://ok.ru/sberbank', 'https://vk.com/sberbank']",81,79,33,100,38,2024-07-30 04:09:51
6,sberbank/214796228178,СберБанк,"ул. ДОС, 3Б, рабочий посёлок Калининец",www.sberbank.com,"'mon': выходной, 'tue': 08:30-17:30, 'wed': 08:30-17:30, 'thu': 08:30-17:30, 'fri': 08:30-17:30, 'sat': 08:30-17:30, 'sun': выходной, ",55.567962,36.995992,"4,4",['8 (800) 555-55-50Показать телефон'],"['http://ok.ru/sberbank', 'https://vk.com/sberbank']",,,,,,2024-07-30 04:09:51
7,sberbank/1172834802,СберБанк,"Звенигородское ш., 15А, Голицыно",www.sberbank.com,"'mon': 09:00-18:00, 'tue': 09:00-18:00, 'wed': 09:00-18:00, 'thu': 09:00-18:00, 'fri': 09:00-18:00, 'sat': 09:00-16:00, 'sun': выходной, ",55.618669,36.986120,"4,7",['8 (800) 555-55-50Показать телефон'],"['http://ok.ru/sberbank', 'https://vk.com/sberbank']",89,61,70,,57,2024-07-30 04:09:51
