,ID,name,address,website,opening_hours,lat,lon,rating,phone,social,Обслуживание,Отношение к клиентам,Персонал,Время ожидания,Банкомат,Расположение,График работы,load_time
0,1099643556,СберБанк,"Февральская ул., 55, Апрелевка",www.sberbank.ru,"'mon': 09:00-18:00, 'tue': 09:00-18:00, 'wed': 09:00-18:00, 'thu': 09:00-18:00, 'fri': 09:00-18:00, 'sat': 09:00-15:00, 'sun': выходной",55.552707,37.083787,"4,6",['8 (800) 555-55-50Показать телефон'],"['http://ok.ru/sberbank', 'https://vk.com/sberbank']",77,79,81,60,55,40,,2024-06-25 09:34:43
1,1150473829,СберБанк,"Молодёжная ул., 2/1, Краснознаменск",www.sberbank.ru,"'mon': выходной, 'tue': выходной, 'wed': выходной, 'thu': выходной, 'fri': выходной, 'sat': выходной, 'sun': выходной",55.601229,37.044349,"4,5",['8 (800) 555-55-50Показать телефон'],"['http://ok.ru/sberbank', 'https://vk.com/sberbank']",79,80,78,58,42,,25,2024-06-25 09:34:43
2,1110576565,СберБанк,"Парковая ул., 3, Апрелевка",www.sberbank.ru,"'mon': 10:10-18:30, 'tue': 09:00-18:30, 'wed': 09:00-18:30, 'thu': 09:00-18:30, 'fri': 09:00-18:30, 'sat': выходной, 'sun': выходной",55.553656,37.072672,"4,8",['8 (800) 555-55-50Показать телефон'],"['http://ok.ru/sberbank', 'https://vk.com/sberbank']",88,89,89,74,44,83,,2024-06-25 09:34:43
3,1259332543,СберБанк,"2-я Советская ул., 1, стр. 1, село Жаворонки",www.sberbank.ru,"'mon': выходной, 'tue': 08:45-13:00,13:45-18:15, 'wed': 08:45-13:00,13:45-18:15, 'thu': выходной, 'fri': 08:45-13:00,13:45-18:15, 'sat': 08:45-13:00,13:45-18:15, 'sun': выходной",55.642438,37.097735,"1,5",['8 (800) 555-55-50Показать телефон'],"['http://ok.ru/sberbank', 'https://vk.com/sberbank']",17,,,,0,,0,2024-06-25 09:34:43
4,1067192676,СберБанк,"Зелёная ул., 2, посёлок Летний Отдых",www.sberbank.ru,"'mon': выходной, 'tue': выходной, 'wed': выходной, 'thu': выходной, 'fri': 09:00-13:00,13:30-16:30, 'sat': выходной, 'sun': выходной",55.641072,36.972259,"2,2",['8 (800) 555-55-50Показать телефон'],"['http://ok.ru/sberbank', 'https://vk.com/sberbank']",55,60,,,,,6,2024-06-25 09:34:43
5,1033382579,СберБанк,"Можайское ш., 5, рабочий посёлок Большие Вязёмы",www.sberbank.ru,"'mon': 09:00-18:00, 'tue': 09:00-18:00, 'wed': 09:00-18:00, 'thu': 09:00-18:00, 'fri': 09:00-18:00, 'sat': выходной, 'sun': выходной",55.629394,37.006503,"4,6",['8 (800) 555-55-50Показать телефон'],"['http://ok.ru/sberbank', 'https://vk.com/sberbank']",81,79,81,79,33,100,38,2024-06-25 09:34:43
6,214796228178,СберБанк,"ул. ДОС, 3Б, рабочий посёлок Калининец",www.sberbank.ru,"'mon': выходной, 'tue': 08:30-17:30, 'wed': 08:30-17:30, 'thu': 08:30-17:30, 'fri': 08:30-17:30, 'sat': 08:30-17:30, 'sun': выходной",55.567962,36.995992,"4,4",['8 (800) 555-55-50Показать телефон'],"['http://ok.ru/sberbank', 'https://vk.com/sberbank']",,,,,,,,2024-06-25 09:34:43
7,1172834802,СберБанк,"Звенигородское ш., 15А, Голицыно",www.sberbank.ru,"'mon': 09:00-18:00, 'tue': 09:00-18:00, 'wed': 09:00-18:00, 'thu': 09:00-18:00, 'fri': 09:00-18:00, 'sat': 09:00-16:00, 'sun': выходной",55.618619,36.986198,"4,7",['8 (800) 555-55-50Показать телефон'],"['http://ok.ru/sberbank', 'https://vk.com/sberbank']",85,86,90,62,70,,54,2024-06-25 09:34:43
