,ID,name,address,website,opening_hours,lat,lon,rating,phone,social,Обслуживание,Отношение к клиентам,Персонал,Время ожидания,load_time
0,1003349435,СберБанк,"ул. Свердлова, 39, Ливны",www.sberbank.ru,"'mon': 08:30-18:00, 'tue': 08:30-18:00, 'wed': 08:30-18:00, 'thu': 08:30-18:00, 'fri': 08:30-18:00, 'sat': 08:30-14:30, 'sun': выходной",52.422246,37.610677,"4,6",['8 (800) 555-55-50Показать телефон'],"['http://ok.ru/sberbank', 'https://vk.com/sberbank']",71,70,71,62,2024-06-22 01:41:26
1,1099068093,СберБанк,"ул. Победы, 5, Ливны",www.sberbank.ru,"'mon': 09:00-18:00, 'tue': 09:00-18:00, 'wed': 09:00-18:00, 'thu': 09:00-18:00, 'fri': 09:00-18:00, 'sat': 09:00-13:00, 'sun': выходной",52.406973,37.567608,"4,6",['8 (800) 555-55-50Показать телефон'],"['http://ok.ru/sberbank', 'https://vk.com/sberbank']",94,93,94,91,2024-06-22 01:41:26
2,69870679516,СберБанк,"ул. Свердлова, 39, Ливны",www.sberbank.ru,"'mon': 09:00-18:00, 'tue': 09:00-18:00, 'wed': 09:00-18:00, 'thu': 09:00-18:00, 'fri': 09:00-18:00, 'sat': выходной, 'sun': выходной",52.422331,37.610581,"4,3",['8 (800) 555-55-50Показать телефон'],"['http://ok.ru/sberbank', 'https://vk.com/sberbank']",,,,,2024-06-22 01:41:26
3,35473309414,СберБанк,"Комсомольская площадь, 10, посёлок Сахзаводской",www.sberbank.ru,"'mon': 09:00-13:00,14:00-17:00, 'tue': 09:00-13:00,14:00-17:00, 'wed': 09:00-13:00,14:00-17:00, 'thu': 09:00-13:00,14:00-17:00, 'fri': 09:00-13:00,14:00-17:00, 'sat': выходной, 'sun': выходной",52.429998,37.517446,"3,9",['8 (800) 555-55-50Показать телефон'],"['http://ok.ru/sberbank', 'https://vk.com/sberbank']",,,,,2024-06-22 01:41:26
4,1006711126,СберБанк,"Орловская область, Ливенский район, Козьминское сельское поселение, посёлок Совхозный, Центральная улица",www.sberbank.ru,"'mon': 08:30-12:30, 'tue': выходной, 'wed': выходной, 'thu': выходной, 'fri': выходной, 'sat': 08:00-11:30, 'sun': выходной",52.431815,37.658176,"3,8",['8 (800) 555-55-50Показать телефон'],"['http://ok.ru/sberbank', 'https://vk.com/sberbank']",,,,,2024-06-22 01:41:26
5,74272840963,СберБанк,"ул. Пентюхова, 2, село Сергиевское",www.sberbank.ru,"'mon': выходной, 'tue': выходной, 'wed': выходной, 'thu': выходной, 'fri': выходной, 'sat': выходной, 'sun': выходной",52.363209,37.699176,"3,7",['8 (800) 555-55-50Показать телефон'],['https://vk.com/sberbank'],,,,,2024-06-22 01:41:26
