,ID,name,address,website,opening_hours,lat,lon,rating,phone,social,Обслуживание,Отношение к клиентам,Персонал,Время ожидания,Банкомат,Расположение,График работы,Кредит,Вклад,Ремонт,Ипотека,Доступность,load_time
0,1132778715,СберБанк,"Валовая ул., 8/18, Москва",www.sberbank.ru,"'mon': 08:30-20:00, 'tue': 08:30-20:00, 'wed': 08:30-20:00, 'thu': 08:30-20:00, 'fri': 08:30-20:00, 'sat': 09:00-16:00, 'sun': 10:00-15:00",55.730828,37.632204,"4,3",['8 (800) 555-55-50Показать телефон'],"['https://ok.ru/sber/', 'https://t.me/sberbank', 'https://vk.com/sberbank']",68,64,70,64,76,97,58,30,,,,,2024-06-22 03:03:48
1,1090913523,СберБанк,"Новокузнецкая ул., 18/10с3, Москва",www.sberbank.ru,"'mon': выходной, 'tue': выходной, 'wed': выходной, 'thu': выходной, 'fri': выходной, 'sat': выходной, 'sun': выходной",55.736587,37.630929,"4,3",['8 (800) 555-55-50Показать телефон'],"['http://ok.ru/sberbank', 'https://t.me/Sber_Business_Live_bot', 'https://vk.com/careersber']",79,75,81,68,69,100,56,58,,,,,2024-06-22 03:03:48
2,1128554212,СберБанк,"Лубянский пр., 17, Москва",www.sberbank.ru,"'mon': 10:30-19:30, 'tue': 10:30-19:30, 'wed': 10:30-19:30, 'thu': 10:30-19:30, 'fri': 10:30-19:30, 'sat': 10:30-15:30, 'sun': выходной",55.756045,37.633080,"4,1",['8 (800) 555-55-50Показать телефон'],"['https://ok.ru/sber/', 'https://t.me/sberbank', 'https://vk.com/sberbank']",34,29,43,34,45,88,59,12,15,,,,2024-06-22 03:03:48
3,37614298216,СберБанк,"Люсиновская ул., 26-28к6, Москва",www.sberbank.ru,"'mon': 09:00-19:30, 'tue': 09:00-19:30, 'wed': 09:00-19:30, 'thu': 09:00-19:30, 'fri': 09:00-19:30, 'sat': 09:00-19:30, 'sun': выходной",55.725540,37.621991,"4,4",['8 (800) 555-55-50Показать телефон'],"['http://ok.ru/sberbank', 'https://t.me/sberbank', 'https://vk.com/sberbank']",81,79,82,73,74,88,64,,,50,,,2024-06-22 03:03:48
4,1376364371,СберБанк,"Большая Тульская ул., 2, Москва",www.sberbank.ru,"'mon': 09:00-20:00, 'tue': 09:00-20:00, 'wed': 09:00-20:00, 'thu': 09:00-20:00, 'fri': 09:00-20:00, 'sat': 09:30-17:00, 'sun': выходной",55.709354,37.620770,"4,3",['8 (800) 555-55-50Показать телефон'],"['http://ok.ru/sberbank', 'https://vk.com/sberbank']",68,66,67,51,60,69,,,,,,,2024-06-22 03:03:48
5,69232606482,СберБанк,"Таганская ул., 1, стр. 1, Москва",www.sberbank.ru,"'mon': 10:00-20:00, 'tue': 10:00-20:00, 'wed': 10:00-20:00, 'thu': 10:00-20:00, 'fri': 10:00-20:00, 'sat': 10:00-17:00, 'sun': выходной",55.741784,37.655904,"4,3",['8 (800) 555-55-50Показать телефон'],"['https://ok.ru/sberbank', 'https://t.me/sber_students_bot', 'https://vk.com/sberbank']",70,68,70,54,71,77,,,,,,,2024-06-22 03:03:48
6,1003018629,СберБанк,"1-я Дубровская ул., 1А, Москва",www.sberbank.ru,"'mon': выходной, 'tue': выходной, 'wed': выходной, 'thu': выходной, 'fri': выходной, 'sat': выходной, 'sun': выходной",55.728271,37.669362,"4,3",['8 (800) 555-55-50Показать телефон'],"['https://ok.ru/sberbank', 'https://vk.com/sberbank']",88,88,87,75,15,90,6,,,69,,,2024-06-22 03:03:48
7,1084179587,СберБанк,"Автозаводская ул., 7, Москва",www.sberbank.ru,"'mon': 09:00-20:00, 'tue': 09:00-20:00, 'wed': 09:00-20:00, 'thu': 09:00-20:00, 'fri': 09:00-20:00, 'sat': 10:30-17:00, 'sun': выходной",55.707892,37.660413,"4,3",['8 (800) 555-55-50Показать телефон'],"['https://ok.ru/sberbank', 'https://t.me/sberbank', 'https://vk.com/sberbank']",79,81,83,60,64,97,73,,,,,,2024-06-22 03:03:48
8,1676107682,СберБанк,"ул. Вавилова, 3, Москва",www.sberbank.ru,"'mon': 09:00-22:00, 'tue': 09:00-22:00, 'wed': 09:00-22:00, 'thu': 09:00-22:00, 'fri': 09:00-22:00, 'sat': 09:00-22:00, 'sun': 09:00-22:00",55.707158,37.590235,"4,4",['8 (800) 555-55-50Показать телефон'],"['https://ok.ru/sber', 'https://t.me/Sber_Business_Live_bot', 'https://vk.com/careersber']",73,68,73,67,77,88,84,,,,,,2024-06-22 03:03:48
9,1011010028,СберБанк,"Тверская ул., 22, Москва",www.sberbank.ru,"'mon': 09:30-20:00, 'tue': 09:30-20:00, 'wed': 09:30-20:00, 'thu': 09:30-20:00, 'fri': 09:30-20:00, 'sat': 10:00-18:00, 'sun': выходной",55.767646,37.600669,"4,5",['8 (800) 555-55-50Показать телефон'],"['https://ok.ru/sber/', 'https://t.me/sberbank', 'https://vk.com/sberbank']",79,75,81,67,83,93,61,69,,,80,,2024-06-22 03:03:48
10,1118688568,СберБанк,"7-я Кожуховская ул., 9, Москва",www.sberbank.ru,"'mon': 10:00-19:30, 'tue': 10:00-19:30, 'wed': 10:00-19:30, 'thu': 10:00-19:30, 'fri': 10:00-19:30, 'sat': 10:00-16:00, 'sun': выходной",55.710286,37.675576,"4,5",['8 (800) 555-55-50Показать телефон'],"['https://ok.ru/sberbank', 'https://t.me/sber_students_bot', 'https://vk.com/sberbank']",79,79,84,66,41,94,42,,,,,,2024-06-22 03:03:48
11,1044139121,СберБанк,"Шарикоподшипниковская ул., 13, стр. 1, Москва",www.sberbank.ru,"'mon': 09:30-19:30, 'tue': 09:30-19:30, 'wed': 09:30-19:30, 'thu': 09:30-19:30, 'fri': 09:30-19:30, 'sat': 10:00-14:00, 'sun': выходной",55.717158,37.677756,"4,4",['8 (800) 555-55-50Показать телефон'],"['http://ok.ru/sberbank', 'https://t.me/sberbank', 'https://vk.com/sberbank']",71,70,73,53,58,93,,,,,,,2024-06-22 03:03:48
12,124014009186,СберПервый,"ул. Сретенка, 14, Москва",www.sberbank.ru,"'mon': выходной, 'tue': выходной, 'wed': выходной, 'thu': выходной, 'fri': выходной, 'sat': выходной, 'sun': выходной",55.768331,37.632162,"4,4",['8 (800) 555-55-50Показать телефон'],"['https://ok.ru/sber/', 'https://t.me/sberbank', 'https://vk.com/sberbank']",78,76,79,72,87,85,40,78,,,82,,2024-06-22 03:03:48
13,118116731844,СберБанк,"ул. Земляной Вал, 41, стр. 1, Москва",www.sberbank.ru,"'mon': 09:00-19:30, 'tue': 09:00-19:30, 'wed': 09:00-19:30, 'thu': 09:00-19:30, 'fri': 09:00-19:30, 'sat': 10:00-15:30, 'sun': выходной",55.754252,37.657248,"4,3",['8 (800) 555-55-50Показать телефон'],"['https://ok.ru/sberbank', 'https://vk.com/sberbank']",84,84,86,77,63,100,,,,,,,2024-06-22 03:03:48
14,1403583345,СберБанк,"ш. Энтузиастов, 14, Москва",www.sberbank.ru,"'mon': выходной, 'tue': выходной, 'wed': выходной, 'thu': выходной, 'fri': выходной, 'sat': выходной, 'sun': выходной",55.749666,37.710788,"4,5",['8 (800) 555-55-50Показать телефон'],"['https://ok.ru/sber/', 'https://vk.com/sberbank']",77,72,76,74,46,67,33,64,,,83,,2024-06-22 03:03:48
15,1023606569,СберБанк,"Нижегородская ул., 13Б, Москва",www.sberbank.ru,"'mon': 09:30-19:30, 'tue': 09:30-19:30, 'wed': 09:30-19:30, 'thu': 09:30-19:30, 'fri': 09:30-19:30, 'sat': 10:00-15:00, 'sun': выходной",55.737867,37.686789,"4,6",['8 (800) 555-55-50Показать телефон'],"['http://ok.ru/sberbank', 'https://t.me/sberbank', 'https://vk.com/sberbank']",85,82,86,75,72,90,82,,,81,,,2024-06-22 03:03:48
16,1164162982,СберБанк,"2-й Южнопортовый пр., 12А, корп. 1, стр. 13, Москва",www.sberbank.ru,"'mon': 09:30-19:30, 'tue': 09:30-19:30, 'wed': 09:30-19:30, 'thu': 09:30-19:30, 'fri': 09:30-19:30, 'sat': 10:00-17:00, 'sun': выходной",55.702253,37.688881,"4,4",['8 (800) 555-55-50Показать телефон'],"['https://ok.ru/sber/', 'https://t.me/sberbank', 'https://vk.com/sberbank']",82,76,83,79,58,79,36,,,,,,2024-06-22 03:03:48
17,78687331961,СберБанк,"Зубовский бул., вл13с1, Москва",www.sberbank.ru,"'mon': выходной, 'tue': выходной, 'wed': выходной, 'thu': выходной, 'fri': выходной, 'sat': выходной, 'sun': выходной",55.735803,37.592265,"4,4",['8 (800) 555-55-50Показать телефон'],"['https://ok.ru/sber/', 'https://vk.com/sberbank']",66,67,71,56,89,91,67,,,,,,2024-06-22 03:03:48
18,1084286048,СберБанк,"ул. Арбат, 33, Москва",www.sberbank.ru,"'mon': 09:30-19:30, 'tue': 09:30-19:30, 'wed': 09:30-19:30, 'thu': 09:30-19:30, 'fri': 09:30-19:30, 'sat': выходной, 'sun': выходной",55.749533,37.592183,"4,7",['8 (800) 555-55-50Показать телефон'],"['http://ok.ru/sberbank', 'https://t.me/sberbank', 'https://vk.com/sberbank']",76,74,75,59,69,90,67,,,,,,2024-06-22 03:03:48
19,1223180976,СберБанк,"ул. Воздвиженка, 9, стр. 2, Москва",www.sberbank.ru,"'mon': 09:00-19:30, 'tue': 09:00-19:30, 'wed': 09:00-19:30, 'thu': 09:00-19:30, 'fri': 09:00-19:30, 'sat': выходной, 'sun': выходной",55.752699,37.603522,"4,4",['8 (800) 555-55-50Показать телефон'],"['http://ok.ru/sberbank', 'https://vk.com/sberbank']",78,79,85,63,88,100,,,,87,,,2024-06-22 03:03:48
20,1102925442,СберБанк,"Большая Андроньевская ул., 6, Москва",www.sberbank.ru,"'mon': 09:00-19:00, 'tue': 09:00-19:00, 'wed': 09:00-19:00, 'thu': 09:00-19:00, 'fri': 09:00-19:00, 'sat': 10:00-18:00, 'sun': выходной",55.745788,37.669142,"4,3",['8 (800) 555-55-50Показать телефон'],"['http://ok.ru/sberbank', 'https://t.me/sberbank', 'https://vk.com/sberbank']",70,68,76,64,70,78,50,,,,,,2024-06-22 03:03:48
21,1034532827,СберБанк,"Пятницкая ул., 2/38с1, Москва",www.sberbank.ru,"'mon': 10:00-19:00, 'tue': 10:00-19:00, 'wed': 10:00-19:00, 'thu': 10:00-19:00, 'fri': 10:00-19:00, 'sat': 10:00-19:00, 'sun': выходной",55.745901,37.626220,"4,3",['8 (800) 555-55-50Показать телефон'],"['http://ok.ru/sberbank', 'https://t.me/sberbank', 'https://vk.com/sberbank']",69,70,74,48,36,86,17,,,,,,2024-06-22 03:03:48
22,1002928074,СберБанк,"ул. Покровка, 19, Москва",www.sberbank.ru,"'mon': 09:00-20:00, 'tue': 09:00-20:00, 'wed': 09:00-20:00, 'thu': 09:00-20:00, 'fri': 09:00-20:00, 'sat': 09:00-20:00, 'sun': выходной",55.759562,37.646566,"4,4",['8 (800) 555-55-50Показать телефон'],"['https://ok.ru/sber/', 'https://t.me/sberbank', 'https://vk.com/sberbank']",85,85,85,65,63,89,,,,,,,2024-06-22 03:03:48
23,130520017792,СберБанк,"Варшавское ш., 26, Москва",www.sberbank.ru,"'mon': 09:30-20:00, 'tue': 09:30-20:00, 'wed': 09:30-20:00, 'thu': 09:30-20:00, 'fri': 09:30-20:00, 'sat': 10:00-16:00, 'sun': выходной",55.683889,37.622268,"4,4",['8 (800) 555-55-50Показать телефон'],"['https://ok.ru/sberbank', 'https://t.me/sberbank', 'https://vk.com/sberbank']",70,70,72,60,58,100,,,,,,,2024-06-22 03:03:48
24,1063013654,СберБанк,"просп. Андропова, 28, корп. 2, Москва",www.sberbank.ru,"'mon': 08:30-19:30, 'tue': 08:30-19:30, 'wed': 08:30-19:30, 'thu': 08:30-19:30, 'fri': 08:30-19:30, 'sat': 10:00-17:00, 'sun': 10:00-16:00",55.680153,37.663345,"4,4",['8 (800) 555-55-50Показать телефон'],"['https://ok.ru/sberbank', 'https://t.me/sberbank', 'https://vk.com/sberbank']",77,74,78,67,71,93,86,,,,,,2024-06-22 03:03:48
25,1225073823,СберБанк,"Рязанский просп., 2, корп. 2, Москва",www.sberbank.ru,"'mon': 10:00-21:00, 'tue': 10:00-21:00, 'wed': 10:00-21:00, 'thu': 10:00-21:00, 'fri': 10:00-21:00, 'sat': 10:00-21:00, 'sun': 10:00-19:00",55.730484,37.731426,"4,5",['8 (800) 555-55-50Показать телефон'],"['http://ok.ru/sberbank', 'https://t.me/sberbank', 'https://vk.com/sberbank']",70,70,74,52,50,,100,,,,,,2024-06-22 03:03:48
26,45493384758,СберБанк,"ул. Трофимова, 1/17, Москва",www.sberbank.ru,"'mon': выходной, 'tue': выходной, 'wed': выходной, 'thu': 10:00-19:00, 'fri': 10:00-19:00, 'sat': выходной, 'sun': выходной",55.703753,37.660603,"4,5",['8 (800) 555-55-50Показать телефон'],"['http://ok.ru/sberbank', 'https://vk.com/sberbank']",80,80,79,58,80,92,,,,,,,2024-06-22 03:03:48
27,130324574632,СберБанк,"ул. Гиляровского, 39, стр. 3, Москва",www.sberbank.ru,"'mon': 09:00-19:30, 'tue': 09:00-19:30, 'wed': 09:00-19:30, 'thu': 09:00-19:30, 'fri': 09:00-19:30, 'sat': 10:00-18:00, 'sun': выходной",55.783341,37.632300,"4,4",['8 (800) 555-55-50Показать телефон'],"['http://ok.ru/sberbank', 'https://t.me/sberbank', 'https://vk.com/sberbank']",73,70,75,59,49,100,,60,,,89,,2024-06-22 03:03:48
28,1017184068,СберБанк,"бул. Энтузиастов, 2, Москва",www.sberbank.ru,"'mon': 09:00-20:00, 'tue': 09:00-20:00, 'wed': 09:00-20:00, 'thu': 09:00-20:00, 'fri': 09:00-20:00, 'sat': 09:00-20:00, 'sun': выходной",55.746482,37.682717,"4,2",['8 (800) 555-55-50Показать телефон'],"['http://ok.ru/sberbank', 'https://vk.com/sberbank']",58,57,64,52,63,94,,,,,,,2024-06-22 03:03:48
29,1085833756,СберБанк,"Комсомольский просп., 40, Москва",www.sberbank.ru,"'mon': 09:00-20:00, 'tue': 09:00-20:00, 'wed': 09:00-20:00, 'thu': 09:00-20:00, 'fri': 09:00-20:00, 'sat': 09:30-15:30, 'sun': выходной",55.721891,37.573971,"4,4",['8 (800) 555-55-50Показать телефон'],"['http://ok.ru/sberbank', 'https://t.me/sber_students_bot', 'https://vk.com/sberbank']",65,60,66,44,55,96,32,,,93,,,2024-06-22 03:03:48
30,1081974962,СберБанк,"Каланчёвская ул., 15, Москва",www.sberbank.ru,"'mon': 09:00-19:00, 'tue': 09:00-19:00, 'wed': 09:00-19:00, 'thu': 09:00-19:00, 'fri': 09:00-19:00, 'sat': 09:00-16:00, 'sun': выходной",55.771492,37.651599,"4,3",['8 (800) 555-55-50Показать телефон'],"['https://ok.ru/sberbank', 'https://t.me/sberbank', 'https://vk.com/sberbank']",78,77,81,75,67,97,,,,38,,,2024-06-22 03:03:48
31,1019077304,СберБанк,"Брянская ул., 8, Москва",www.sberbank.ru,"'mon': 08:30-19:30, 'tue': 08:30-19:30, 'wed': 08:30-19:30, 'thu': 08:30-19:30, 'fri': 08:30-19:30, 'sat': 09:30-17:00, 'sun': 10:00-16:00",55.744534,37.561452,"4,3",['8 (800) 555-55-50Показать телефон'],"['http://ok.ru/sberbank', 'https://vk.com/sberbank']",74,71,75,64,46,90,57,,,,,,2024-06-22 03:03:48
32,1096875379,СберБанк,"ул. Пресненский Вал, 6, стр. 2, Москва",www.sberbank.ru,"'mon': 10:00-19:30, 'tue': 10:00-19:30, 'wed': 10:00-19:30, 'thu': 10:00-19:30, 'fri': 10:00-19:30, 'sat': 10:00-15:30, 'sun': выходной",55.764578,37.564304,"4,3",['8 (800) 555-55-50Показать телефон'],"['http://ok.ru/sberbank', 'https://t.me/sber_students_bot', 'https://vk.com/sberbank']",79,78,85,58,62,95,,,,,,,2024-06-22 03:03:48
33,216083337391,СберБанк,"ул. Вавилова, 19, Москва",www.sberbank.ru,"'mon': 08:30-19:30, 'tue': 08:30-19:30, 'wed': 08:30-19:30, 'thu': 08:30-19:30, 'fri': 08:30-19:30, 'sat': 09:30-18:30, 'sun': выходной",55.699826,37.579463,"4,9",['8 (800) 555-55-50Показать телефон'],['https://vk.com/sberbank'],76,,80,79,,,,,,,,,2024-06-22 03:03:48
34,1008675573,СберБанк,"Таганская ул., 31/22, Москва",www.sberbank.ru,"'mon': выходной, 'tue': выходной, 'wed': выходной, 'thu': выходной, 'fri': выходной, 'sat': выходной, 'sun': выходной",55.739544,37.669866,"4,3",['8 (800) 555-55-50Показать телефон'],"['https://ok.ru/sberbank', 'https://t.me/sberbank', 'https://vk.com/sberbank']",64,57,64,43,25,,8,,,,,,2024-06-22 03:03:48
35,121700461169,СберБанк,"Цветной бул., 2, Москва",www.sberbank.ru,"'mon': 09:30-19:30, 'tue': 09:30-19:30, 'wed': 09:30-19:30, 'thu': 09:30-19:30, 'fri': 09:30-19:30, 'sat': 10:30-18:00, 'sun': выходной",55.768232,37.623181,"4,4",['8 (800) 555-55-50Показать телефон'],"['http://ok.ru/sberbank', 'https://t.me/sberbank', 'https://vk.com/sberbank']",57,51,62,64,71,95,,,,,,,2024-06-22 03:03:48
36,1004054747,СберБанк,"Спартаковская ул., 21, Москва",www.sberbank.ru,"'mon': 09:00-20:00, 'tue': 09:00-20:00, 'wed': 09:00-20:00, 'thu': 09:00-20:00, 'fri': 09:00-20:00, 'sat': 09:00-17:30, 'sun': выходной",55.773170,37.677642,"4,4",['+7 (495) 500-55-50Показать телефон'],"['https://ok.ru/sberbank', 'https://vk.com/sberbank']",78,77,81,59,54,92,,,,,,,2024-06-22 03:03:48
37,1092553132,СберБанк,"ш. Энтузиастов, 12, корп. 2, Москва",www.sberbank.ru,"'mon': 10:00-20:30, 'tue': 10:00-20:30, 'wed': 10:00-20:30, 'thu': 10:00-20:30, 'fri': 10:00-20:30, 'sat': 10:00-20:00, 'sun': 10:00-20:00",55.747798,37.705211,"4,4",['8 (800) 555-55-50Показать телефон'],"['https://ok.ru/sberbank', 'https://vk.com/sberbank']",65,70,68,55,57,82,,,,,,,2024-06-22 03:03:48
38,1026531495,СберБанк,"Милютинский пер., 19/4с2, Москва",www.sberbank.ru,"'mon': 10:00-19:30, 'tue': 10:00-19:30, 'wed': 10:00-19:30, 'thu': 10:00-19:30, 'fri': 10:00-19:30, 'sat': выходной, 'sun': выходной",55.766193,37.632262,"4,4",['8 (800) 555-55-50Показать телефон'],"['http://ok.ru/sberbank', 'https://t.me/Sber_Business_Live_bot', 'https://vk.com/careersber']",69,74,78,57,54,100,,,,,,,2024-06-22 03:03:48
39,1172990790,СберБанк,"ул. Хамовнический Вал, 36, Москва",www.sberbank.ru,"'mon': 08:30-19:30, 'tue': 08:30-19:30, 'wed': 08:30-19:30, 'thu': 08:30-19:30, 'fri': 08:30-19:30, 'sat': 09:00-16:30, 'sun': выходной",55.722591,37.559432,"4,6",['8 (800) 555-55-50Показать телефон'],"['https://ok.ru/sberbank', 'https://vk.com/sberbank']",76,75,79,60,81,89,73,,,,,,2024-06-22 03:03:48
40,1094331006,СберБанк,"Краснопрудная ул., 11, Москва",www.sberbank.ru,"'mon': 09:00-20:00, 'tue': 09:00-20:00, 'wed': 09:00-20:00, 'thu': 09:00-20:00, 'fri': 09:00-20:00, 'sat': 09:30-17:00, 'sun': выходной",55.779300,37.664857,"4,3",['8 (800) 555-55-50Показать телефон'],"['http://ok.ru/sberbank', 'https://t.me/sberbank', 'https://vk.com/sberbank']",84,80,85,71,20,87,9,,,,,,2024-06-22 03:03:48
41,1010200513,СберБанк,"пер. Сивцев Вражек, 29/16, Москва",www.sberbank.ru,"'mon': 09:30-19:00, 'tue': 09:30-19:00, 'wed': 09:30-19:00, 'thu': 09:30-19:00, 'fri': 09:30-19:00, 'sat': 09:30-18:30, 'sun': выходной",55.747088,37.591087,"4,4",['8 (800) 555-55-50Показать телефон'],"['http://ok.ru/sberbank', 'https://t.me/sberbank', 'https://vk.com/sberbank']",78,78,77,64,62,76,38,,,,,,2024-06-22 03:03:48
42,224640232625,СберБанк,"Шмитовский пр., 16, стр. 1, Москва",www.sberbank.ru,"'mon': 09:00-20:00, 'tue': 09:00-20:00, 'wed': 09:00-20:00, 'thu': 09:00-20:00, 'fri': 09:00-20:00, 'sat': 09:30-17:00, 'sun': выходной",55.758102,37.549033,"4,5",['8 (800) 555-55-50Показать телефон'],"['https://ok.ru/sber/', 'https://vk.com/sberbank']",80,78,78,65,70,71,,,,,,,2024-06-22 03:03:48
43,1000199304,СберБанк,"Аптекарский пер., 10/1, Москва",www.sberbank.ru,"'mon': 09:30-19:30, 'tue': 09:30-19:30, 'wed': 09:30-19:30, 'thu': 09:30-19:30, 'fri': 09:30-19:30, 'sat': 09:30-16:00, 'sun': выходной",55.768361,37.677946,"4,4",['8 (800) 555-55-50Показать телефон'],"['http://ok.ru/sberbank', 'https://vk.com/sberbank']",82,80,86,79,52,92,,,,92,,,2024-06-22 03:03:48
44,1107699905,СберБанк,"Волгоградский просп., 63, Москва",www.sberbank.ru,"'mon': 09:30-19:30, 'tue': 09:30-19:30, 'wed': 09:30-19:30, 'thu': 09:30-19:30, 'fri': 09:30-19:30, 'sat': 10:30-16:00, 'sun': выходной",55.710083,37.735301,"4,4",['8 (800) 555-55-50Показать телефон'],"['https://ok.ru/sber/', 'https://t.me/sberbank', 'https://vk.com/sberbank']",79,77,80,51,44,93,85,,,89,,,2024-06-22 03:03:48
45,1005203846,СберБанк,"Лесная ул., 4, стр. 1, Москва",www.sberbank.ru,"'mon': 10:00-19:30, 'tue': 10:00-19:30, 'wed': 10:00-19:30, 'thu': 10:00-19:30, 'fri': 10:00-19:30, 'sat': 10:00-16:00, 'sun': выходной",55.776801,37.586287,"4,3",['8 (800) 555-55-50Показать телефон'],"['https://ok.ru/sberbank', 'https://vk.com/sberbank']",73,73,77,59,36,97,,,,,,,2024-06-22 03:03:48
46,81315124185,СберБанк,"ул. Дмитрия Ульянова, 24, Москва",www.sberbank.ru,"'mon': выходной, 'tue': выходной, 'wed': выходной, 'thu': выходной, 'fri': выходной, 'sat': выходной, 'sun': выходной",55.686969,37.574474,"4,5",['8 (800) 555-55-50Показать телефон'],"['https://ok.ru/sberbank', 'https://vk.com/sberbank']",76,76,77,77,88,98,,,,,,,2024-06-22 03:03:48
47,141659955292,СберБанк,"Красноказарменная ул., 23, Москва",www.sberbank.ru,"'mon': 09:00-19:30, 'tue': 09:00-19:30, 'wed': 09:00-19:30, 'thu': 09:00-19:30, 'fri': 09:00-19:30, 'sat': 10:00-17:00, 'sun': выходной",55.753633,37.713556,"4,5",['8 (800) 555-55-50Показать телефон'],"['https://ok.ru/sberbank', 'https://vk.com/sberbank']",76,80,83,54,83,93,,,,,,,2024-06-22 03:03:48
48,1132283404,СберБанк,"Волгоградский просп., 92, Москва",www.sberbank.ru,"'mon': выходной, 'tue': выходной, 'wed': выходной, 'thu': выходной, 'fri': выходной, 'sat': выходной, 'sun': выходной",55.704255,37.770412,"4,6",['8 (800) 555-55-50Показать телефон'],"['https://ok.ru/sberbank', 'https://vk.com/sberbank']",80,77,81,65,71,94,78,64,,,84,,2024-06-22 03:03:48
49,1050059557,СберБанк,"Ленинский просп., 45, Москва",www.sberbank.ru,"'mon': 09:30-19:30, 'tue': 09:30-19:30, 'wed': 09:30-19:30, 'thu': 09:30-19:30, 'fri': 09:30-19:30, 'sat': выходной, 'sun': выходной",55.702838,37.572822,"4,4",['8 (800) 555-55-50Показать телефон'],"['http://ok.ru/sberbank', 'https://t.me/sber_students_bot', 'https://vk.com/sberbank']",77,77,80,73,69,96,60,,,,,,2024-06-22 03:03:48
50,1159393041,СберБанк,"Люблинская ул., 157, корп. 3, Москва",www.sberbank.ru,"'mon': 09:00-19:00, 'tue': 09:00-19:00, 'wed': выходной, 'thu': 09:00-19:00, 'fri': 09:00-19:00, 'sat': 10:00-17:00, 'sun': выходной",55.655712,37.743863,"4,6",['8 (800) 555-55-50Показать телефон'],"['https://ok.ru/sberbank', 'https://t.me/Sber_Business_Live_bot', 'https://vk.com/careersber']",66,63,68,53,78,97,64,36,,,,,2024-06-22 03:03:48
51,1056287893,СберБанк,"ул. Лефортовский Вал, 16А, Москва",www.sberbank.ru,"'mon': 09:00-20:00, 'tue': 09:00-20:00, 'wed': 09:00-20:00, 'thu': 09:00-20:00, 'fri': 09:00-20:00, 'sat': 09:00-16:00, 'sun': выходной",55.759680,37.701493,"4,6",['8 (800) 555-55-50Показать телефон'],"['http://ok.ru/sberbank', 'https://vk.com/sberbank']",86,84,85,83,83,89,82,,,95,,,2024-06-22 03:03:48
52,167015643857,СберБанк,"Большая Черёмушкинская ул., 13, стр. 6, Москва",www.sberbank.ru,"'mon': 09:30-19:30, 'tue': 09:30-19:30, 'wed': 09:30-19:30, 'thu': 09:30-19:30, 'fri': 09:30-19:30, 'sat': 10:00-15:30, 'sun': выходной",55.686957,37.594787,"4,7",['8 (800) 555-55-50Показать телефон'],"['http://ok.ru/sberbank', 'https://t.me/sberbank', 'https://vk.com/sberbank']",80,84,84,65,66,97,73,,,,,,2024-06-22 03:03:48
53,1086169796,СберБанк,"Кутузовский просп., 36А, Москва",www.sberbank.ru,"'mon': 09:00-19:30, 'tue': 09:00-19:30, 'wed': 09:00-19:30, 'thu': 09:00-19:30, 'fri': 09:00-19:30, 'sat': выходной, 'sun': выходной",55.738491,37.525681,"4,3",['8 (800) 555-55-50Показать телефон'],"['https://ok.ru/sberbank', 'https://t.me/sberbank', 'https://vk.com/sberbank']",84,83,87,75,59,94,,,,,,,2024-06-22 03:03:48
54,1006645554,СберБанк,"1-я Тверская-Ямская ул., 11, Москва",www.sberbank.ru,"'mon': 10:30-19:30, 'tue': 10:30-19:30, 'wed': 10:30-19:30, 'thu': 10:30-19:30, 'fri': 10:30-19:30, 'sat': 10:30-19:30, 'sun': выходной",55.772639,37.591045,"4,3",['8 (800) 555-55-50Показать телефон'],"['http://ok.ru/sberbank', 'https://vk.com/sberbank']",68,67,75,58,74,86,53,,,94,,,2024-06-22 03:03:48
55,1041055233,СберБанк,"Нагатинская ул., 16, Москва",www.sberbank.ru,"'mon': 10:00-20:00, 'tue': 10:00-20:00, 'wed': 10:00-20:00, 'thu': 10:00-20:00, 'fri': 10:00-20:00, 'sat': выходной, 'sun': выходной",55.679108,37.642408,"4,4",['8 (800) 555-55-50Показать телефон'],"['https://ok.ru/sber/', 'https://t.me/sberbank', 'https://vk.com/sberbank']",82,80,81,84,77,70,38,,,,,,2024-06-22 03:03:48
56,1117013623,СберБанк,"ул. Большая Дмитровка, 21/7, Москва",www.sberbank.ru,"'mon': 09:00-20:30, 'tue': 09:00-20:30, 'wed': 09:00-20:30, 'thu': 09:00-20:30, 'fri': 09:00-20:30, 'sat': 09:00-18:00, 'sun': выходной",55.765525,37.610302,"4,2",['8 (800) 555-55-50Показать телефон'],"['http://ok.ru/sberbank', 'https://t.me/sberbank', 'https://vk.com/sberbank']",65,62,69,48,24,93,,,,,,,2024-06-22 03:03:48
57,1109154915,СберБанк,"Шоссейная ул., 1/2с2, Москва",www.sberbank.ru,"'mon': 09:00-20:00, 'tue': 09:00-20:00, 'wed': 09:00-20:00, 'thu': 09:00-20:00, 'fri': 09:00-20:00, 'sat': 10:00-16:00, 'sun': выходной",55.691133,37.727928,"4,5",['8 (800) 555-55-50Показать телефон'],"['https://ok.ru/sberbank', 'https://t.me/sberbank', 'https://vk.com/sberbank']",79,77,78,63,65,91,65,,,61,,,2024-06-22 03:03:48
58,1016535390,СберБанк,"Преображенская площадь, 7А, стр. 1, Москва",www.sberbank.ru,"'mon': 08:30-20:00, 'tue': 08:30-20:00, 'wed': 08:30-20:00, 'thu': 08:30-20:00, 'fri': 08:30-20:00, 'sat': 09:00-19:00, 'sun': 10:00-16:00",55.795432,37.709135,"4,5",['8 (800) 555-55-50Показать телефон'],"['https://ok.ru/sberbank', 'https://t.me/sberbank', 'https://vk.com/sberbank']",71,67,73,62,61,93,55,56,,,59,,2024-06-22 03:03:48
59,1038114324,СберБанк,"Петровский бул., 23, Москва",www.sberbank.ru,"'mon': 09:30-19:30, 'tue': 09:30-19:30, 'wed': 09:30-19:30, 'thu': 09:30-19:30, 'fri': 09:30-19:30, 'sat': 11:00-15:00, 'sun': выходной",55.767690,37.620834,"4,3",['8 (800) 555-55-50Показать телефон'],"['https://ok.ru/sberbank', 'https://t.me/sberbank', 'https://vk.com/sberbank']",74,73,84,50,60,93,,,,,,,2024-06-22 03:03:48
60,1021933597,СберБанк,"Чертановская ул., 1В, корп. 1, Москва",www.sberbank.ru,"'mon': 08:30-20:00, 'tue': 08:30-20:00, 'wed': 08:30-20:00, 'thu': 08:30-20:00, 'fri': 08:30-20:00, 'sat': 10:00-18:00, 'sun': 10:00-17:00",55.639689,37.607344,"4,5",['8 (800) 555-55-50Показать телефон'],"['https://ok.ru/sber/', 'https://t.me/sberbank', 'https://vk.com/sberbank']",75,74,77,61,77,95,72,,,,,,2024-06-22 03:03:48
61,230760996254,СберБанк,"Хорошёвское ш., 27, Москва",www.sberbank.ru,"'mon': 10:00-20:30, 'tue': 10:00-20:30, 'wed': 10:00-20:30, 'thu': 10:00-20:30, 'fri': 10:00-20:30, 'sat': 11:00-17:00, 'sun': выходной",55.777213,37.522795,"4,5",['8 (800) 555-55-50Показать телефон'],"['https://ok.ru/sberbank', 'https://t.me/sber_students_bot', 'https://vk.com/sberbank']",76,74,79,59,69,88,70,,,,,,2024-06-22 03:03:48
62,1000927269,СберБанк,"ул. Измайловский Вал, 20, Москва",www.sberbank.ru,"'mon': 09:00-20:00, 'tue': 09:00-20:00, 'wed': 09:00-20:00, 'thu': 09:00-20:00, 'fri': 09:00-20:00, 'sat': 09:00-17:00, 'sun': выходной",55.784454,37.718884,"4,4",['8 (800) 555-55-50Показать телефон'],"['http://ok.ru/sberbank', 'https://vk.com/sberbank']",75,74,77,63,59,96,,,,,,,2024-06-22 03:03:48
63,1307325955,СберБанк,"ул. Каховка, 23, Москва",www.sberbank.ru,"'mon': 09:00-19:30, 'tue': 09:00-19:30, 'wed': 09:00-19:30, 'thu': 09:00-19:30, 'fri': 09:00-19:30, 'sat': 09:30-18:30, 'sun': выходной",55.654595,37.574580,"4,6",['8 (800) 555-55-50Показать телефон'],"['https://ok.ru/sber/', 'https://t.me/Sber_Business_Live_bot', 'https://vk.com/careersber']",77,75,80,65,79,85,67,64,,47,69,,2024-06-22 03:03:48
64,1190385105,СберБанк,"Кутузовский просп., 30, Москва",www.sberbank.ru,"'mon': 10:00-19:00, 'tue': 10:00-19:00, 'wed': 10:00-19:00, 'thu': 10:00-19:00, 'fri': 10:00-19:00, 'sat': выходной, 'sun': выходной",55.741278,37.537029,"4,4",['8 (800) 555-55-50Показать телефон'],"['http://ok.ru/sberbank', 'https://vk.com/sberbank']",80,78,82,60,50,95,50,,,,,,2024-06-22 03:03:48
65,188007632904,СберБанк,"Профсоюзная ул., 56, Москва",www.sberbank.ru,"'mon': 10:00-20:00, 'tue': 10:00-20:00, 'wed': 10:00-20:00, 'thu': 10:00-20:00, 'fri': 10:00-20:00, 'sat': 11:00-18:00, 'sun': 11:00-18:00",55.670019,37.553457,"4,4",['8 (800) 555-55-50Показать телефон'],"['https://ok.ru/sber/', 'https://t.me/sberbank', 'https://vk.com/club41190667']",81,80,79,60,57,88,77,,,,,,2024-06-22 03:03:48
66,1261973984,СберБанк,"Садовая-Кудринская ул., 25, Москва",www.sberbank.ru,"'mon': 09:00-19:00, 'tue': 09:00-19:00, 'wed': 09:00-19:00, 'thu': 09:00-19:00, 'fri': 09:00-19:00, 'sat': выходной, 'sun': выходной",55.765872,37.590129,"4,3",['8 (800) 555-55-50Показать телефон'],"['http://ok.ru/sberbank', 'https://vk.com/sberbank']",78,78,84,68,86,96,,,,,,,2024-06-22 03:03:48
67,1261532735,СберБанк,"Загородное ш., 15, корп. 1, Москва",www.sberbank.ru,"'mon': 09:00-19:00, 'tue': 09:00-19:00, 'wed': 09:00-19:00, 'thu': 09:00-19:00, 'fri': 09:00-19:00, 'sat': выходной, 'sun': выходной",55.691674,37.602926,"4,6",['8 (800) 555-55-50Показать телефон'],"['http://ok.ru/sberbank', 'https://t.me/sberbank', 'https://vk.com/sberbank']",83,82,85,75,74,100,75,,,94,,,2024-06-22 03:03:48
68,1128438097,СберБанк,"Ленинский просп., 75/9, Москва",www.sberbank.ru,"'mon': 09:00-19:00, 'tue': 09:00-19:00, 'wed': 09:00-19:00, 'thu': 09:00-19:00, 'fri': 09:00-19:00, 'sat': 09:30-16:30, 'sun': выходной",55.687146,37.545199,"4,4",['8 (800) 555-55-50Показать телефон'],"['http://ok.ru/sberbank', 'https://t.me/s/sberbank', 'https://vk.com/sber']",81,79,83,69,74,88,,,,,,,2024-06-22 03:03:48
69,1027516913,СберБанк,"Судостроительная ул., 32, Москва",www.sberbank.ru,"'mon': 08:30-19:00, 'tue': 08:30-19:00, 'wed': 08:30-19:00, 'thu': 08:30-19:00, 'fri': 08:30-19:00, 'sat': 09:00-16:30, 'sun': выходной",55.683816,37.686240,"4,5",['8 (800) 555-55-50Показать телефон'],"['http://ok.ru/sberbank', 'https://vk.com/sberbank']",79,83,83,65,66,100,42,,,,,,2024-06-22 03:03:48
70,1092960272,СберБанк,"Варшавское ш., 76, корп. 1, Москва",www.sberbank.ru,"'mon': 09:00-19:30, 'tue': 09:00-19:30, 'wed': выходной, 'thu': 09:00-19:30, 'fri': 09:00-19:30, 'sat': 09:30-16:30, 'sun': выходной",55.654528,37.618731,"4,4",['8 (800) 555-55-50Показать телефон'],"['http://ok.ru/sberbank', 'https://t.me/sberbank', 'https://vk.com/sberbank']",81,80,83,73,74,92,42,,,82,,,2024-06-22 03:03:48
71,1294036493,СберБанк,"Большая Грузинская ул., 12, Москва",www.sberbank.ru,"'mon': 09:00-20:00, 'tue': 09:00-20:00, 'wed': 09:00-20:00, 'thu': 09:00-20:00, 'fri': 09:00-20:00, 'sat': 09:30-14:00, 'sun': выходной",55.763467,37.578775,"4,3",['8 (800) 555-55-50Показать телефон'],"['https://ok.ru/sberbank', 'https://vk.com/sberbank']",86,83,84,76,62,85,83,,,,,,2024-06-22 03:03:48
72,1107987500,СберБанк,"Селезнёвская ул., 32, Москва",www.sberbank.ru,"'mon': 09:00-19:30, 'tue': 09:00-19:30, 'wed': 09:00-19:30, 'thu': 09:00-19:30, 'fri': 09:00-19:30, 'sat': 10:00-16:00, 'sun': выходной",55.780898,37.611262,"4,4",['8 (800) 555-55-50Показать телефон'],"['https://ok.ru/sber/', 'https://t.me/sberbank', 'https://vk.com/sberbank']",73,74,79,58,50,100,50,,,,,,2024-06-22 03:03:48
73,1295053201,СберБанк,"к1, Юго-Восточный административный округ, район Кузьминки, Волжский Бульвар квартал 113А, Москва",www.sberbank.ru,"'mon': 09:30-19:30, 'tue': 09:30-19:30, 'wed': 09:30-19:30, 'thu': 09:30-19:30, 'fri': 09:30-19:30, 'sat': 09:30-19:00, 'sun': выходной",55.699942,37.752219,"4,6",['8 (800) 555-55-50Показать телефон'],"['https://ok.ru/sberbank', 'https://vk.com/sberbank']",77,78,77,49,50,88,,,,,,,2024-06-22 03:03:48
74,242282487702,СберБанк,"Совхозная ул., 39, Москва",www.sberbank.ru,"'mon': 09:00-20:00, 'tue': 09:00-20:00, 'wed': 09:00-20:00, 'thu': 09:00-20:00, 'fri': 09:00-20:00, 'sat': 10:00-15:00, 'sun': выходной",55.673834,37.760494,"4,6",['8 (800) 555-55-50Показать телефон'],"['https://ok.ru/sber/', 'https://t.me/sberbank', 'https://vk.com/sberbank']",73,71,75,55,56,100,,,,,,,2024-06-22 03:03:48
75,126086585532,СберБанк,"Щербаковская ул., 53, стр. 1, Москва",www.sberbank.ru,"'mon': 09:00-19:30, 'tue': 09:00-19:30, 'wed': 09:00-19:30, 'thu': 09:00-19:30, 'fri': 09:00-19:30, 'sat': 09:30-16:30, 'sun': выходной",55.783042,37.734986,"4,5",['8 (800) 555-55-50Показать телефон'],"['https://ok.ru/sberbank', 'https://vk.com/sberbank']",83,84,84,79,77,90,,,,,,,2024-06-22 03:03:48
76,1335729456,СберБанк,"Братиславская ул., 16, корп. 1, Москва",www.sberbank.ru,"'mon': 10:00-18:00, 'tue': 10:00-18:00, 'wed': 10:00-18:00, 'thu': выходной, 'fri': выходной, 'sat': выходной, 'sun': выходной",55.659268,37.757962,"4,5",['8 (800) 555-55-50Показать телефон'],"['https://ok.ru/sberbank', 'https://vk.com/sberbank']",77,74,75,57,53,86,69,,,,,,2024-06-22 03:03:48
77,1069560670,СберБанк,"Ленинградский просп., 34, Москва",www.sberbank.ru,"'mon': 09:00-19:30, 'tue': 09:00-19:30, 'wed': 09:00-19:30, 'thu': 09:00-19:30, 'fri': 09:00-19:30, 'sat': 09:30-16:00, 'sun': выходной",55.785628,37.569047,"4,4",['8 (800) 555-55-50Показать телефон'],"['https://ok.ru/sber/', 'https://vk.com/sberbank']",78,72,75,63,81,85,,,,,,,2024-06-22 03:03:48
78,200093053484,СберБанк,"Луганская ул., 5, Москва",www.sberbank.ru,"'mon': 09:00-20:00, 'tue': 09:00-20:00, 'wed': 09:00-20:00, 'thu': 09:00-20:00, 'fri': 09:00-20:00, 'sat': 09:00-17:00, 'sun': выходной",55.626353,37.666499,"4,8",['8 (800) 555-55-50Показать телефон'],"['https://ok.ru/sberbank', 'https://t.me/sberbank', 'https://vk.com/sberbank']",81,81,83,75,85,90,92,,,,,,2024-06-22 03:03:48
79,1132040156,СберБанк,"просп. Будённого, 30/8, Москва",www.sberbank.ru,"'mon': 09:00-19:30, 'tue': 09:00-19:30, 'wed': 09:00-19:30, 'thu': 09:00-19:30, 'fri': 09:00-19:30, 'sat': 09:00-17:00, 'sun': выходной",55.762489,37.734487,"4,5",['8 (800) 555-55-50Показать телефон'],"['http://ok.ru/sberbank', 'https://vk.com/sberbank']",73,72,71,61,43,92,,,,,,,2024-06-22 03:03:48
80,1255204801,СберБанк,"Бутырская ул., 2/18, Москва",www.sberbank.ru,"'mon': 09:30-20:00, 'tue': 09:30-20:00, 'wed': 09:30-20:00, 'thu': 09:30-20:00, 'fri': 09:30-20:00, 'sat': 10:30-15:30, 'sun': 10:30-15:30",55.794227,37.586329,"4,4",['8 (800) 555-55-50Показать телефон'],"['https://ok.ru/sberbank', 'https://vk.com/sberbank']",69,68,75,67,44,83,,,,,,,2024-06-22 03:03:48
81,1003263702,СберБанк,"Люблинская ул., 38, Москва",www.sberbank.ru,"'mon': 09:00-19:00, 'tue': 09:00-19:00, 'wed': 09:00-19:00, 'thu': 09:00-19:00, 'fri': 09:00-19:00, 'sat': 09:30-15:30, 'sun': выходной",55.686633,37.736545,"4,5",['8 (800) 555-55-50Показать телефон'],"['https://ok.ru/sberbank', 'https://vk.com/sberbank', 'https://youtube.com/user/Sberbank']",79,76,81,69,66,69,23,,,,,,2024-06-22 03:03:48
82,58075982453,СберБанк,"Бакунинская ул., 44-48с1, Москва",www.sberbank.ru,"'mon': 09:30-19:00, 'tue': 09:30-19:00, 'wed': 09:30-19:00, 'thu': 09:30-19:00, 'fri': 09:30-19:00, 'sat': 10:30-16:30, 'sun': выходной",55.776463,37.687554,"4,4",['8 (800) 555-55-50Показать телефон'],"['https://ok.ru/sberbank', 'https://vk.com/sberbank']",79,83,86,64,51,100,73,,,,,,2024-06-22 03:03:48
83,238115567563,СберБанк,"просп. Мира, 91, корп. 3, Москва",www.sberbank.ru,"'mon': 09:00-20:00, 'tue': 09:00-20:00, 'wed': 09:00-20:00, 'thu': 09:00-20:00, 'fri': 09:00-20:00, 'sat': 09:00-17:30, 'sun': выходной",55.806670,37.635843,"4,4",['8 (800) 555-55-50Показать телефон'],"['https://ok.ru/sberbank', 'https://t.me/sberbank', 'https://vk.com/sberbank']",77,78,81,67,74,87,73,,,,,,2024-06-22 03:03:48
84,1287175300,СберБанк,"Кантемировская ул., 3, корп. 5, стр. 2, Москва",www.sberbank.ru,"'mon': 09:00-19:00, 'tue': 09:00-19:00, 'wed': 09:00-19:00, 'thu': 09:00-19:00, 'fri': 09:00-19:00, 'sat': 09:00-18:00, 'sun': выходной",55.636079,37.680952,"4,6",['8 (800) 555-55-50Показать телефон'],"['https://ok.ru/sberbank', 'https://vk.com/sberbank']",79,77,81,72,65,39,71,67,,80,75,,2024-06-22 03:03:48
85,1030109544,СберБанк,"Ленинградский просп., 62А, Москва",www.sberbank.ru,"'mon': 09:00-20:00, 'tue': 09:00-20:00, 'wed': 09:00-20:00, 'thu': 09:00-20:00, 'fri': 09:00-20:00, 'sat': 10:00-17:30, 'sun': 11:00-16:30",55.801645,37.531643,"4,3",['8 (800) 555-55-50Показать телефон'],"['http://ok.ru/sberbank', 'https://vk.com/sberbank']",71,67,75,49,77,93,91,,,,,,2024-06-22 03:03:48
86,55468574172,СберБанк,"просп. Вернадского, 86Б, Москва",www.sberbank.ru,"'mon': 09:00-20:00, 'tue': 09:00-20:00, 'wed': 09:00-20:00, 'thu': 09:00-20:00, 'fri': 09:00-20:00, 'sat': 10:00-17:00, 'sun': выходной",55.661964,37.481571,"4,3",['8 (800) 555-55-50Показать телефон'],"['https://ok.ru/sberbank', 'https://vk.com/sberbank']",73,71,77,65,78,100,75,,,,,,2024-06-22 03:03:48
87,1349377666,СберБанк,"2-я Владимирская ул., 40, Москва",www.sberbank.ru,"'mon': 08:30-19:30, 'tue': 08:30-19:30, 'wed': 08:30-19:30, 'thu': 08:30-19:30, 'fri': 08:30-19:30, 'sat': 09:00-16:00, 'sun': выходной",55.749841,37.784452,"4,4",['8 (800) 555-55-50Показать телефон'],"['https://ok.ru/sberbank', 'https://t.me/sberbank', 'https://vk.com/sberbank']",72,68,70,54,59,90,75,10,,,,,2024-06-22 03:03:48
88,1126079394,СберБанк,"Большая Грузинская ул., 37, Москва",www.sberbank.ru,"'mon': выходной, 'tue': выходной, 'wed': выходной, 'thu': выходной, 'fri': выходной, 'sat': выходной, 'sun': выходной",55.768793,37.579957,"4,3",['8 (800) 555-55-50Показать телефон'],"['https://ok.ru/sberbank', 'https://vk.com/sberbank']",72,75,76,66,71,,,,,,,,2024-06-22 03:03:48
89,1001159544,СберБанк,"Ленинский просп., 99, Москва",www.sberbank.ru,"'mon': 09:00-19:30, 'tue': 09:00-19:30, 'wed': 09:00-19:30, 'thu': 09:00-19:30, 'fri': 09:00-19:30, 'sat': 09:30-16:00, 'sun': выходной",55.668609,37.517991,"4,5",['8 (800) 555-55-50Показать телефон'],"['https://ok.ru/sberbank', 'https://vk.com/sberbank']",74,71,74,67,81,85,44,,,,,,2024-06-22 03:03:48
90,217428131038,СберБанк,"ул. Плющиха, 42, Москва",www.sberbank.ru,"'mon': 09:30-18:30, 'tue': 09:30-18:30, 'wed': 09:30-18:30, 'thu': 09:30-18:30, 'fri': 09:30-18:30, 'sat': выходной, 'sun': выходной",55.742131,37.576807,"4,3",['8 (800) 555-55-50Показать телефон'],"['http://ok.ru/sberbank', 'https://t.me/sberbank', 'https://vk.com/sberbank']",73,78,83,61,50,,46,,,,,,2024-06-22 03:03:48
91,30547341753,Сбербанк,"Щёлковское ш., 75, Москва",www.sberbank.ru,"'mon': 10:00-21:00, 'tue': 10:00-21:00, 'wed': 10:00-21:00, 'thu': 10:00-21:00, 'fri': 10:00-21:00, 'sat': 10:00-21:00, 'sun': 11:30-19:00",55.810967,37.801081,"4,6",['8 (800) 555-55-50Показать телефон'],"['http://ok.ru/sberbank', 'https://vk.com/sberbank']",54,54,57,42,62,87,41,25,,,,,2024-06-22 03:03:48
92,1131965726,СберБанк,"Сокольническая площадь, 9, Москва",www.sberbank.ru,"'mon': 09:00-20:00, 'tue': 09:00-20:00, 'wed': 09:00-20:00, 'thu': 09:00-20:00, 'fri': 09:00-20:00, 'sat': 10:00-16:00, 'sun': выходной",55.789867,37.681079,"4,3",['8 (800) 555-55-50Показать телефон'],"['https://ok.ru/sber/', 'https://vk.com/sberbank']",68,62,69,54,44,83,70,,,,,,2024-06-22 03:03:48
93,1119859822,СберБанк,"Профсоюзная ул., 20/9, Москва",www.sberbank.ru,"'mon': 08:30-19:00, 'tue': 08:30-19:00, 'wed': выходной, 'thu': 08:30-19:00, 'fri': 08:30-19:00, 'sat': 09:30-17:00, 'sun': выходной",55.681695,37.566094,"4,3",['8 (800) 555-55-50Показать телефон'],"['https://ok.ru/sberbank', 'https://vk.com/sberbank']",74,72,79,52,58,85,,,,,,,2024-06-22 03:03:48
94,1055521354,СберБанк,"Волгоградский просп., 119А, Москва",www.sberbank.ru,"'mon': 09:00-19:30, 'tue': 09:00-19:30, 'wed': 09:00-19:30, 'thu': 09:00-19:30, 'fri': 09:00-19:30, 'sat': 09:00-19:30, 'sun': выходной",55.706439,37.765658,"4,4",['8 (800) 555-55-50Показать телефон'],"['https://ok.ru/sberbank', 'https://vk.com/sberbank']",78,78,80,59,49,100,,,,,,,2024-06-22 03:03:48
95,1033917790,СберБанк,"Ленинский просп., 62/1, Москва",www.sberbank.ru,"'mon': 09:00-19:00, 'tue': 09:00-19:00, 'wed': 09:00-19:00, 'thu': 09:00-19:00, 'fri': 09:00-19:00, 'sat': выходной, 'sun': выходной",55.694010,37.554451,"4,3",['8 (800) 555-55-50Показать телефон'],"['http://ok.ru/sberbank', 'https://vk.com/sberbank']",64,67,67,42,44,86,38,,,38,,,2024-06-22 03:03:48
96,1029759146,СберБанк,"Кантемировская ул., 47, Москва",www.sberbank.ru,"'mon': 09:00-19:30, 'tue': 09:00-19:30, 'wed': 09:00-19:30, 'thu': 09:00-19:30, 'fri': 09:00-19:30, 'sat': 10:00-17:00, 'sun': выходной",55.637691,37.655971,"4,4",['8 (800) 555-55-50Показать телефон'],"['https://ok.ru/sberbank', 'https://vk.com/sberbank']",77,77,79,63,49,89,54,,,,,,2024-06-22 03:03:48
97,1069132121,СберБанк,"Краснодарская ул., 57, корп. 1, Москва",www.sberbank.ru,"'mon': 08:30-20:00, 'tue': 08:30-20:00, 'wed': 10:00-16:00, 'thu': 08:30-20:00, 'fri': 08:30-20:00, 'sat': 09:00-18:00, 'sun': выходной",55.676634,37.766374,"4,3",['8 (800) 555-55-50Показать телефон'],"['https://ok.ru/sberbank', 'https://vk.com/sberbank']",65,63,69,36,42,78,57,,,,,,2024-06-22 03:03:48
98,1116257146,СберБанк,"просп. Вернадского, 41, стр. 3, Москва",www.sberbank.ru,"'mon': 09:00-20:00, 'tue': 09:00-20:00, 'wed': 09:00-20:00, 'thu': 09:00-20:00, 'fri': 09:00-20:00, 'sat': 09:00-20:00, 'sun': выходной",55.674557,37.504567,"4,4",['8 (800) 555-55-50Показать телефон'],"['https://ok.ru/sberbank', 'https://t.me/sberbank', 'https://vk.com/sberbank']",66,67,70,48,39,78,,,,,,,2024-06-22 03:03:48
99,1195492724,СберБанк,"Ореховый бул., 14, корп. 3, Москва",www.sberbank.ru,"'mon': 10:00-19:30, 'tue': 10:00-19:30, 'wed': 10:00-19:30, 'thu': 10:00-19:30, 'fri': 10:00-19:30, 'sat': 10:00-18:30, 'sun': 10:00-16:00",55.609263,37.719524,"4,5",['8 (800) 555-55-50Показать телефон'],"['https://ok.ru/sber/', 'https://t.me/sberbank', 'https://vk.com/sberbank']",63,61,65,46,60,91,67,,,,,,2024-06-22 03:03:48
100,1011474447,СберБанк,"ул. Сущёвский Вал, 71, Москва",www.sberbank.ru,"'mon': 09:00-19:30, 'tue': 09:00-19:30, 'wed': 09:00-19:30, 'thu': 09:00-19:30, 'fri': 09:00-19:30, 'sat': 11:00-16:00, 'sun': выходной",55.793110,37.625917,"4,4",['8 (800) 555-55-50Показать телефон'],"['https://ok.ru/sberbank', 'https://vk.com/sberbank']",76,80,83,60,50,90,,,,,,,2024-06-22 03:03:48
101,26798005782,СберБанк,"Авиамоторная ул., 51, Москва",www.sberbank.ru,"'mon': 09:00-19:00, 'tue': 09:00-19:00, 'wed': 09:00-19:00, 'thu': 09:00-19:00, 'fri': 09:00-19:00, 'sat': выходной, 'sun': выходной",55.746435,37.720838,"4,5",['8 (800) 555-55-50Показать телефон'],"['http://ok.ru/sberbank', 'https://vk.com/sberbank']",77,79,75,72,85,,,,,92,,,2024-06-22 03:03:48
102,1065694292,СберБанк,"просп. Маршала Жукова, 11, корп. 1, Москва",www.sberbank.ru,"'mon': 09:00-19:30, 'tue': 09:00-19:30, 'wed': 09:00-19:30, 'thu': 09:00-19:30, 'fri': 09:00-19:30, 'sat': 09:30-15:30, 'sun': выходной",55.775629,37.495637,"4,6",['8 (800) 555-55-50Показать телефон'],"['http://ok.ru/sberbank', 'https://vk.com/sberbank']",73,72,75,58,59,94,54,,,,,,2024-06-22 03:03:48
103,113007839275,СберБанк,"Волжский бул., 7, Москва",www.sberbank.ru,"'mon': 09:00-19:30, 'tue': 09:00-19:30, 'wed': 09:00-19:30, 'thu': 09:00-19:30, 'fri': 09:00-19:30, 'sat': 10:00-16:30, 'sun': выходной",55.716621,37.745678,"4,7",['8 (800) 555-55-50Показать телефон'],"['https://ok.ru/sberbank', 'https://vk.com/sberbank']",82,81,85,78,65,100,90,,,,,,2024-06-22 03:03:48
104,1088927681,СберБанк,"ул. Павла Корчагина, 11, Москва",www.sberbank.ru,"'mon': 09:00-19:00, 'tue': 09:00-19:00, 'wed': 09:00-19:00, 'thu': 09:00-19:00, 'fri': 09:00-19:00, 'sat': 09:30-16:30, 'sun': выходной",55.817572,37.660430,"4,5",['8 (800) 555-55-50Показать телефон'],"['http://ok.ru/sberbank', 'https://vk.com/sberbank']",83,84,87,74,76,96,81,,,,,,2024-06-22 03:03:48
105,1079391585,СберБанк,"Зелёный просп., 45/31, Москва",www.sberbank.ru,"'mon': 09:00-19:30, 'tue': 09:00-19:30, 'wed': 09:00-19:30, 'thu': 09:00-19:30, 'fri': 09:00-19:30, 'sat': 10:00-16:30, 'sun': выходной",55.753931,37.799620,"4,6",['8 (800) 555-55-50Показать телефон'],"['http://ok.ru/sberbank', 'https://vk.com/sberbank']",76,75,78,66,73,94,60,,,,,,2024-06-22 03:03:48
106,1615818147,СберБанк,"Мичуринский просп., 3, Москва",www.sberbank.ru,"'mon': 09:00-20:00, 'tue': 09:00-20:00, 'wed': 09:00-20:00, 'thu': 09:00-20:00, 'fri': 09:00-20:00, 'sat': 10:00-16:00, 'sun': выходной",55.704538,37.513009,"4,4",['8 (800) 555-55-50Показать телефон'],"['https://ok.ru/sber/', 'https://t.me/sberbank', 'https://vk.com/sberbank']",77,77,77,62,61,92,,,,,,,2024-06-22 03:03:48
107,1108843273,СберБанк,"Багратионовский пр., 7, корп. 20В, Москва",www.sberbank.ru,"'mon': 09:30-19:30, 'tue': 09:30-19:30, 'wed': 09:30-19:30, 'thu': 09:30-19:30, 'fri': 09:30-19:30, 'sat': 10:30-16:00, 'sun': выходной",55.743665,37.505604,"4,4",['8 (800) 555-55-50Показать телефон'],"['https://ok.ru/sber', 'https://vk.com/sberbank']",82,84,87,62,72,91,,,,,,,2024-06-22 03:03:48
108,1250036115,СберБанк,"Азовская ул., 24, стр. 1, Москва",www.sberbank.ru,"'mon': 09:00-19:30, 'tue': 09:00-19:30, 'wed': 09:00-19:30, 'thu': 09:00-19:30, 'fri': 09:00-19:30, 'sat': 09:30-16:30, 'sun': выходной",55.651467,37.597967,"4,4",['8 (800) 555-55-50Показать телефон'],"['https://ok.ru/sberbank', 'https://t.me/sberbank', 'https://vk.com/sberbank']",75,73,75,61,55,92,,,,,,,2024-06-22 03:03:48
109,227895727860,СберБанк,"Мосфильмовская ул., 17/25, Москва",www.sberbank.ru,"'mon': 09:00-19:00, 'tue': 09:00-19:00, 'wed': 09:00-19:00, 'thu': 09:00-19:00, 'fri': 09:00-19:00, 'sat': выходной, 'sun': выходной",55.715452,37.516131,"4,4",['8 (800) 555-55-50Показать телефон'],"['http://ok.ru/sberbank', 'https://vk.com/sberbank']",68,73,76,53,83,86,43,,,,,,2024-06-22 03:03:48
110,1225493955,СберБанк,"Мичуринский просп., 26, Москва",www.sberbank.ru,"'mon': 09:00-19:30, 'tue': 09:00-19:30, 'wed': 09:00-19:30, 'thu': 09:00-19:30, 'fri': 09:00-19:30, 'sat': 09:00-17:00, 'sun': выходной",55.700339,37.502245,"4,4",['8 (800) 555-55-50Показать телефон'],"['https://ok.ru/sberbank', 'https://vk.com/sberbank']",71,76,79,59,75,78,,,,,,,2024-06-22 03:03:48
111,1056682434,СберБанк,"Ленинградский просп., 76, корп. 2, Москва",www.sberbank.ru,"'mon': 08:30-20:00, 'tue': 08:30-20:00, 'wed': 08:30-20:00, 'thu': 08:30-20:00, 'fri': 08:30-20:00, 'sat': 10:00-16:00, 'sun': выходной",55.806305,37.515235,"4,3",['8 (800) 555-55-50Показать телефон'],"['https://ok.ru/sber/', 'https://vk.com/sberbank']",78,77,81,66,49,76,4,,,,,,2024-06-22 03:03:48
112,35018678745,СберБанк,"ул. Красного Маяка, 2Б, Москва",www.sberbank.ru,"'mon': 10:30-20:30, 'tue': 10:30-20:30, 'wed': 10:30-20:30, 'thu': 10:30-20:30, 'fri': 10:30-20:30, 'sat': 10:30-19:30, 'sun': 10:30-19:30",55.611275,37.606616,"4,6",['8 (800) 555-55-50Показать телефон'],"['http://ok.ru/sberbank', 'https://t.me/sberbank', 'https://vk.com/sberbank']",77,74,78,59,67,97,80,,,,,,2024-06-22 03:03:48
113,1091205211,СберБанк,"Болотниковская ул., 21, стр. 1, Москва",www.sberbank.ru,"'mon': 09:00-19:00, 'tue': 09:00-19:00, 'wed': 09:00-19:00, 'thu': 09:00-19:00, 'fri': 09:00-19:00, 'sat': 09:30-15:30, 'sun': выходной",55.656658,37.597655,"4,3",['8 (800) 555-55-50Показать телефон'],"['https://ok.ru/sberbank', 'https://vk.com/sberbank']",81,81,84,57,57,75,,,,,,,2024-06-22 03:03:48
114,1595999674,СберБанк,"Рязанский просп., 69, Москва",www.sberbank.ru,"'mon': 08:30-19:30, 'tue': 08:30-19:30, 'wed': 08:30-19:30, 'thu': 08:30-19:30, 'fri': 08:30-19:30, 'sat': 10:00-17:00, 'sun': выходной",55.718806,37.787148,"4,4",['8 (800) 555-55-50Показать телефон'],"['http://ok.ru/sberbank', 'https://vk.com/sberbank']",76,76,81,56,46,94,,,,,,,2024-06-22 03:03:48
115,1122211559,СберБанк,"ул. Борисовские Пруды, 26, Москва",www.sberbank.ru,"'mon': 08:30-19:30, 'tue': 08:30-19:30, 'wed': 08:30-19:30, 'thu': 08:30-19:30, 'fri': 08:30-19:30, 'sat': 09:00-16:00, 'sun': 10:00-15:00",55.640095,37.758611,"4,7",['8 (800) 555-55-50Показать телефон'],"['https://ok.ru/sberbank', 'https://t.me/sberbank', 'https://vk.com/sberbank']",78,78,78,64,87,90,60,,,80,,,2024-06-22 03:03:48
116,1080537908,СберБанк,"Рязанский просп., 45, корп. 1, Москва",www.sberbank.ru,"'mon': 09:00-19:30, 'tue': 09:00-19:30, 'wed': 09:00-19:30, 'thu': 09:00-19:30, 'fri': 09:00-19:30, 'sat': 10:30-16:00, 'sun': выходной",55.726589,37.760633,"4,4",['8 (800) 555-55-50Показать телефон'],"['https://ok.ru/sberbank', 'https://vk.com/sberbank']",84,84,89,65,54,84,,,,,,,2024-06-22 03:03:48
117,235259139937,СберБанк,"ул. Юных Ленинцев, 3, Москва",www.sberbank.ru,"'mon': 08:30-19:30, 'tue': 08:30-19:30, 'wed': 08:30-19:30, 'thu': 08:30-19:30, 'fri': 08:30-19:30, 'sat': 10:00-17:00, 'sun': выходной",55.699574,37.736606,"4,4",['8 (800) 555-55-50Показать телефон'],"['https://ok.ru/sberbank', 'https://t.me/sberbank', 'https://vk.com/sberbank']",84,87,88,74,78,,,,,,,,2024-06-22 03:03:48
118,1092767836,СберБанк,"Перовская ул., 8, корп. 1, Москва",www.sberbank.ru,"'mon': 10:00-20:00, 'tue': 10:00-20:00, 'wed': 10:00-20:00, 'thu': 10:00-20:00, 'fri': 10:00-20:00, 'sat': 10:00-15:00, 'sun': выходной",55.747196,37.758393,"4,3",['8 (800) 555-55-50Показать телефон'],"['http://ok.ru/sberbank', 'https://vk.com/sberbank']",71,80,83,49,17,81,10,,,86,,,2024-06-22 03:03:48
119,37158065220,СберБанк,"ул. Бутлерова, 30А, Москва",www.sberbank.ru,"'mon': 09:00-19:30, 'tue': 09:00-19:30, 'wed': 09:00-19:30, 'thu': 09:00-19:30, 'fri': 09:00-19:30, 'sat': 10:00-16:00, 'sun': выходной",55.645740,37.543534,"4,6",['8 (800) 555-55-50Показать телефон'],"['https://ok.ru/sberbank', 'https://vk.com/sberbank']",82,81,82,69,71,69,55,,,,,,2024-06-22 03:03:48
120,1117287165,СберБанк,"бул. Маршала Рокоссовского, 18, Москва",www.sberbank.ru,"'mon': 09:00-19:30, 'tue': 09:00-19:30, 'wed': 09:00-19:30, 'thu': 09:00-19:30, 'fri': 09:00-19:30, 'sat': 09:30-17:00, 'sun': выходной",55.813316,37.723058,"4,4",['8 (800) 555-55-50Показать телефон'],"['https://ok.ru/sberbank', 'https://vk.com/sberbank']",77,79,80,61,36,91,27,,,,,,2024-06-22 03:03:48
121,1123106661,СберБанк,"ул. Сущёвский Вал, 52/17, Москва",www.sberbank.ru,"'mon': 00:00-23:59, 'tue': 00:00-23:59, 'wed': 00:00-23:59, 'thu': 00:00-23:59, 'fri': 00:00-23:59, 'sat': 00:00-23:59, 'sun': выходной",55.792823,37.614913,"4,2",['+7 (495) 500-55-50Показать телефон'],"['https://ok.ru/sberbank', 'https://vk.com/sberbank']",43,43,52,30,30,59,,,,,,,2024-06-22 03:03:48
122,1267731664,СберБанк,"Беговая ул., 17, корп. 1, Москва",www.sberbank.ru,"'mon': выходной, 'tue': выходной, 'wed': выходной, 'thu': выходной, 'fri': выходной, 'sat': выходной, 'sun': выходной",55.781841,37.559940,"4,2",['8 (800) 555-55-50Показать телефон'],"['http://ok.ru/sberbank', 'https://vk.com/sberbank']",64,56,67,51,42,69,16,,,,,,2024-06-22 03:03:48
123,1049401511,СберБанк,"ул. Гарибальди, 36, Москва",www.sberbank.ru,"'mon': 09:00-18:30, 'tue': 09:00-18:30, 'wed': выходной, 'thu': 09:00-18:30, 'fri': 09:00-18:30, 'sat': 09:00-17:00, 'sun': выходной",55.672050,37.549215,"4,4",['8 (800) 555-55-50Показать телефон'],"['https://ok.ru/sberbank', 'https://vk.com/sberbank']",77,74,77,68,57,81,53,,,,,,2024-06-22 03:03:48
124,1130712814,СберБанк,"Тихвинская ул., 20, Москва",www.sberbank.ru,"'mon': 09:30-19:30, 'tue': 09:30-19:30, 'wed': 09:30-19:30, 'thu': 09:30-19:30, 'fri': 09:30-19:30, 'sat': выходной, 'sun': выходной",55.790726,37.600043,"4,4",['8 (800) 555-55-50Показать телефон'],"['https://ok.ru/sberbank', 'https://vk.com/sberbank']",79,80,79,66,72,88,47,,,94,,,2024-06-22 03:03:48
125,1099170064,СберБанк,"Пролетарский просп., 6, корп. 1, Москва",www.sberbank.ru,"'mon': 09:00-20:00, 'tue': 09:00-20:00, 'wed': 09:00-20:00, 'thu': 09:00-20:00, 'fri': 09:00-20:00, 'sat': 10:00-17:00, 'sun': выходной",55.646574,37.655943,"4,5",['8 (800) 555-55-50Показать телефон'],"['http://ok.ru/sberbank', 'https://vk.com/sberbank']",76,75,79,71,63,94,,,,67,,,2024-06-22 03:03:48
126,1199757682,Сбербанк,"Матвеевская ул., 2, Москва",www.sberbank.ru,"'mon': 08:30-20:00, 'tue': 08:30-20:00, 'wed': 08:30-20:00, 'thu': 08:30-20:00, 'fri': 08:30-20:00, 'sat': 09:00-16:00, 'sun': выходной",55.705524,37.479278,"4,7",['8 (800) 555-55-50Показать телефон'],"['https://ok.ru/sberbank', 'https://vk.com/sberbank']",85,84,86,76,87,97,80,,,,,,2024-06-22 03:03:48
127,1058537510,СберБанк,"Большая Переяславская ул., 9, Москва",www.sberbank.ru,"'mon': 09:30-19:00, 'tue': 09:30-19:00, 'wed': 09:30-19:00, 'thu': 09:30-19:00, 'fri': 09:30-19:00, 'sat': выходной, 'sun': выходной",55.783155,37.641542,"4,2",['8 (800) 555-55-50Показать телефон'],"['http://ok.ru/sberbank', 'https://t.me/sberbank', 'https://vk.com/sberbank']",71,73,75,52,60,88,60,,,,,,2024-06-22 03:03:48
128,1068586559,СберБанк,"Профсоюзная ул., 104, Москва",www.sberbank.ru,"'mon': 08:30-20:00, 'tue': 08:30-20:00, 'wed': 08:30-20:00, 'thu': 08:30-20:00, 'fri': 08:30-20:00, 'sat': 09:00-16:00, 'sun': выходной",55.641192,37.523964,"4,4",['8 (800) 555-55-50Показать телефон'],"['https://ok.ru/sberbank', 'https://vk.com/sberbank']",75,75,79,56,78,92,91,,,,,,2024-06-22 03:03:48
129,1027804850,СберБанк,"Свободный просп., 33, Москва",www.sberbank.ru,"'mon': 09:00-20:30, 'tue': 09:00-20:30, 'wed': 09:00-20:30, 'thu': 09:00-20:30, 'fri': 09:00-20:30, 'sat': 09:00-18:30, 'sun': выходной",55.752820,37.819316,"4,4",['8 (800) 555-55-50Показать телефон'],"['http://ok.ru/sberbank', 'https://t.me/sberbank', 'https://vk.com/sberbank']",72,67,70,52,41,85,,,,,,,2024-06-22 03:03:48
130,91013428713,СберБанк,"Щёлковское ш., 6, Москва",www.sberbank.ru,"'mon': 09:00-20:00, 'tue': 09:00-20:00, 'wed': 09:00-20:00, 'thu': 09:00-20:00, 'fri': 09:00-20:00, 'sat': 09:30-15:30, 'sun': выходной",55.804169,37.760411,"4,6",['8 (800) 555-55-50Показать телефон'],"['https://ok.ru/sberbank', 'https://vk.com/sberbank']",76,74,81,65,68,77,,,,,,,2024-06-22 03:03:48
131,1130216142,СберБанк,"просп. Мира, 180, Москва",www.sberbank.ru,"'mon': 10:00-19:30, 'tue': 10:00-19:30, 'wed': 10:00-19:30, 'thu': 10:00-19:30, 'fri': 10:00-19:30, 'sat': выходной, 'sun': выходной",55.824374,37.645922,"4,4",['8 (800) 555-55-50Показать телефон'],"['http://ok.ru/sberbank', 'https://vk.com/sberbank']",80,83,85,69,54,94,,,,55,,,2024-06-22 03:03:48
132,1013311129,СберБанк,"Кировоградская ул., 8, корп. 3, Москва",www.sberbank.ru,"'mon': 09:00-19:30, 'tue': 09:00-19:30, 'wed': 09:00-19:30, 'thu': 09:00-19:30, 'fri': 09:00-19:30, 'sat': 09:30-16:30, 'sun': выходной",55.627726,37.610802,"4,6",['8 (800) 555-55-50Показать телефон'],"['http://ok.ru/sberbank', 'https://vk.com/sberbank']",78,77,82,75,83,93,67,,,,,,2024-06-22 03:03:48
133,1145622076,СберБанк,"ул. Расплетина, 10, корп. 1, Москва",www.sberbank.ru,"'mon': 08:30-19:30, 'tue': 08:30-19:30, 'wed': 08:30-19:30, 'thu': 08:30-19:30, 'fri': 08:30-19:30, 'sat': 09:30-18:00, 'sun': выходной",55.790948,37.482869,"4,6",['8 (800) 555-55-50Показать телефон'],"['https://ok.ru/sberbank', 'https://vk.com/sberbank']",80,80,81,73,81,74,57,72,,,80,,2024-06-22 03:03:48
134,1059022742,СберБанк,"Кастанаевская ул., 24, Москва",www.sberbank.ru,"'mon': 09:30-19:30, 'tue': 09:30-19:30, 'wed': 09:30-19:30, 'thu': 09:30-19:30, 'fri': 09:30-19:30, 'sat': выходной, 'sun': выходной",55.738613,37.490729,"4,4",['8 (800) 555-55-50Показать телефон'],"['https://ok.ru/sberbank', 'https://vk.com/sberbank']",73,75,74,64,14,70,4,,,,,,2024-06-22 03:03:48
135,1010347723,СберБанк,"ул. Академика Королёва, 5, Москва",www.sberbank.ru,"'mon': 09:00-19:30, 'tue': 09:00-19:30, 'wed': 09:00-19:30, 'thu': 09:00-19:30, 'fri': 09:00-19:30, 'sat': 10:00-16:00, 'sun': выходной",55.820998,37.627430,"4,4",['8 (800) 555-55-50Показать телефон'],"['https://t.me/sberbank', 'https://vk.com/sber']",69,67,68,57,54,92,,,,,,,2024-06-22 03:03:48
136,1133836910,СберБанк,"Измайловский просп., 61, Москва",www.sberbank.ru,"'mon': 08:30-19:30, 'tue': 08:30-19:30, 'wed': 08:30-19:30, 'thu': 08:30-19:30, 'fri': 08:30-19:30, 'sat': 08:30-19:30, 'sun': выходной",55.788741,37.783685,"4,4",['8 (800) 555-55-50Показать телефон'],"['https://ok.ru/sberbank', 'https://t.me/Sber_Business_Live_bot', 'https://vk.com/careersber']",70,68,70,59,70,91,,,,,,,2024-06-22 03:03:48
137,1117438875,СберБанк,"Люблинская ул., 175, Москва",www.sberbank.ru,"'mon': 09:00-20:00, 'tue': 09:00-20:00, 'wed': 09:00-20:00, 'thu': 09:00-20:00, 'fri': 09:00-20:00, 'sat': 09:00-17:00, 'sun': выходной",55.645951,37.747210,"4,6",['8 (800) 555-55-50Показать телефон'],"['http://ok.ru/sberbank', 'https://vk.com/sberbank']",74,74,80,64,63,83,80,,,90,,,2024-06-22 03:03:48
138,1128805042,СберБанк,"Башиловская ул., 11, Москва",www.sberbank.ru,"'mon': 09:00-20:00, 'tue': 09:00-20:00, 'wed': 09:00-20:00, 'thu': 09:00-20:00, 'fri': 09:00-20:00, 'sat': 10:30-17:30, 'sun': выходной",55.796743,37.575787,"4,6",['8 (800) 555-55-50Показать телефон'],"['https://ok.ru/sberbank', 'https://vk.com/sberbank']",78,76,78,64,68,96,90,,,68,,,2024-06-22 03:03:48
139,1052738875,СберБанк,,www.sberbank.ru,"'mon': 09:30-19:00, 'tue': 09:30-19:00, 'wed': 09:30-19:00, 'thu': 09:30-19:00, 'fri': 09:30-19:00, 'sat': 10:30-17:30, 'sun': выходной",61.261842,37.617700,"4,6",['8 (800) 555-55-50Показать телефон'],"['http://ok.ru/sberbank', 'https://vk.com/sberbank']",73,73,73,63,48,88,,,,,,,2024-06-22 03:03:48
140,1075320959,СберБанк,"Красноармейская ул., 20, Москва",www.sberbank.ru,"'mon': 09:00-19:00, 'tue': 09:00-19:00, 'wed': 09:00-19:00, 'thu': 09:00-19:00, 'fri': 09:00-19:00, 'sat': 10:00-16:00, 'sun': выходной",55.800452,37.543587,"4,4",['8 (800) 555-55-50Показать телефон'],"['https://ok.ru/sberbank', 'https://t.me/sberbank', 'https://vk.com/sberbank']",80,81,82,70,56,96,,,,,,,2024-06-22 03:03:48
141,1082081308,СберБанк,"ул. Народного Ополчения, 39, корп. 1, Москва",www.sberbank.ru,"'mon': 09:00-19:30, 'tue': 09:00-19:30, 'wed': 09:00-19:30, 'thu': 09:00-19:30, 'fri': 09:00-19:30, 'sat': 09:30-17:00, 'sun': выходной",55.791064,37.488693,"4,6",['8 (800) 555-55-50Показать телефон'],"['https://ok.ru/sberbank', 'https://t.me/sberbank', 'https://vk.com/sberbank']",86,87,91,71,82,93,83,,,,,,2024-06-22 03:03:48
142,1203628270,СберБанк,"Криворожская ул., 23, корп. 1, Москва",www.sberbank.ru,"'mon': 10:00-18:30, 'tue': 10:00-18:30, 'wed': 10:00-18:30, 'thu': 10:00-18:30, 'fri': 10:00-18:30, 'sat': выходной, 'sun': выходной",55.668289,37.610761,"4,3",['8 (800) 555-55-50Показать телефон'],"['http://ok.ru/sberbank', 'https://t.me/sberbank', 'https://vk.com/sberbank']",73,75,78,55,32,69,30,,,100,,,2024-06-22 03:03:48
143,36058573249,СберБанк,"1, стр. 52, Западный административный округ, район Раменки, территория Ленинские Горы, Москва",www.sberbank.ru,"'mon': 10:00-19:00, 'tue': 10:00-19:00, 'wed': 10:00-19:00, 'thu': 10:00-19:00, 'fri': 10:00-19:00, 'sat': выходной, 'sun': выходной",55.699594,37.532271,"4,3",['8 (800) 555-55-50Показать телефон'],"['http://ok.ru/sberbank', 'https://vk.com/sberbank']",55,62,62,35,,,,,,,,,2024-06-22 03:03:48
144,57490556382,СберБанк,"Новоясеневский просп., 1, корп. 2, Москва",www.sberbank.ru,"'mon': 09:00-20:00, 'tue': 09:00-20:00, 'wed': 09:00-20:00, 'thu': 09:00-20:00, 'fri': 09:00-20:00, 'sat': 10:00-17:00, 'sun': 10:00-17:00",55.619931,37.507110,"4,6",['8 (800) 555-55-50Показать телефон'],"['https://ok.ru/sberbank', 'https://vk.com/sberbank']",78,72,78,66,84,95,50,,,,,,2024-06-22 03:03:48
145,1115514801,СберБанк,"ул. Судакова, 17, Москва",www.sberbank.ru,"'mon': 08:30-19:30, 'tue': 08:30-19:30, 'wed': выходной, 'thu': 08:30-19:30, 'fri': 08:30-19:30, 'sat': 10:00-15:00, 'sun': выходной",55.673094,37.749967,"4,6",['8 (800) 555-55-50Показать телефон'],"['https://ok.ru/sberbank', 'https://vk.com/sberbank']",78,77,79,64,56,95,46,,,,,,2024-06-22 03:03:48
146,1091486166,СберБанк,"Рязанский просп., 58/1, Москва",www.sberbank.ru,"'mon': 09:00-19:00, 'tue': 09:00-19:00, 'wed': 09:00-19:00, 'thu': 09:00-19:00, 'fri': 09:00-19:00, 'sat': 10:00-15:00, 'sun': выходной",55.715358,37.797552,"4,4",['8 (800) 555-55-50Показать телефон'],"['http://ok.ru/sberbank', 'https://vk.com/sberbank']",78,77,83,54,18,89,,,,,,,2024-06-22 03:03:48
147,1130776010,СберБанк,"Ярцевская ул., 25А, Москва",www.sberbank.ru,"'mon': 09:30-20:00, 'tue': 09:30-20:00, 'wed': 09:30-20:00, 'thu': 09:30-20:00, 'fri': 09:30-20:00, 'sat': 10:00-19:00, 'sun': 10:00-19:00",55.741019,37.415415,"4,4",['8 (800) 555-55-50Показать телефон'],"['https://ok.ru/sberbank', 'https://t.me/Sber_Business_Live_bot', 'https://vk.com/careersber']",73,71,75,43,43,87,88,,,,,,2024-06-22 03:03:48
148,76042338235,СберБанк,"Ходынский бул., 2, Москва",www.sberbank.ru,"'mon': 10:00-19:00, 'tue': 10:00-19:00, 'wed': 10:00-19:00, 'thu': 10:00-19:00, 'fri': 10:00-19:00, 'sat': 12:00-16:00, 'sun': выходной",55.788499,37.537194,"4,4",['8 (800) 555-55-50Показать телефон'],"['http://ok.ru/sberbank', 'https://t.me/sberbank', 'https://vk.com/sberbank']",69,73,78,60,,90,,,,,,,2024-06-22 03:03:48
149,172015505206,СберБанк,"Новоясеневский просп., 7, Москва",www.sberbank.ru,"'mon': 10:00-22:00, 'tue': 10:00-22:00, 'wed': 10:00-22:00, 'thu': 10:00-22:00, 'fri': 10:00-22:00, 'sat': 10:00-21:00, 'sun': 10:00-20:00",55.607960,37.532862,"4,4",['8 (800) 555-55-50Показать телефон'],"['http://ok.ru/sberbank', 'https://vk.com/sberbank']",66,68,74,32,38,96,81,,,,,,2024-06-22 03:03:48
150,185450832194,СберБанк,"ул. Госпитальный Вал, 18/1, Москва",www.sberbank.ru,"'mon': 09:00-18:30, 'tue': 09:00-18:30, 'wed': 09:00-18:30, 'thu': 09:00-18:30, 'fri': 09:00-18:30, 'sat': 10:00-15:00, 'sun': выходной",55.773333,37.710972,"4,5",['8 (800) 555-55-50Показать телефон'],"['https://ok.ru/sberbank', 'https://vk.com/sberbank']",80,84,84,55,51,96,55,,,,,,2024-06-22 03:03:48
151,1056987568,СберБанк,"ул. Гурьянова, 55, Москва",www.sberbank.ru,"'mon': 09:00-19:00, 'tue': 09:00-19:00, 'wed': 09:00-19:00, 'thu': 09:00-19:00, 'fri': 09:00-19:00, 'sat': выходной, 'sun': выходной",55.680089,37.716784,"4,6",['8 (800) 555-55-50Показать телефон'],"['http://ok.ru/sberbank', 'https://vk.com/sberbank']",79,75,80,71,62,95,73,60,,,,,2024-06-22 03:03:48
152,1072367573,СберБанк,"Зеленодольская ул., 22/14, Москва",www.sberbank.ru,"'mon': 09:00-19:00, 'tue': 09:00-19:00, 'wed': 09:00-19:00, 'thu': 09:00-19:00, 'fri': 09:00-19:00, 'sat': 10:00-16:00, 'sun': выходной",55.712369,37.777172,"4,5",['8 (800) 555-55-50Показать телефон'],"['https://ok.ru/sberbank', 'https://t.me/sberbank', 'https://vk.com/sberbank']",81,81,83,73,61,93,70,,,,,,2024-06-22 03:03:48
153,1120097305,СберБанк,"ул. Яблочкова, 21А, Москва",www.sberbank.ru,"'mon': 10:00-19:30, 'tue': 10:00-19:30, 'wed': 10:00-19:30, 'thu': 10:00-19:30, 'fri': 10:00-19:30, 'sat': 10:00-16:00, 'sun': выходной",55.819479,37.578923,"4,5",['8 (800) 555-55-50Показать телефон'],"['https://ok.ru/sberbank', 'https://vk.com/sberbank']",86,86,86,77,77,80,63,,,,,,2024-06-22 03:03:48
154,1123781527,СберБанк,"ул. Нижняя Масловка, 14, Москва",www.sberbank.ru,"'mon': 09:30-19:30, 'tue': 09:30-19:30, 'wed': 09:30-19:30, 'thu': 09:30-19:30, 'fri': 09:30-19:30, 'sat': 11:00-15:00, 'sun': выходной",55.792061,37.576415,"4,4",['8 (800) 555-55-50Показать телефон'],"['https://ok.ru/sberbank', 'https://vk.com/sberbank']",77,76,80,67,50,67,,,,,,,2024-06-22 03:03:48
155,1093766360,СберБанк,"ул. Намёткина, 11, Москва",www.sberbank.ru,"'mon': 09:00-19:00, 'tue': 09:00-19:00, 'wed': 09:00-19:00, 'thu': 09:00-19:00, 'fri': 09:00-19:00, 'sat': 09:00-15:00, 'sun': выходной",55.662917,37.553723,"4,4",['8 (800) 555-55-50Показать телефон'],"['https://ok.ru/sber/', 'https://vk.com/sberbank']",83,82,85,79,79,95,,,,,,,2024-06-22 03:03:48
156,76541561557,СберБанк,"Вешняковская ул., 18А, Москва",www.sberbank.ru,"'mon': выходной, 'tue': выходной, 'wed': выходной, 'thu': выходной, 'fri': выходной, 'sat': выходной, 'sun': выходной",55.723408,37.825332,"4,6",['8 (800) 555-55-50Показать телефон'],"['http://ok.ru/sberbank', 'https://vk.com/sberbank']",82,79,79,76,66,79,,,,,,,2024-06-22 03:03:48
157,1120408681,СберБанк,"Вешняковская ул., 24Б, Москва",www.sberbank.ru,"'mon': 09:00-19:30, 'tue': 09:00-19:30, 'wed': 09:00-19:30, 'thu': 09:00-19:30, 'fri': 09:00-19:30, 'sat': 09:30-16:30, 'sun': выходной",55.720608,37.817122,"4,5",['8 (800) 555-55-50Показать телефон'],"['http://ok.ru/sberbank', 'https://vk.com/sberbank']",79,79,81,74,79,91,91,,,,,,2024-06-22 03:03:48
158,1050604603,СберБанк,"Ленинский просп., 89/2, Москва",www.sberbank.ru,"'mon': 09:00-19:30, 'tue': 09:00-19:30, 'wed': 09:00-19:30, 'thu': 09:00-19:30, 'fri': 09:00-19:30, 'sat': 10:00-17:00, 'sun': выходной",55.677923,37.531496,"4,5",['8 (800) 555-55-50Показать телефон'],"['http://ok.ru/sberbank', 'https://vk.com/sberbank']",74,75,79,63,46,100,30,,,,,,2024-06-22 03:03:48
159,54944782791,СберБанк,"Старокачаловская ул., 5А, Москва",www.sberbank.ru,"'mon': 10:00-20:00, 'tue': 10:00-20:00, 'wed': 10:00-20:00, 'thu': 10:00-20:00, 'fri': 10:00-20:00, 'sat': 10:00-18:00, 'sun': 10:00-15:00",55.569851,37.579053,"4,9",['8 (800) 555-55-50Показать телефон'],['https://vk.com/sberbank'],84,82,86,67,72,85,86,,,,,,2024-06-22 03:03:48
160,1102193377,СберБанк,"Саянская ул., 18, Москва",www.sberbank.ru,"'mon': 08:30-19:30, 'tue': 08:30-19:30, 'wed': 08:30-19:30, 'thu': 08:30-19:30, 'fri': 08:30-19:30, 'sat': 09:30-17:30, 'sun': выходной",55.767101,37.834166,"4,8",['8 (800) 555-55-50Показать телефон'],"['http://ok.ru/sberbank', 'https://vk.com/sberbank']",82,80,83,80,87,93,89,30,,83,,,2024-06-22 03:03:48
161,1092471023,СберБанк,"Днепропетровская ул., 3, корп. 5А, Москва",www.sberbank.ru,"'mon': 09:00-19:00, 'tue': 09:00-19:00, 'wed': 09:00-19:00, 'thu': 09:00-19:00, 'fri': 09:00-19:00, 'sat': 09:00-16:30, 'sun': выходной",55.622009,37.601448,"4,4",['8 (800) 555-55-50Показать телефон'],"['http://ok.ru/sberbank', 'https://vk.com/sberbank']",71,68,72,67,71,76,60,,,,,,2024-06-22 03:03:48
162,1028158103,СберБанк,"Огородный пр., 19, Москва",www.sberbank.ru,"'mon': 09:00-19:30, 'tue': 09:00-19:30, 'wed': 09:00-19:30, 'thu': 09:00-19:30, 'fri': 09:00-19:30, 'sat': 10:00-14:00, 'sun': выходной",55.815987,37.597625,"4,3",['8 (800) 555-55-50Показать телефон'],"['https://ok.ru/sberbank', 'https://vk.com/sberbank']",80,80,85,66,39,100,64,,,,,,2024-06-22 03:03:48
163,1021880068,СберБанк,"Вешняковская ул., 12Б, стр. 1, Москва",www.sberbank.ru,"'mon': 09:30-19:00, 'tue': 09:30-19:00, 'wed': 09:30-19:00, 'thu': 09:30-19:00, 'fri': 09:30-19:00, 'sat': 09:30-16:00, 'sun': выходной",55.734894,37.825764,"4,6",['8 (800) 555-55-50Показать телефон'],"['http://ok.ru/sberbank', 'https://vk.com/sberbank']",86,86,87,64,56,84,91,,,,,,2024-06-22 03:03:48
164,1020705043,СберБанк,"Тимирязевская ул., 10/12, Москва",www.sberbank.ru,"'mon': 09:00-19:00, 'tue': 09:00-19:00, 'wed': 09:00-19:00, 'thu': 09:00-19:00, 'fri': 09:00-19:00, 'sat': 09:00-16:30, 'sun': выходной",55.811931,37.568142,"4,4",['8 (800) 555-55-50Показать телефон'],"['https://ok.ru/sberbank', 'https://vk.com/sberbank']",79,82,81,58,53,92,,,,92,,,2024-06-22 03:03:48
165,1017488654,СберБанк,"ул. Барклая, 16, корп. 1, Москва",www.sberbank.ru,"'mon': 09:00-19:30, 'tue': 09:00-19:30, 'wed': 09:00-19:30, 'thu': 09:00-19:30, 'fri': 09:00-19:30, 'sat': 09:00-16:30, 'sun': выходной",55.745968,37.496417,"4,5",['8 (800) 555-55-50Показать телефон'],"['http://ok.ru/sberbank', 'https://t.me/Sber_Business_Live_bot', 'https://vk.com/careersber']",79,81,83,66,75,100,53,,,97,,,2024-06-22 03:03:48
166,1040859940,СберБанк,"ул. Академика Миллионщикова, 19, Москва",www.sberbank.ru,"'mon': 10:00-19:00, 'tue': 10:00-19:00, 'wed': 10:00-19:00, 'thu': 10:00-19:00, 'fri': 10:00-19:00, 'sat': 10:30-16:30, 'sun': выходной",55.668365,37.648543,"4,4",['8 (800) 555-55-50Показать телефон'],"['https://ok.ru/sberbank', 'https://vk.com/sberbank']",86,84,88,81,48,100,20,,,,,,2024-06-22 03:03:48
167,1105986943,СберБанк,"просп. Маршала Жукова, 44, Москва",www.sberbank.ru,"'mon': 08:30-19:30, 'tue': 08:30-19:30, 'wed': 08:30-19:30, 'thu': 08:30-19:30, 'fri': 08:30-19:30, 'sat': 09:00-16:30, 'sun': выходной",55.777309,37.467050,"4,4",['8 (800) 555-55-50Показать телефон'],"['https://ok.ru/sberbank', 'https://vk.com/sberbank']",79,77,81,70,80,95,73,43,,33,,,2024-06-22 03:03:48
168,1085479428,СберБанк,"Шипиловская ул., 32, Москва",www.sberbank.ru,"'mon': 09:30-19:00, 'tue': 09:30-19:00, 'wed': выходной, 'thu': 09:30-19:00, 'fri': 09:30-19:00, 'sat': 10:00-16:00, 'sun': выходной",55.619960,37.718886,"4,7",['8 (800) 555-55-50Показать телефон'],"['http://ok.ru/sberbank', 'https://vk.com/sberbank']",88,87,89,79,59,97,48,,,,,,2024-06-22 03:03:48
169,182076831605,СберБанк,"Ясеневая ул., 26, Москва",www.sberbank.ru,"'mon': 08:30-19:30, 'tue': 08:30-19:30, 'wed': 08:30-19:30, 'thu': 08:30-19:30, 'fri': 08:30-19:30, 'sat': 09:00-17:00, 'sun': выходной",55.603934,37.735962,"4,8",['8 (800) 555-55-50Показать телефон'],"['https://ok.ru/sberbank', 'https://vk.com/sberbank']",86,84,87,80,88,88,93,,,88,,,2024-06-22 03:03:48
170,1074903265,СберБанк,"Россошанская ул., 3, корп. 1А, стр. 2, Москва",www.sberbank.ru,"'mon': 08:30-19:30, 'tue': 08:30-19:30, 'wed': 08:30-19:30, 'thu': 08:30-19:30, 'fri': 08:30-19:30, 'sat': 09:00-16:30, 'sun': выходной",55.595163,37.607431,"4,7",['8 (800) 555-55-50Показать телефон'],"['https://ok.ru/sberbank', 'https://t.me/sberbank', 'https://vk.com/sberbank']",86,86,90,70,73,93,77,,,,,,2024-06-22 03:03:48
171,1067092228,СберБанк,"Фестивальная ул., 2Б, Москва",www.sberbank.ru,"'mon': 10:00-21:00, 'tue': 10:00-21:00, 'wed': 10:00-21:00, 'thu': 10:00-21:00, 'fri': 10:00-21:00, 'sat': 10:00-18:00, 'sun': 10:00-18:00",55.855083,37.478091,"4,5",['8 (800) 555-55-50Показать телефон'],"['https://ok.ru/sber/', 'https://t.me/sberbank', 'https://vk.com/sberbank']",76,74,78,53,75,86,86,,,,,,2024-06-22 03:03:48
172,1010197748,СберБанк,"Измайловский бул., 38, Москва",www.sberbank.ru,"'mon': 09:00-19:30, 'tue': 09:00-19:30, 'wed': 09:00-19:30, 'thu': 09:00-19:30, 'fri': 09:00-19:30, 'sat': 10:00-17:00, 'sun': выходной",55.796445,37.801787,"4,5",['8 (800) 555-55-50Показать телефон'],"['http://ok.ru/sberbank', 'https://vk.com/sberbank']",83,78,85,76,70,87,,,,,,,2024-06-22 03:03:48
173,1188897310,СберБанк,"ул. Генерала Кузнецова, 28, корп. 1, Москва",www.sberbank.ru,"'mon': 09:30-19:30, 'tue': 09:30-19:30, 'wed': 09:30-19:30, 'thu': 09:30-19:30, 'fri': 09:30-19:30, 'sat': 10:00-16:00, 'sun': выходной",55.683034,37.852333,"4,6",['8 (800) 555-55-50Показать телефон'],"['https://ok.ru/sberbank', 'https://vk.com/sberbank']",79,80,84,62,65,97,50,,,,,,2024-06-22 03:03:48
174,1141089392,СберБанк,"Никулинская ул., 25, Москва",www.sberbank.ru,"'mon': 08:30-20:00, 'tue': 08:30-20:00, 'wed': 08:30-20:00, 'thu': 08:30-20:00, 'fri': 08:30-20:00, 'sat': 10:00-19:00, 'sun': выходной",55.669688,37.453281,"4,6",['8 (800) 555-55-50Показать телефон'],"['https://ok.ru/sberbank', 'https://t.me/sberbank', 'https://vk.com/sberbank']",74,73,76,64,81,91,74,67,,75,75,,2024-06-22 03:03:48
175,1232723322,СберБанк,"Большая Черкизовская ул., 5, корп. 1, Москва",www.sberbank.ru,"'mon': 09:00-19:30, 'tue': 09:00-19:30, 'wed': 09:00-19:30, 'thu': 09:00-19:30, 'fri': 09:00-19:30, 'sat': 09:30-16:30, 'sun': выходной",55.797290,37.720032,"4,3",['8 (800) 555-55-50Показать телефон'],"['http://ok.ru/sberbank', 'https://vk.com/sberbank']",68,63,65,33,19,84,,,,,,,2024-06-22 03:03:48
176,1771193961,СберБанк,"ул. Хачатуряна, 20, Москва",www.sberbank.ru,"'mon': 08:30-20:30, 'tue': 08:30-20:30, 'wed': 08:30-20:30, 'thu': 08:30-20:30, 'fri': 08:30-20:30, 'sat': 09:00-16:30, 'sun': 09:30-15:30",55.862052,37.604285,"4,6",['8 (800) 555-55-50Показать телефон'],"['https://ok.ru/sber/', 'https://vk.com/sberbank']",73,73,79,65,84,96,,,,,,,2024-06-22 03:03:48
177,121176118798,СберБанк,"Рождественская ул., 31, Москва",www.sberbank.ru,"'mon': 09:00-20:00, 'tue': 09:00-20:00, 'wed': 09:00-20:00, 'thu': 09:00-20:00, 'fri': 09:00-20:00, 'sat': 10:00-17:00, 'sun': 10:00-15:00",55.706422,37.930837,"4,8",['8 (800) 555-55-50Показать телефон'],"['https://ok.ru/sberbank', 'https://vk.com/sberbank']",83,83,86,66,50,81,86,33,,,,,2024-06-22 03:03:48
178,1086967085,СберБанк,"Дмитровское ш., 64, корп. 2, Москва",www.sberbank.ru,"'mon': 09:00-20:00, 'tue': 09:00-20:00, 'wed': 09:00-20:00, 'thu': 09:00-20:00, 'fri': 09:00-20:00, 'sat': 09:00-17:00, 'sun': выходной",55.855809,37.562644,"4,6",['8 (800) 555-55-50Показать телефон'],"['https://ok.ru/sberbank', 'https://t.me/sberbank', 'https://vk.com/sberbank']",80,80,80,74,83,93,86,,,,,,2024-06-22 03:03:48
179,1396706379,СберБанк,"1-я Мясниковская ул., 2, Москва",www.sberbank.ru,"'mon': 09:30-20:00, 'tue': 09:30-20:00, 'wed': 09:30-20:00, 'thu': 09:30-20:00, 'fri': 09:30-20:00, 'sat': 10:00-17:00, 'sun': выходной",55.816584,37.702509,"4,5",['8 (800) 555-55-50Показать телефон'],"['http://ok.ru/sberbank', 'https://t.me/Sber_Business_Live_bot', 'https://vk.com/careersber']",75,73,79,59,43,100,73,,,,,,2024-06-22 03:03:48
180,1026766377,СберБанк,"Юбилейный просп., 24/7, Реутов",www.sberbank.ru,"'mon': 09:00-20:00, 'tue': 09:00-20:00, 'wed': 09:00-20:00, 'thu': 09:00-20:00, 'fri': 09:00-20:00, 'sat': 09:00-16:00, 'sun': выходной",55.749179,37.862949,"4,6",['8 (800) 555-55-50Показать телефон'],"['https://ok.ru/sberbank', 'https://vk.com/sberbank']",72,73,76,59,59,93,64,,,,,,2024-06-22 03:03:48
181,1026848141,СберБанк,"Ленинский просп., 82/2, Москва",www.sberbank.ru,"'mon': выходной, 'tue': выходной, 'wed': выходной, 'thu': выходной, 'fri': выходной, 'sat': выходной, 'sun': выходной",55.681030,37.533877,"4,3",['8 (800) 555-55-50Показать телефон'],"['http://ok.ru/sberbank', 'https://vk.com/sberbank']",78,76,83,66,72,92,55,,,,,,2024-06-22 03:03:48
182,1055613851,СберБанк,"Озёрная ул., 10, Москва",www.sberbank.ru,"'mon': 08:30-20:00, 'tue': 08:30-20:00, 'wed': 08:30-20:00, 'thu': 08:30-20:00, 'fri': 08:30-20:00, 'sat': 09:00-16:00, 'sun': выходной",55.681422,37.458712,"4,6",['8 (800) 555-55-50Показать телефон'],"['https://ok.ru/sberbank', 'https://vk.com/sberbank']",77,73,75,63,61,79,74,,,61,,,2024-06-22 03:03:48
183,1118725368,СберБанк,"Петровско-Разумовский пр., 24, корп. 2, Москва",www.sberbank.ru,"'mon': 09:30-18:30, 'tue': 09:30-18:30, 'wed': 09:30-18:30, 'thu': 09:30-18:30, 'fri': 09:30-18:30, 'sat': выходной, 'sun': выходной",55.802057,37.564497,"4,4",['8 (800) 555-55-50Показать телефон'],"['https://ok.ru/sberbank', 'https://vk.com/sberbank']",74,75,79,59,46,93,28,,,,,,2024-06-22 03:03:48
184,1001688437,СберБанк,"Старопетровский пр., 1, стр. 2, Москва",www.sberbank.ru,"'mon': 10:00-19:30, 'tue': 10:00-19:30, 'wed': 10:00-19:30, 'thu': 10:00-19:30, 'fri': 10:00-19:30, 'sat': 11:00-16:00, 'sun': выходной",55.823641,37.500977,"4,3",['8 (800) 555-55-50Показать телефон'],"['http://ok.ru/sberbank', 'https://vk.com/sberbank']",70,72,78,59,80,94,,,,,,,2024-06-22 03:03:48
185,1104414157,СберБанк,"ул. Академика Челомея, 4Б, Москва",www.sberbank.ru,"'mon': 10:00-19:00, 'tue': 10:00-19:00, 'wed': 10:00-19:00, 'thu': 10:00-19:00, 'fri': 10:00-19:00, 'sat': 10:00-19:00, 'sun': выходной",55.662233,37.533533,"4,5",['8 (800) 555-55-50Показать телефон'],"['http://ok.ru/sberbank', 'https://vk.com/sberbank']",81,81,91,81,79,96,44,,,,,,2024-06-22 03:03:48
186,1071704305,СберБанк,"Щукинская ул., 42, Москва",www.sberbank.ru,"'mon': 10:00-20:00, 'tue': 10:00-20:00, 'wed': 10:00-20:00, 'thu': 10:00-20:00, 'fri': 10:00-20:00, 'sat': 11:00-17:00, 'sun': выходной",55.809474,37.464481,"4,6",['8 (800) 555-55-50Показать телефон'],"['https://ok.ru/sber/', 'https://vk.com/sberbank']",73,76,74,46,53,91,74,,,,,,2024-06-22 03:03:48
187,1138765115,СберБанк,"ул. Бажова, 24, корп. 2, Москва",www.sberbank.ru,"'mon': 09:00-19:00, 'tue': 09:00-19:00, 'wed': 09:00-19:00, 'thu': 09:00-19:00, 'fri': 09:00-19:00, 'sat': 09:30-15:30, 'sun': выходной",55.836457,37.665178,"4,5",['8 (800) 555-55-50Показать телефон'],"['http://ok.ru/sberbank', 'https://vk.com/sberbank']",78,82,85,61,69,92,58,,,,,,2024-06-22 03:03:48
188,1101504261,СберБанк,"Славянский бул., 3, Москва",www.sberbank.ru,"'mon': 08:30-19:30, 'tue': 08:30-19:30, 'wed': 08:30-19:30, 'thu': 08:30-19:30, 'fri': 08:30-19:30, 'sat': 08:30-19:30, 'sun': выходной",55.727192,37.473696,"4,3",['8 (800) 555-55-50Показать телефон'],"['http://ok.ru/sberbank', 'https://vk.com/sberbank']",68,70,70,60,46,80,,,,90,,,2024-06-22 03:03:48
189,32413334408,СберБанк,"Лесная ул., 20, стр. 1, Москва",www.sberbank.ru,"'mon': 09:00-20:00, 'tue': 09:00-20:00, 'wed': 09:00-20:00, 'thu': 09:00-20:00, 'fri': 09:00-20:00, 'sat': 10:00-18:00, 'sun': выходной",55.780419,37.591771,"4,1",['8 (800) 555-55-50Показать телефон'],"['http://ok.ru/sberbank', 'https://vk.com/sberbank']",49,46,62,83,,,,,,,,,2024-06-22 03:03:48
190,1053709661,СберБанк,"Славянский бул., 15, Москва",www.sberbank.ru,"'mon': 09:30-19:00, 'tue': 09:30-19:00, 'wed': 09:30-19:00, 'thu': 09:30-19:00, 'fri': 09:30-19:00, 'sat': 10:00-14:00, 'sun': выходной",55.725413,37.461928,"4,4",['8 (800) 555-55-50Показать телефон'],"['http://ok.ru/sberbank', 'https://vk.com/sberbank']",76,78,80,59,60,91,73,,,,,,2024-06-22 03:03:48
191,1082557054,СберБанк,"Нахимовский просп., 25А, Москва",www.sberbank.ru,"'mon': 09:00-20:00, 'tue': 09:00-20:00, 'wed': 09:00-20:00, 'thu': 09:00-20:00, 'fri': 09:00-20:00, 'sat': 09:30-17:30, 'sun': выходной",55.668033,37.590135,,['8 (800) 555-55-50Показать телефон'],"['https://ok.ru/sberbank', 'https://vk.com/sberbank']",68,67,79,50,10,100,4,,,,,,2024-06-22 03:03:48
192,1102239925,СберБанк,"ул. Миклухо-Маклая, 55, Москва",www.sberbank.ru,"'mon': 08:30-19:30, 'tue': 08:30-19:30, 'wed': 08:30-19:30, 'thu': 08:30-19:30, 'fri': 08:30-19:30, 'sat': 09:00-16:00, 'sun': выходной",55.640646,37.534544,"4,5",['8 (800) 555-55-50Показать телефон'],"['http://ok.ru/sberbank', 'https://vk.com/sberbank']",87,88,87,68,65,100,67,,,,,,2024-06-22 03:03:48
193,1644852143,СберБанк,"Кустанайская ул., 6, Москва",www.sberbank.ru,"'mon': 09:30-19:30, 'tue': 09:30-19:30, 'wed': 09:30-19:30, 'thu': 09:30-19:30, 'fri': 09:30-19:30, 'sat': 10:00-17:00, 'sun': 10:00-16:00",55.619760,37.752110,"4,7",['8 (800) 555-55-50Показать телефон'],"['http://ok.ru/sberbank', 'https://vk.com/sberbank']",77,77,80,55,83,89,,,,90,,,2024-06-22 03:03:48
194,100043815591,СберБанк,"Кастанаевская ул., 54, корп. 3, Москва",www.sberbank.ru,"'mon': 10:00-19:30, 'tue': 10:00-19:30, 'wed': 10:00-19:30, 'thu': 10:00-19:30, 'fri': 10:00-19:30, 'sat': 10:00-17:30, 'sun': выходной",55.735455,37.467749,"4,4",['8 (800) 555-55-50Показать телефон'],"['https://ok.ru/sberbank', 'https://vk.com/sberbank']",82,81,79,72,64,88,21,,,,,,2024-06-22 03:03:48
195,1052296229,СберБанк,"ул. Адмирала Макарова, 45, Москва",www.sberbank.ru,"'mon': 08:30-20:00, 'tue': 08:30-20:00, 'wed': 08:30-20:00, 'thu': 08:30-20:00, 'fri': 08:30-20:00, 'sat': 08:30-20:00, 'sun': выходной",55.838928,37.485076,"4,4",['8 (800) 555-55-50Показать телефон'],"['https://ok.ru/sber/', 'https://t.me/sberbank', 'https://vk.com/sberbank']",75,74,75,78,86,76,64,,,,,,2024-06-22 03:03:48
196,1254022466,СберБанк,"Дмитровское ш., 29, корп. 1, Москва",www.sberbank.ru,"'mon': 09:00-19:30, 'tue': 09:00-19:30, 'wed': 09:00-19:30, 'thu': 09:00-19:30, 'fri': 09:00-19:30, 'sat': 09:30-16:30, 'sun': выходной",55.828010,37.571958,"4,4",['8 (800) 555-55-50Показать телефон'],"['https://ok.ru/sber/', 'https://t.me/sberbank', 'https://vk.com/sberbank']",77,76,83,71,64,96,54,,,,,,2024-06-22 03:03:48
197,84941437349,СберБанк,"Бирюлёвская ул., 37, корп. 1, Москва",www.sberbank.ru,"'mon': 08:30-19:30, 'tue': выходной, 'wed': выходной, 'thu': выходной, 'fri': 08:30-19:30, 'sat': 09:30-16:00, 'sun': выходной",55.588660,37.665139,"4,7",['8 (800) 555-55-50Показать телефон'],"['http://ok.ru/sberbank', 'https://vk.com/sberbank']",81,81,82,71,61,89,78,,,,,,2024-06-22 03:03:48
198,194871878014,СберБанк,"Открытое ш., 17, корп. 13, Москва",www.sberbank.ru,"'mon': 08:30-19:00, 'tue': 08:30-19:00, 'wed': 08:30-19:00, 'thu': 08:30-19:00, 'fri': 08:30-19:00, 'sat': выходной, 'sun': выходной",55.822682,37.753869,"4,6",['8 (800) 555-55-50Показать телефон'],"['http://ok.ru/sberbank', 'https://vk.com/sberbank']",81,79,82,58,48,87,47,,,,,,2024-06-22 03:03:48
199,97140927564,СберБанк,"Череповецкая ул., 20, Москва",www.sberbank.ru,"'mon': 08:30-20:00, 'tue': 08:30-20:00, 'wed': 08:30-20:00, 'thu': 08:30-20:00, 'fri': 08:30-20:00, 'sat': 08:30-20:00, 'sun': 10:00-15:00",55.897837,37.581038,"4,7",['8 (800) 555-55-50Показать телефон'],"['https://ok.ru/sberbank', 'https://vk.com/sberbank']",79,74,78,76,69,86,79,64,,,76,,2024-06-22 03:03:48
200,1065604418,СберБанк,"Сиреневый бул., 53, Москва",www.sberbank.ru,"'mon': 08:30-20:00, 'tue': 08:30-20:00, 'wed': 08:30-20:00, 'thu': 08:30-20:00, 'fri': 08:30-20:00, 'sat': 09:30-18:00, 'sun': выходной",55.803444,37.814443,"4,5",['8 (800) 555-55-50Показать телефон'],"['https://ok.ru/sberbank', 'https://t.me/sberbank', 'https://vk.com/sberbank']",79,76,77,60,68,86,83,,,,,,2024-06-22 03:03:48
201,1089958194,СберБанк,"ул. Борисовские Пруды, 12, корп. 1, Москва",www.sberbank.ru,"'mon': 10:30-20:00, 'tue': 10:30-20:00, 'wed': 10:30-20:00, 'thu': 10:30-20:00, 'fri': 10:30-20:00, 'sat': 11:00-17:00, 'sun': выходной",55.635552,37.741515,"4,7",['8 (800) 555-55-50Показать телефон'],"['http://ok.ru/sberbank', 'https://vk.com/sberbank']",81,83,87,63,78,100,32,,,,,,2024-06-22 03:03:48
202,108849696717,СберБанк,"Ореховый бул., 22А, Москва",www.sberbank.ru,"'mon': 10:00-19:30, 'tue': 10:00-19:30, 'wed': 10:00-19:30, 'thu': 10:00-19:30, 'fri': 10:00-19:30, 'sat': 10:00-19:00, 'sun': 10:00-19:00",55.611898,37.732099,"4,4",['8 (800) 555-55-50Показать телефон'],"['https://ok.ru/sberbank', 'https://vk.com/sberbank']",65,63,66,51,,100,,,,,,,2024-06-22 03:03:48
203,1077445172,СберБанк,"Первомайская ул., 106А, Москва",www.sberbank.ru,"'mon': 09:00-19:30, 'tue': 09:00-19:30, 'wed': 09:00-19:30, 'thu': 09:00-19:30, 'fri': 09:00-19:30, 'sat': 10:00-17:00, 'sun': выходной",55.793329,37.813097,"4,6",['8 (800) 555-55-50Показать телефон'],"['http://ok.ru/sberbank', 'https://vk.com/sberbank']",83,83,85,73,68,94,,,,90,,,2024-06-22 03:03:48
204,1017459268,СберБанк,"Домодедовская ул., 28, Москва",www.sberbank.ru,"'mon': выходной, 'tue': выходной, 'wed': выходной, 'thu': 09:00-19:30, 'fri': 09:00-19:30, 'sat': 09:00-16:00, 'sun': выходной",55.604880,37.712545,"4,4",['8 (800) 555-55-50Показать телефон'],"['https://ok.ru/sberbank', 'https://vk.com/sberbank']",69,68,75,56,30,62,4,,,,,5,2024-06-22 03:03:48
205,1021171198,СберБанк,"ул. Дубки, 2А, Москва",www.sberbank.ru,"'mon': 09:00-19:00, 'tue': 09:00-19:00, 'wed': 09:00-19:00, 'thu': 09:00-19:00, 'fri': 09:00-19:00, 'sat': 10:00-16:00, 'sun': выходной",55.817070,37.569329,"4,4",['8 (800) 555-55-50Показать телефон'],"['https://ok.ru/sberbank', 'https://vk.com/sberbank']",73,72,74,64,40,94,25,,,,,,2024-06-22 03:03:48
206,1212799575,СберБанк,"Ташкентская ул., 9, Москва",www.sberbank.ru,"'mon': 09:00-19:00, 'tue': 09:00-19:00, 'wed': 09:00-19:00, 'thu': 09:00-19:00, 'fri': 09:00-19:00, 'sat': 10:00-16:00, 'sun': выходной",55.707837,37.818811,"4,5",['8 (800) 555-55-50Показать телефон'],"['https://ok.ru/sberbank', 'https://vk.com/sberbank']",82,83,85,69,72,90,83,,,,,,2024-06-22 03:03:48
207,89186739078,СберБанк,"просп. Вернадского, 97, корп. 1, Москва",www.sberbank.ru,"'mon': 10:00-19:30, 'tue': 10:00-19:30, 'wed': 10:00-19:30, 'thu': 10:00-19:30, 'fri': 10:00-19:30, 'sat': 10:00-19:30, 'sun': выходной",55.667514,37.490880,"4,5",['8 (800) 555-55-50Показать телефон'],"['https://ok.ru/sberbank', 'https://vk.com/sberbank']",90,89,91,88,90,93,,,,,,,2024-06-22 03:03:48
208,1700496759,СберБанк,"Сиреневый бул., 29/45к3, Москва",www.sberbank.ru,"'mon': 09:00-19:30, 'tue': 09:00-19:30, 'wed': 09:00-19:30, 'thu': 09:00-19:30, 'fri': 09:00-19:30, 'sat': 09:00-19:30, 'sun': выходной",55.803229,37.798252,"4,4",['8 (800) 555-55-50Показать телефон'],"['http://ok.ru/sberbank', 'https://t.me/sberbank', 'https://vk.com/bankdruzey']",74,71,78,58,50,88,82,,,,,20,2024-06-22 03:03:48
209,1137208987,СберБанк,"ул. Красного Маяка, 1, корп. 1, Москва",www.sberbank.ru,"'mon': 08:30-19:30, 'tue': 08:30-19:30, 'wed': 08:30-19:30, 'thu': 08:30-19:30, 'fri': 08:30-19:30, 'sat': 09:00-17:00, 'sun': выходной",55.611196,37.598986,"4,5",['8 (800) 555-55-50Показать телефон'],"['https://ok.ru/sber/', 'https://t.me/sberbank', 'https://vk.com/sberbank']",80,85,88,67,56,94,,,,,,,2024-06-22 03:03:48
210,1020792492,СберБанк,"ул. Удальцова, 32, стр. 2, Москва",www.sberbank.ru,"'mon': 09:00-19:00, 'tue': 09:00-19:00, 'wed': 09:00-19:00, 'thu': 09:00-19:00, 'fri': 09:00-19:00, 'sat': выходной, 'sun': выходной",55.681590,37.493077,"4,4",['8 (800) 555-55-50Показать телефон'],"['http://ok.ru/sberbank', 'https://vk.com/sberbank']",81,80,83,74,59,91,37,,,,,,2024-06-22 03:03:48
211,1020792492,СберБанк,"ул. Удальцова, 32, стр. 2, Москва",www.sberbank.ru,"'mon': 09:00-19:00, 'tue': 09:00-19:00, 'wed': 09:00-19:00, 'thu': 09:00-19:00, 'fri': 09:00-19:00, 'sat': выходной, 'sun': выходной",55.681590,37.493077,"4,4",['8 (800) 555-55-50Показать телефон'],"['http://ok.ru/sberbank', 'https://vk.com/sberbank']",81,80,83,74,59,91,37,,,,,,2024-06-22 03:03:48
212,240876996528,СберБанк,"Шипиловский пр., 39, корп. 1, Москва",www.sberbank.ru,"'mon': 09:30-19:30, 'tue': 09:30-19:30, 'wed': 09:30-19:30, 'thu': 09:30-19:30, 'fri': 09:30-19:30, 'sat': 09:30-17:00, 'sun': выходной",55.610980,37.696837,"4,6",['8 (800) 555-55-50Показать телефон'],"['http://ok.ru/sberbank', 'https://vk.com/sberbank']",79,80,84,77,87,94,65,,,70,,,2024-06-22 03:03:48
213,1073759529,СберБанк,"Большая Академическая ул., 15, корп. 1, Москва",www.sberbank.ru,"'mon': 10:00-19:30, 'tue': 10:00-19:30, 'wed': 10:00-19:30, 'thu': 10:00-19:30, 'fri': 10:00-19:30, 'sat': 10:00-16:30, 'sun': выходной",55.823652,37.527515,"4,5",['8 (800) 555-55-50Показать телефон'],"['http://ok.ru/sberbank', 'https://vk.com/sberbank']",86,83,85,85,81,96,73,,,77,,,2024-06-22 03:03:48
214,1025767099,СберБанк,"Старокачаловская ул., 1, корп. 1, Москва",www.sberbank.ru,"'mon': 09:00-19:00, 'tue': 09:00-19:00, 'wed': 09:00-19:00, 'thu': 09:00-19:00, 'fri': 09:00-19:00, 'sat': 09:00-15:00, 'sun': выходной",55.568360,37.587815,"4,7",['8 (800) 555-55-50Показать телефон'],"['https://ok.ru/sber/', 'https://t.me/sberbank', 'https://vk.com/sberbank']",76,75,77,66,63,82,50,64,,,81,,2024-06-22 03:03:48
215,1109033786,СберБанк,"ул. Алабяна, 13, корп. 1, Москва",www.sberbank.ru,"'mon': 09:30-19:00, 'tue': 09:30-19:00, 'wed': 09:30-19:00, 'thu': 09:30-19:00, 'fri': 09:30-19:00, 'sat': 09:30-15:30, 'sun': выходной",55.799520,37.504912,"4,5",['8 (800) 555-55-50Показать телефон'],"['http://ok.ru/sberbank', 'https://vk.com/sberbank']",79,80,81,62,74,90,64,,,,,,2024-06-22 03:03:48
216,1031770839,СберБанк,"ул. Академика Бакулева, 2, Москва",www.sberbank.ru,"'mon': 09:00-19:00, 'tue': 09:00-19:00, 'wed': 09:00-19:00, 'thu': 09:00-19:00, 'fri': 09:00-19:00, 'sat': 10:00-16:00, 'sun': выходной",55.643495,37.489609,"4,3",['8 (800) 555-55-50Показать телефон'],"['https://ok.ru/sberbank', 'https://vk.com/sberbank']",80,81,82,64,61,100,,,,64,,,2024-06-22 03:03:48
217,1014326311,СберБанк,"Осенний бул., 12, Москва",www.sberbank.ru,"'mon': 10:00-20:00, 'tue': 10:00-20:00, 'wed': 10:00-20:00, 'thu': 10:00-20:00, 'fri': 10:00-20:00, 'sat': 10:00-19:30, 'sun': 10:00-18:30",55.759333,37.408889,"4,4",['8 (800) 555-55-50Показать телефон'],"['http://ok.ru/sberbank', 'https://vk.com/sberbank']",71,64,74,58,60,94,67,,,,,,2024-06-22 03:03:48
218,96350421766,СберБанк,"Снежная ул., 13, корп. 1, Москва",www.sberbank.ru,"'mon': 09:00-19:30, 'tue': 09:00-19:30, 'wed': 09:00-19:30, 'thu': 09:00-19:30, 'fri': 09:00-19:30, 'sat': 09:30-17:30, 'sun': выходной",55.852200,37.645744,"4,5",['8 (800) 555-55-50Показать телефон'],"['http://ok.ru/sberbank', 'https://t.me/sber_students_bot', 'https://vk.com/sberbank']",75,76,80,62,70,100,,,,,,,2024-06-22 03:03:48
219,1000217841,СберБанк,"Дмитровское ш., 98, Москва",www.sberbank.ru,"'mon': 09:00-20:00, 'tue': 09:00-20:00, 'wed': 09:00-20:00, 'thu': 09:00-20:00, 'fri': 09:00-20:00, 'sat': 09:30-17:30, 'sun': 09:30-16:30",55.879387,37.546919,"4,7",['8 (800) 555-55-50Показать телефон'],"['http://ok.ru/sberbank', 'https://vk.com/sberbank']",86,82,85,83,86,87,78,,,64,,,2024-06-22 03:03:48
220,87918851510,СберБанк,"Просторная ул., 8, Москва",www.sberbank.ru,"'mon': 09:00-19:00, 'tue': 09:00-19:00, 'wed': 09:00-19:00, 'thu': 09:00-19:00, 'fri': 09:00-19:00, 'sat': выходной, 'sun': выходной",55.805034,37.717523,"4,6",['8 (800) 555-55-50Показать телефон'],"['https://ok.ru/sberbank', 'https://vk.com/sberbank']",82,83,85,62,48,100,67,,,,,,2024-06-22 03:03:48
221,1041863881,СберБанк,"Ярославское ш., 28, Москва",www.sberbank.ru,"'mon': 09:00-19:30, 'tue': 09:00-19:30, 'wed': 09:00-19:30, 'thu': 09:00-19:30, 'fri': 09:00-19:30, 'sat': 09:30-16:00, 'sun': выходной",55.861199,37.694400,"4,5",['8 (800) 555-55-50Показать телефон'],"['http://ok.ru/sberbank', 'https://vk.com/sberbank']",75,71,76,70,61,69,,,,,,,2024-06-22 03:03:48
222,1262351001,СберБанк,"Бирюлёвская ул., 55, корп. 1, стр. 2, Москва",www.sberbank.ru,"'mon': 09:00-19:30, 'tue': 09:00-19:30, 'wed': 09:00-19:30, 'thu': 09:00-19:30, 'fri': 09:00-19:30, 'sat': 09:30-16:30, 'sun': выходной",55.583431,37.677086,"4,6",['8 (800) 555-55-50Показать телефон'],"['http://ok.ru/sberbank', 'https://vk.com/sberbank']",83,82,87,61,70,96,91,,,,,,2024-06-22 03:03:48
223,1094675240,СберБанк,"Большая Марфинская ул., 6, Москва",www.sberbank.ru,"'mon': 09:00-19:30, 'tue': 09:00-19:30, 'wed': 09:00-19:30, 'thu': 09:00-19:30, 'fri': 09:00-19:30, 'sat': 09:30-17:00, 'sun': выходной",55.831997,37.592657,"4,5",['8 (800) 555-55-50Показать телефон'],"['https://ok.ru/sberbank', 'https://vk.com/sberbank']",83,84,83,74,60,100,70,,,80,,,2024-06-22 03:03:48
224,217379276094,СберБанк,"Литовский бул., 20, Москва",www.sberbank.ru,"'mon': 08:30-19:00, 'tue': 08:30-19:00, 'wed': 08:30-19:00, 'thu': 08:30-19:00, 'fri': 08:30-19:00, 'sat': 09:30-16:30, 'sun': выходной",55.612681,37.536341,"4,6",['8 (800) 555-55-50Показать телефон'],"['https://ok.ru/sber/', 'https://t.me/sberbank', 'https://vk.com/sberbank']",74,73,76,71,66,93,75,67,,,78,,2024-06-22 03:03:48
225,6193269325,СберБанк,"Дубнинская ул., 16, корп. 1, Москва",www.sberbank.ru,"'mon': 08:30-19:30, 'tue': 08:30-19:30, 'wed': 08:30-19:30, 'thu': 08:30-19:30, 'fri': 08:30-19:30, 'sat': 09:00-17:30, 'sun': выходной",55.868141,37.563287,"4,6",['8 (800) 555-55-50Показать телефон'],"['https://ok.ru/sberbank', 'https://vk.com/sberbank']",72,70,74,46,48,88,39,,,,,,2024-06-22 03:03:48
226,1065514172,СберБанк,"Ташкентская ул., 12/20, Москва",www.sberbank.ru,"'mon': 09:00-19:00, 'tue': 09:00-19:00, 'wed': 09:00-19:00, 'thu': 09:00-19:00, 'fri': 09:00-19:00, 'sat': 10:00-16:00, 'sun': выходной",55.705098,37.816429,"4,4",['8 (800) 555-55-50Показать телефон'],"['http://ok.ru/sberbank', 'https://vk.com/sberbank']",72,71,75,45,45,92,,,,,,,2024-06-22 03:03:48
227,1006493872,СберБанк,"Коровинское ш., 5, корп. 1, Москва",www.sberbank.ru,"'mon': выходной, 'tue': выходной, 'wed': выходной, 'thu': выходной, 'fri': выходной, 'sat': выходной, 'sun': выходной",55.866784,37.540565,"4,6",['8 (800) 555-55-50Показать телефон'],"['https://ok.ru/sber/', 'https://vk.com/sberbank']",76,78,80,66,69,93,50,,,,,,2024-06-22 03:03:48
228,1194899803,СберБанк,"2-й Покровский пр., 2, Котельники",www.sberbank.ru,"'mon': 09:00-20:00, 'tue': 09:00-20:00, 'wed': 09:00-20:00, 'thu': 09:00-20:00, 'fri': 09:00-20:00, 'sat': 10:00-14:00, 'sun': выходной",55.659251,37.855941,"4,6",['8 (800) 555-55-50Показать телефон'],"['https://ok.ru/sberbank', 'https://vk.com/sberbank']",71,68,76,56,26,81,55,,,,,,2024-06-22 03:03:48
229,1623855727,СберБанк,"Строгинский бул., 22, Москва",www.sberbank.ru,"'mon': 09:00-20:00, 'tue': 09:00-20:00, 'wed': 09:00-20:00, 'thu': 09:00-20:00, 'fri': 09:00-20:00, 'sat': 09:30-17:00, 'sun': выходной",55.803017,37.403195,"4,5",['8 (800) 555-55-50Показать телефон'],"['http://ok.ru/sberbank', 'https://t.me/sberbank', 'https://vk.com/sberbank']",79,76,78,57,51,90,,,,,,,2024-06-22 03:03:48
230,1158376490,СберБанк,"Красноармейская ул., 8, Люберцы",www.sberbank.ru,"'mon': 09:00-19:00, 'tue': 09:00-19:00, 'wed': 09:00-19:00, 'thu': 09:00-19:00, 'fri': 09:00-19:00, 'sat': 10:00-16:00, 'sun': выходной",55.678956,37.888826,"4,4",['8 (800) 555-55-50Показать телефон'],"['http://ok.ru/sberbank', 'https://vk.com/sberbank']",63,60,64,50,18,,,59,,,63,,2024-06-22 03:03:48
231,105644001647,СберБанк,"Комсомольская ул., 15А, Люберцы",www.sberbank.ru,"'mon': 09:00-19:00, 'tue': 09:00-19:00, 'wed': 09:00-19:00, 'thu': 09:00-19:00, 'fri': 09:00-19:00, 'sat': 09:30-16:30, 'sun': выходной",55.677258,37.881752,"4,8",['8 (800) 555-55-50Показать телефон'],"['https://ok.ru/sberbank', 'https://t.me/sberbank', 'https://vk.com/sberbank']",78,76,79,68,45,87,47,,,80,,,2024-06-22 03:03:48
232,1086573383,СберБанк,"Михалковская ул., 24, Москва",www.sberbank.ru,"'mon': 09:00-19:30, 'tue': 09:00-19:30, 'wed': 09:00-19:30, 'thu': 09:00-19:30, 'fri': 09:00-19:30, 'sat': 09:30-17:30, 'sun': выходной",55.839845,37.528109,"4,4",['8 (800) 555-55-50Показать телефон'],"['https://ok.ru/sberbank', 'https://t.me/sberbank', 'https://vk.com/sberbank']",80,82,87,59,63,88,,,,100,,,2024-06-22 03:03:48
233,1101057062,СберБанк,"бул. Адмирала Ушакова, 5, Москва",www.sberbank.ru,"'mon': 08:30-20:00, 'tue': 08:30-20:00, 'wed': 08:30-20:00, 'thu': 08:30-20:00, 'fri': 08:30-20:00, 'sat': 09:00-17:00, 'sun': 09:00-15:00",55.546941,37.552214,"4,7",['8 (800) 555-55-50Показать телефон'],"['https://ok.ru/sberbank', 'https://vk.com/sberbank']",78,76,80,70,87,98,93,,,,,,2024-06-22 03:03:48
234,1082012063,СберБанк,"ул. Побратимов, 7, Люберцы",www.sberbank.ru,"'mon': 10:00-21:00, 'tue': 10:00-21:00, 'wed': 10:00-21:00, 'thu': 10:00-21:00, 'fri': 10:00-21:00, 'sat': 10:00-20:00, 'sun': 10:00-20:00",55.691612,37.896939,"4,8",['8 (800) 555-55-50Показать телефон'],"['https://ok.ru/sberbank', 'https://vk.com/sberbank']",79,79,80,69,77,94,92,,,,,,2024-06-22 03:03:48
235,1029356705,СберБанк,"Вяземская ул., 4, Москва",www.sberbank.ru,"'mon': 09:00-19:30, 'tue': 09:00-19:30, 'wed': 09:00-19:30, 'thu': 09:00-19:30, 'fri': 09:00-19:30, 'sat': 09:30-16:00, 'sun': выходной",55.714399,37.402759,"4,4",['8 (800) 555-55-50Показать телефон'],"['https://ok.ru/sberbank', 'https://vk.com/sberbank']",72,70,73,57,56,86,67,33,,,,,2024-06-22 03:03:48
236,1101473489,СберБанк,"Чертановская ул., 32А, Москва",www.sberbank.ru,"'mon': 09:00-19:00, 'tue': 09:00-19:00, 'wed': 09:00-19:00, 'thu': 09:00-19:00, 'fri': 09:00-19:00, 'sat': 09:00-16:00, 'sun': выходной",55.617936,37.592729,"4,6",['8 (800) 555-55-50Показать телефон'],"['http://ok.ru/sberbank', 'https://t.me/sberbank', 'https://vk.com/sberbank']",85,84,88,81,86,97,76,,,,,,2024-06-22 03:03:48
237,1001697864,СберБанк,"ул. Академика Янгеля, 4, корп. 2, Москва",www.sberbank.ru,"'mon': 09:00-19:30, 'tue': 09:00-19:30, 'wed': 09:00-19:30, 'thu': 09:00-19:30, 'fri': 09:00-19:30, 'sat': 09:00-17:00, 'sun': выходной",55.596015,37.593827,"4,5",['8 (800) 555-55-50Показать телефон'],"['http://ok.ru/sberbank', 'https://t.me/sberbank', 'https://vk.com/sberbank']",77,77,82,59,57,95,82,,,,,,2024-06-22 03:03:48
238,170452199018,СберБанк,"Ярославское ш., 54, Москва",www.sberbank.ru,"'mon': выходной, 'tue': выходной, 'wed': выходной, 'thu': выходной, 'fri': выходной, 'sat': выходной, 'sun': выходной",55.865829,37.704510,"4,3",['8 (800) 555-55-50Показать телефон'],"['http://ok.ru/sberbank', 'https://t.me/sberbank', 'https://vk.com/sberbank']",66,65,72,47,58,100,,,,,,,2024-06-22 03:03:48
239,1012146630,СберБанк,"Енисейская ул., 29, Москва",www.sberbank.ru,"'mon': 08:30-19:30, 'tue': 08:30-19:30, 'wed': 08:30-19:30, 'thu': 08:30-19:30, 'fri': 08:30-19:30, 'sat': 09:30-16:00, 'sun': 09:30-17:30",55.873570,37.665282,"4,3",['8 (800) 555-55-50Показать телефон'],"['http://ok.ru/sberbank', 'https://vk.com/sberbank']",67,63,68,55,57,76,76,20,,,,,2024-06-22 03:03:48
240,1152730247,СберБанк,"Новокосинская ул., 36Б, Москва",www.sberbank.ru,"'mon': выходной, 'tue': выходной, 'wed': выходной, 'thu': выходной, 'fri': выходной, 'sat': выходной, 'sun': выходной",55.742423,37.869473,"4,6",['8 (800) 555-55-50Показать телефон'],"['http://ok.ru/sberbank', 'https://vk.com/sberbank']",84,84,88,69,65,100,,,,,,,2024-06-22 03:03:48
241,1051222684,СберБанк,"Ореховый пр., 9, Москва",www.sberbank.ru,"'mon': 09:00-19:00, 'tue': 09:00-19:00, 'wed': 09:00-19:00, 'thu': 09:00-19:00, 'fri': 09:00-19:00, 'sat': 09:00-17:00, 'sun': выходной",55.626063,37.735384,"4,7",['8 (800) 555-55-50Показать телефон'],"['http://ok.ru/sberbank', 'https://t.me/sberbank', 'https://vk.com/sberbank']",81,79,79,76,89,88,73,,,,,,2024-06-22 03:03:48
242,1133736123,СберБанк,"ул. Кирова, 9, Реутов",www.sberbank.ru,"'mon': выходной, 'tue': 09:00-18:00, 'wed': 09:00-18:00, 'thu': 09:00-18:00, 'fri': 09:00-18:00, 'sat': 09:00-18:00, 'sun': выходной",55.757717,37.851349,"4,7",['8 (800) 555-55-50Показать телефон'],"['https://ok.ru/sber/', 'https://vk.com/careersber']",83,83,88,67,35,79,67,50,,,50,,2024-06-22 03:03:48
243,52904631303,СберБанк,"Варшавское ш., 160, Москва",www.sberbank.ru,"'mon': 10:00-19:00, 'tue': 10:00-19:00, 'wed': 10:00-19:00, 'thu': 10:00-19:00, 'fri': 10:00-19:00, 'sat': выходной, 'sun': выходной",55.583081,37.595440,"4,6",['8 (800) 555-55-50Показать телефон'],"['http://ok.ru/sberbank', 'https://vk.com/sberbank']",84,84,88,71,54,88,0,,,,,,2024-06-22 03:03:48
244,1053742849,СберБанк,"ул. Дмитриевского, 21, Москва",www.sberbank.ru,"'mon': выходной, 'tue': выходной, 'wed': выходной, 'thu': выходной, 'fri': выходной, 'sat': выходной, 'sun': выходной",55.709406,37.894732,"4,7",['8 (800) 555-55-50Показать телефон'],"['http://ok.ru/sberbank', 'https://vk.com/sberbank']",85,84,86,77,81,92,80,,,,,,2024-06-22 03:03:48
245,1221636534,СберБанк,"Большая Черкизовская ул., 22, корп. 1, Москва",www.sberbank.ru,"'mon': 10:00-18:30, 'tue': 10:00-18:30, 'wed': 10:00-18:30, 'thu': 09:30-19:00, 'fri': 09:30-19:00, 'sat': выходной, 'sun': выходной",55.798931,37.735273,"4,4",['8 (800) 555-55-50Показать телефон'],"['https://ok.ru/sber/', 'https://t.me/sberbank', 'https://vk.com/sberbank']",77,81,83,40,20,82,11,,,,,,2024-06-22 03:03:48
246,1040950472,СберБанк,"Липецкая ул., 2А, Москва",www.sberbank.ru,"'mon': 09:30-19:00, 'tue': 09:30-19:00, 'wed': 09:30-19:00, 'thu': 09:30-19:00, 'fri': 09:30-19:00, 'sat': 09:30-15:30, 'sun': выходной",55.601144,37.669865,"4,3",['8 (800) 555-55-50Показать телефон'],"['http://ok.ru/sberbank', 'https://vk.com/sberbank']",84,81,84,69,47,84,30,,,,,,2024-06-22 03:03:48
247,88737904817,СберБанк,"Солнцевский просп., 2, Москва",www.sberbank.ru,"'mon': 08:30-19:30, 'tue': 08:30-19:30, 'wed': 08:30-19:30, 'thu': 08:30-19:30, 'fri': 08:30-19:30, 'sat': 09:00-17:00, 'sun': выходной",55.652579,37.396844,"4,6",['8 (800) 555-55-50Показать телефон'],"['https://ok.ru/sberbank', 'https://vk.com/sberbank']",87,90,89,68,85,96,,,,80,,,2024-06-22 03:03:48
248,1032013243,СберБанк,"Широкая ул., 12, Москва",www.sberbank.ru,"'mon': 09:00-20:30, 'tue': 09:00-20:30, 'wed': 09:00-20:30, 'thu': 09:00-20:30, 'fri': 09:00-20:30, 'sat': 09:00-20:30, 'sun': 10:30-17:00",55.886968,37.659370,"4,4",['8 (800) 555-55-50Показать телефон'],"['http://ok.ru/sberbank', 'https://vk.com/sberbank']",75,74,77,52,43,88,,36,,,,,2024-06-22 03:03:48
249,1252784550,СберБанк,"ул. Александры Монаховой, 5, корп. 2, посёлок Коммунарка",www.sberbank.ru,"'mon': 09:00-20:00, 'tue': 09:00-20:00, 'wed': 09:00-20:00, 'thu': 09:00-20:00, 'fri': 09:00-20:00, 'sat': 09:00-18:00, 'sun': выходной",55.575339,37.472939,"4,6",['8 (800) 555-55-50Показать телефон'],"['https://ok.ru/sberbank', 'https://t.me/sberbank', 'https://vk.com/sberbank']",82,83,86,60,55,54,74,,,,,,2024-06-22 03:03:48
250,1000083696,СберБанк,"МКАД, 47-й километр, с20, Москва",www.sberbank.ru,"'mon': 10:00-21:00, 'tue': 10:00-21:00, 'wed': 10:00-21:00, 'thu': 10:00-21:00, 'fri': 10:00-21:00, 'sat': 10:00-21:00, 'sun': 10:00-21:00",55.659398,37.430595,"4,4",['8 (800) 555-55-50Показать телефон'],"['https://ok.ru/sberbank', 'https://vk.com/sberbank']",79,79,88,49,48,82,95,,,,,,2024-06-22 03:03:48
251,1236881705,СберБанк,"Живописная ул., 6, корп. 1, Москва",www.sberbank.ru,"'mon': 09:30-19:00, 'tue': 09:30-19:00, 'wed': 09:30-19:00, 'thu': 09:30-19:00, 'fri': 09:30-19:00, 'sat': 10:00-16:00, 'sun': выходной",55.781819,37.456211,"4,6",['8 (800) 555-55-50Показать телефон'],"['https://ok.ru/sberbank', 'https://vk.com/sberbank']",81,83,85,61,81,98,65,,,,,,2024-06-22 03:03:48
252,1087586769,СберБанк,"Новочеркасский бул., 46, Москва",www.sberbank.ru,"'mon': 08:30-19:30, 'tue': 08:30-19:30, 'wed': 08:30-19:30, 'thu': 08:30-19:30, 'fri': 08:30-19:30, 'sat': 10:00-15:00, 'sun': выходной",55.646696,37.740627,"4,4",['8 (800) 555-55-50Показать телефон'],"['http://ok.ru/sberbank', 'https://vk.com/sberbank']",86,82,86,77,72,92,,,,,,,2024-06-22 03:03:48
253,138363271928,СберБанк,"ул. Мичуринский Проспект, Олимпийская Деревня, 3, Москва",www.sberbank.ru,"'mon': 09:00-19:30, 'tue': 09:00-19:30, 'wed': 09:00-19:30, 'thu': 09:00-19:30, 'fri': 09:00-19:30, 'sat': 09:00-16:30, 'sun': выходной",55.675857,37.466885,"4,3",['8 (800) 555-55-50Показать телефон'],"['http://ok.ru/sberbank', 'https://vk.com/sberbank']",80,80,80,61,24,88,13,,,,,,2024-06-22 03:03:48
254,106674492978,СберБанк,"Октябрьский просп., 9, Люберцы",www.sberbank.ru,"'mon': 09:30-19:00, 'tue': 09:30-19:00, 'wed': 09:30-19:00, 'thu': 09:30-19:00, 'fri': 09:30-19:00, 'sat': 10:00-14:00, 'sun': выходной",55.696241,37.861566,"4,6",['8 (800) 555-55-50Показать телефон'],"['https://ok.ru/sberbank', 'https://t.me/sberbank', 'https://vk.com/sberbank']",74,75,75,66,57,91,67,,,,,,2024-06-22 03:03:48
255,1058692504,СберБанк,"Можайское ш., 28, Москва",www.sberbank.ru,"'mon': 09:00-19:00, 'tue': 09:00-19:00, 'wed': 09:00-19:00, 'thu': 09:00-19:00, 'fri': 09:00-19:00, 'sat': выходной, 'sun': выходной",55.720230,37.421601,"4,4",['8 (800) 555-55-50Показать телефон'],"['http://ok.ru/sberbank', 'https://t.me/sberbank', 'https://vk.com/sberbank']",81,80,82,41,21,83,20,,,92,,,2024-06-22 03:03:48
256,56395602542,СберБанк,"ул. Малыгина, 7, Москва",www.sberbank.ru,"'mon': 08:30-20:30, 'tue': 08:30-20:30, 'wed': 08:30-20:30, 'thu': 08:30-20:30, 'fri': 08:30-20:30, 'sat': 10:00-18:00, 'sun': 10:00-15:00",55.880507,37.694917,"4,6",['8 (800) 555-55-50Показать телефон'],"['https://ok.ru/sberbank', 'https://vk.com/sberbank']",82,82,85,59,59,95,69,,,83,,,2024-06-22 03:03:48
257,1051809560,СберБанк,"Новочеркасский бул., 41, корп. 2, Москва",www.sberbank.ru,"'mon': 09:00-19:00, 'tue': 09:00-19:00, 'wed': 09:00-19:00, 'thu': 09:00-19:00, 'fri': 09:00-19:00, 'sat': 09:30-16:00, 'sun': выходной",55.648517,37.735458,"4,4",['8 (800) 555-55-50Показать телефон'],"['https://ok.ru/sber/', 'https://vk.com/sberbank']",81,80,84,61,18,83,15,,,,,,2024-06-22 03:03:48
