,ID,name,address,website,opening_hours,lat,lon,rating,phone,social,Персонал,Время ожидания,Банкомат,Расположение,График работы,Кредит,Ремонт,Ипотека,Доступность,load_time
0,sberbank/1132778715,СберБанк,"Валовая ул., 8/18, Москва",www.sberbank.com,"'mon': 08:30-20:00, 'tue': 08:30-20:00, 'wed': 08:30-20:00, 'thu': 08:30-20:00, 'fri': 08:30-20:00, 'sat': 09:00-16:00, 'sun': 10:00-15:00, ",55.730887,37.632125,"4,3",['8 (800) 555-55-50Показать телефон'],"['https://ok.ru/sber/', 'https://t.me/sberbank', 'https://vk.com/sberbank']",69,62,76,97,54,30,,,,2024-07-29 08:04:06
1,sberbank/1090913523,СберБанк,"Новокузнецкая ул., 18/10с3, Москва",,"'mon': выходной, 'tue': выходной, 'wed': выходной, 'thu': выходной, 'fri': выходной, 'sat': выходной, 'sun': выходной, ",55.736569,37.630696,"4,3",['8 (800) 555-55-50Показать телефон'],"['http://ok.ru/sberbank', 'https://t.me/Sber_Business_Live_bot', 'https://vk.com/careersber']",81,68,69,100,56,58,,,,2024-07-29 08:04:06
2,sberbank/1128554212,СберБанк,"Лубянский пр., 17, Москва",www.sberbank.com,"'mon': 10:30-19:30, 'tue': 10:30-19:30, 'wed': 10:30-19:30, 'thu': 10:30-19:30, 'fri': 10:30-19:30, 'sat': 10:30-15:30, 'sun': выходной, ",55.756001,37.633266,"4,1",['8 (800) 555-55-50Показать телефон'],"['https://ok.ru/sber/', 'https://t.me/sberbank', 'https://vk.com/sberbank']",43,34,44,88,59,12,,,,2024-07-29 08:04:06
3,sberbank/37614298216,СберБанк,"Люсиновская ул., 26-28к6, Москва",www.sberbank.com,"'mon': 09:00-19:30, 'tue': 09:00-19:30, 'wed': 09:00-19:30, 'thu': 09:00-19:30, 'fri': 09:00-19:30, 'sat': 09:30-17:30, 'sun': выходной, ",55.725143,37.621759,"4,4",['8 (800) 555-55-50Показать телефон'],"['http://ok.ru/sberbank', 'https://t.me/sberbank', 'https://vk.com/sberbank']",82,72,74,88,70,,53,,,2024-07-29 08:04:06
4,sberbank/1376364371,СберБанк,"Большая Тульская ул., 2, Москва",www.sberbank.com,"'mon': 09:00-20:00, 'tue': 09:00-20:00, 'wed': 09:00-20:00, 'thu': 09:00-20:00, 'fri': 09:00-20:00, 'sat': 09:30-17:00, 'sun': выходной, ",55.709018,37.620770,"4,3",['8 (800) 555-55-50Показать телефон'],"['http://ok.ru/sberbank', 'https://vk.com/sberbank']",67,51,60,69,,,,,,2024-07-29 08:04:06
5,sberbank/69232606482,СберБанк,"Таганская ул., 1, стр. 1, Москва",www.sberbank.com,"'mon': 10:00-20:00, 'tue': 10:00-20:00, 'wed': 10:00-20:00, 'thu': 10:00-20:00, 'fri': 10:00-20:00, 'sat': 10:00-17:00, 'sun': выходной, ",55.741784,37.655904,"4,4",['8 (800) 555-55-50Показать телефон'],"['https://ok.ru/sberbank', 'https://t.me/sber_students_bot', 'https://vk.com/sberbank']",70,54,71,79,,,,,,2024-07-29 08:04:06
6,sberbank/1003018629,СберБанк,"1-я Дубровская ул., 1А, Москва",,"'mon': выходной, 'tue': выходной, 'wed': выходной, 'thu': выходной, 'fri': выходной, 'sat': выходной, 'sun': выходной, ",55.728510,37.669271,"4,3",['8 (800) 555-55-50Показать телефон'],"['https://ok.ru/sberbank', 'https://vk.com/sberbank']",87,75,15,90,6,,69,,,2024-07-29 08:04:06
7,sberbank/1084179587,СберБанк,"Автозаводская ул., 7, Москва",www.sberbank.com,"'mon': 09:00-20:00, 'tue': 09:00-20:00, 'wed': 09:00-20:00, 'thu': 09:00-20:00, 'fri': 09:00-20:00, 'sat': 10:30-17:00, 'sun': выходной, ",55.707892,37.660413,"4,3",['8 (800) 555-55-50Показать телефон'],"['https://ok.ru/sberbank', 'https://t.me/sberbank', 'https://vk.com/sberbank']",84,60,64,97,73,,,,,2024-07-29 08:04:06
8,sberbank/1676107682,СберБанк,"ул. Вавилова, 3, Москва",www.sberbank.com,"'mon': 09:00-22:00, 'tue': 09:00-22:00, 'wed': 09:00-22:00, 'thu': 09:00-22:00, 'fri': 09:00-22:00, 'sat': 09:00-22:00, 'sun': 09:00-22:00, ",55.706883,37.592096,"4,4",['8 (800) 555-55-50Показать телефон'],"['https://ok.ru/sber', 'https://t.me/Sber_Business_Live_bot', 'https://vk.com/careersber']",73,65,75,89,83,,,,,2024-07-29 08:04:06
9,sberbank/1011010028,СберБанк,"Тверская ул., 22, Москва",www.sberbank.com,"'mon': 09:30-20:00, 'tue': 09:30-20:00, 'wed': 09:30-20:00, 'thu': 09:30-20:00, 'fri': 09:30-20:00, 'sat': 10:00-16:00, 'sun': выходной, ",55.767590,37.600945,"4,5",['8 (800) 555-55-50Показать телефон'],"['https://ok.ru/sber/', 'https://t.me/sberbank', 'https://vk.com/sberbank']",81,67,83,93,61,69,,80,,2024-07-29 08:04:06
10,sberbank/1118688568,СберБанк,"7-я Кожуховская ул., 9, Москва",www.sberbank.com,"'mon': 10:00-19:30, 'tue': 10:00-19:30, 'wed': 10:00-19:30, 'thu': 10:00-19:30, 'fri': 10:00-19:30, 'sat': 10:00-16:00, 'sun': выходной, ",55.710692,37.675109,"4,5",['8 (800) 555-55-50Показать телефон'],"['https://ok.ru/sberbank', 'https://t.me/sber_students_bot', 'https://vk.com/sberbank']",85,65,41,94,42,,,,,2024-07-29 08:04:06
11,sberbank/1044139121,СберБанк,"Шарикоподшипниковская ул., 13, стр. 1, Москва",www.sberbank.com,"'mon': 09:30-19:30, 'tue': 09:30-19:30, 'wed': 09:30-19:30, 'thu': 09:30-19:30, 'fri': 09:30-19:30, 'sat': 10:00-14:00, 'sun': выходной, ",55.717229,37.677831,"4,4",['8 (800) 555-55-50Показать телефон'],"['http://ok.ru/sberbank', 'https://t.me/sberbank', 'https://vk.com/sberbank']",73,52,58,93,,,,,,2024-07-29 08:04:06
12,sberbank/124014009186,СберПервый,"ул. Сретенка, 14, Москва",www.sberbank.com,"'mon': выходной, 'tue': выходной, 'wed': выходной, 'thu': выходной, 'fri': выходной, 'sat': выходной, 'sun': выходной, ",55.768183,37.632224,"4,4",['8 (800) 555-55-50Показать телефон'],"['https://ok.ru/sber/', 'https://t.me/sberbank', 'https://vk.com/sberbank']",79,72,87,85,40,78,,82,,2024-07-29 08:04:06
13,sberbank/118116731844,СберБанк,"ул. Земляной Вал, 41, стр. 1, Москва",www.sberbank.com,"'mon': 09:00-19:30, 'tue': 09:00-19:30, 'wed': 09:00-19:30, 'thu': 09:00-19:30, 'fri': 09:00-19:30, 'sat': 10:00-15:30, 'sun': выходной, ",55.753889,37.657314,"4,3",['8 (800) 555-55-50Показать телефон'],"['https://ok.ru/sberbank', 'https://vk.com/sberbank']",87,76,67,100,,,,,,2024-07-29 08:04:06
14,sberbank/1403583345,СберБанк,"ш. Энтузиастов, 14, Москва",,"'mon': выходной, 'tue': выходной, 'wed': выходной, 'thu': выходной, 'fri': выходной, 'sat': выходной, 'sun': выходной, ",55.749714,37.710774,"4,5",['8 (800) 555-55-50Показать телефон'],"['https://ok.ru/sber/', 'https://vk.com/sberbank']",76,74,46,67,35,64,,83,,2024-07-29 08:04:06
15,sberbank/1023606569,СберБанк,"Нижегородская ул., 13Б, Москва",www.sberbank.com,"'mon': 09:30-19:30, 'tue': 09:30-19:30, 'wed': 09:30-19:30, 'thu': 09:30-19:30, 'fri': 09:30-19:30, 'sat': 10:00-15:00, 'sun': выходной, ",55.737862,37.686806,"4,6",['8 (800) 555-55-50Показать телефон'],"['http://ok.ru/sberbank', 'https://t.me/sberbank', 'https://vk.com/sberbank']",85,75,72,90,82,,80,,,2024-07-29 08:04:06
16,sberbank/1164162982,СберБанк,"2-й Южнопортовый пр., 12А, корп. 1, стр. 13, Москва",www.sberbank.com,"'mon': 09:30-19:30, 'tue': 09:30-19:30, 'wed': 09:30-19:30, 'thu': 09:30-19:30, 'fri': 09:30-19:30, 'sat': 10:00-17:00, 'sun': выходной, ",55.702303,37.689473,"4,4",['8 (800) 555-55-50Показать телефон'],"['https://ok.ru/sber/', 'https://t.me/sberbank', 'https://vk.com/sberbank']",83,78,58,79,36,,,,,2024-07-29 08:04:06
17,sberbank/78687331961,СберБанк,"Зубовский бул., вл13с1, Москва",www.sberbank.com,"'mon': 08:30-19:30, 'tue': 08:30-19:30, 'wed': 08:30-19:30, 'thu': 08:30-19:30, 'fri': выходной, 'sat': выходной, 'sun': выходной, ",55.735713,37.592302,"4,4",['8 (800) 555-55-50Показать телефон'],"['https://ok.ru/sber/', 'https://vk.com/sberbank']",71,56,89,91,67,,,,,2024-07-29 08:04:06
18,sberbank/1084286048,СберБанк,"ул. Арбат, 33, Москва",www.sberbank.com,"'mon': 09:30-19:30, 'tue': 09:30-19:30, 'wed': 09:30-19:30, 'thu': 09:30-19:30, 'fri': 09:30-19:30, 'sat': выходной, 'sun': выходной, ",55.749532,37.592401,"4,7",['8 (800) 555-55-50Показать телефон'],"['http://ok.ru/sberbank', 'https://t.me/sberbank', 'https://vk.com/sberbank']",75,61,69,90,67,,,,,2024-07-29 08:04:06
19,sberbank/1223180976,СберБанк,"ул. Воздвиженка, 9, стр. 2, Москва",www.sberbank.com,"'mon': 09:00-19:30, 'tue': 09:00-19:30, 'wed': 09:00-19:30, 'thu': 09:00-19:30, 'fri': 09:00-19:30, 'sat': выходной, 'sun': выходной, ",55.752648,37.603846,"4,4",['8 (800) 555-55-50Показать телефон'],"['http://ok.ru/sberbank', 'https://vk.com/sberbank']",85,63,88,100,,,87,,,2024-07-29 08:04:06
20,sberbank/1102925442,СберБанк,"Большая Андроньевская ул., 6, Москва",www.sberbank.com,"'mon': 09:00-19:00, 'tue': 09:00-19:00, 'wed': 09:00-19:00, 'thu': 09:00-19:00, 'fri': 09:00-19:00, 'sat': 10:00-15:00, 'sun': выходной, ",55.745782,37.669073,"4,3",['8 (800) 555-55-50Показать телефон'],"['http://ok.ru/sberbank', 'https://t.me/sberbank', 'https://vk.com/sberbank']",75,63,70,78,,,,,,2024-07-29 08:04:06
21,sberbank/1034532827,СберБизнес,"Пятницкая ул., 2/38с1, Москва",www.sberbank.com,"'mon': 10:00-19:00, 'tue': 10:00-19:00, 'wed': 10:00-19:00, 'thu': 10:00-19:00, 'fri': 10:00-19:00, 'sat': выходной, 'sun': выходной, ",55.745524,37.626412,"4,3",['8 (800) 555-55-50Показать телефон'],"['http://ok.ru/sberbank', 'https://t.me/sberbank', 'https://vk.com/sberbank']",75,49,36,86,15,,,,,2024-07-29 08:04:06
22,sberbank/1002928074,СберБанк,"ул. Покровка, 19, Москва",www.sberbank.com,"'mon': 09:00-20:00, 'tue': 09:00-20:00, 'wed': 09:00-20:00, 'thu': 09:00-20:00, 'fri': 09:00-20:00, 'sat': 10:30-16:30, 'sun': выходной, ",55.759593,37.646489,"4,4",['8 (800) 555-55-50Показать телефон'],"['https://ok.ru/sber/', 'https://t.me/sberbank', 'https://vk.com/sberbank']",85,65,63,89,,,,,,2024-07-29 08:04:06
23,sberbank/130520017792,СберБанк,"Варшавское ш., 26, Москва",www.sberbank.com,"'mon': 09:30-20:00, 'tue': 09:30-20:00, 'wed': 09:30-20:00, 'thu': 09:30-20:00, 'fri': 09:30-20:00, 'sat': 10:00-16:00, 'sun': выходной, ",55.684503,37.621947,"4,4",['8 (800) 555-55-50Показать телефон'],"['https://ok.ru/sberbank', 'https://t.me/sberbank', 'https://vk.com/sberbank']",73,60,58,100,,,,,,2024-07-29 08:04:06
24,sberbank/1063013654,СберБанк,"просп. Андропова, 28, корп. 2, Москва",www.sberbank.com,"'mon': 08:30-19:30, 'tue': 08:30-19:30, 'wed': 08:30-19:30, 'thu': 08:30-19:30, 'fri': 08:30-19:30, 'sat': 10:00-17:00, 'sun': 10:00-16:00, ",55.680163,37.663359,"4,4",['8 (800) 555-55-50Показать телефон'],"['https://ok.ru/sberbank', 'https://t.me/sberbank', 'https://vk.com/sberbank']",76,66,71,92,86,,,,,2024-07-29 08:04:06
25,sberbank/1225073823,Сбербанк России,"Рязанский просп., 2, корп. 2, Москва",www.sberbank.com,"'mon': 10:00-21:00, 'tue': 10:00-21:00, 'wed': 10:00-21:00, 'thu': 10:00-21:00, 'fri': 10:00-21:00, 'sat': 10:00-21:00, 'sun': 10:00-19:00, ",55.729874,37.730436,"4,5",['8 (800) 555-55-50Показать телефон'],"['http://ok.ru/sberbank', 'https://t.me/sberbank', 'https://vk.com/sberbank']",73,52,50,,100,,,,,2024-07-29 08:04:06
26,sberbank/45493384758,СберБанк,"ул. Трофимова, 1/17, Москва",www.sberbank.com,"'mon': 10:00-19:00, 'tue': 10:00-19:00, 'wed': 10:00-19:00, 'thu': 10:00-19:00, 'fri': 10:00-19:00, 'sat': выходной, 'sun': выходной, ",55.703961,37.660512,"4,5",['8 (800) 555-55-50Показать телефон'],"['http://ok.ru/sberbank', 'https://vk.com/sberbank']",79,60,80,92,,,,,,2024-07-29 08:04:06
27,sberbank/130324574632,СберБанк,"ул. Гиляровского, 39, стр. 3, Москва",www.sberbank.com,"'mon': 09:00-19:30, 'tue': 09:00-19:30, 'wed': 09:00-19:30, 'thu': 09:00-19:30, 'fri': 09:00-19:30, 'sat': 10:00-16:00, 'sun': выходной, ",55.783464,37.632062,"4,4",['8 (800) 555-55-50Показать телефон'],"['http://vk.com/sberbank', 'https://ok.ru/sber/', 'https://t.me/sberbank']",76,59,49,100,,60,,89,,2024-07-29 08:04:06
28,sberbank/1017184068,СберБанк,"бул. Энтузиастов, 2, Москва",www.sberbank.com,"'mon': 09:00-20:00, 'tue': 09:00-20:00, 'wed': 09:00-20:00, 'thu': 09:00-20:00, 'fri': 09:00-20:00, 'sat': 10:00-16:00, 'sun': выходной, ",55.746482,37.682619,"4,2",['8 (800) 555-55-50Показать телефон'],"['http://ok.ru/sberbank', 'https://vk.com/sberbank']",64,52,63,94,,,,,,2024-07-29 08:04:06
29,sberbank/1085833756,СберБанк,"Комсомольский просп., 40, Москва",www.sberbank.com,"'mon': 09:30-19:30, 'tue': 09:30-19:30, 'wed': 09:30-19:30, 'thu': 09:30-19:30, 'fri': 09:30-19:30, 'sat': 09:30-15:30, 'sun': выходной, ",55.721878,37.573986,"4,4",['8 (800) 555-55-50Показать телефон'],"['http://ok.ru/sberbank', 'https://t.me/sber_students_bot', 'https://vk.com/sberbank']",68,44,55,96,32,,93,,,2024-07-29 08:04:06
30,sberbank/1081974962,СберБанк,"Каланчёвская ул., 15, Москва",www.sberbank.com,"'mon': 09:00-19:00, 'tue': 09:00-19:00, 'wed': 09:00-19:00, 'thu': 09:00-19:00, 'fri': 09:00-19:00, 'sat': 09:00-16:00, 'sun': выходной, ",55.771520,37.651501,"4,3",['8 (800) 555-55-50Показать телефон'],"['https://ok.ru/sberbank', 'https://t.me/sberbank', 'https://vk.com/sberbank']",82,75,68,97,,,38,,,2024-07-29 08:04:06
31,sberbank/1019077304,СберБанк,"Брянская ул., 8, Москва",www.sberbank.com,"'mon': 08:30-19:30, 'tue': 08:30-19:30, 'wed': 08:30-19:30, 'thu': 08:30-19:30, 'fri': 08:30-19:30, 'sat': 09:30-17:00, 'sun': 10:00-16:00, ",55.744723,37.560942,"4,3",['8 (800) 555-55-50Показать телефон'],"['http://ok.ru/sberbank', 'https://vk.com/sberbank']",74,63,46,90,67,,,,,2024-07-29 08:04:06
32,sberbank/1096875379,Сбер,"ул. Пресненский Вал, 6, стр. 2, Москва",www.sberbank.com,"'mon': 10:00-19:30, 'tue': 10:00-19:30, 'wed': 10:00-19:30, 'thu': 10:00-19:30, 'fri': 10:00-19:30, 'sat': 10:00-15:30, 'sun': выходной, ",55.764526,37.564562,"4,3",['8 (800) 555-55-50Показать телефон'],"['http://ok.ru/sberbank', 'https://t.me/sber_students_bot', 'https://vk.com/sberbank']",85,58,62,95,,,,,,2024-07-29 08:04:06
33,sberbank/216083337391,СберБанк,"ул. Вавилова, 19, Москва",www.sberbank.com,"'mon': 08:30-19:30, 'tue': 08:30-19:30, 'wed': 08:30-19:30, 'thu': 08:30-19:30, 'fri': 08:30-19:30, 'sat': 09:30-15:00, 'sun': выходной, ",55.700182,37.580157,"4,9",['8 (800) 555-55-50Показать телефон'],['https://vk.com/sberbank'],78,77,,,,,,,,2024-07-29 08:04:06
34,sberbank/1008675573,СберБанк,"Таганская ул., 31/22, Москва",,"'mon': выходной, 'tue': выходной, 'wed': выходной, 'thu': выходной, 'fri': выходной, 'sat': выходной, 'sun': выходной, ",55.739747,37.670681,"4,3",['8 (800) 555-55-50Показать телефон'],"['https://ok.ru/sberbank', 'https://t.me/sberbank', 'https://vk.com/sberbank']",64,43,25,,8,,,,,2024-07-29 08:04:06
35,sberbank/121700461169,СберБанк,"Цветной бул., 2, Москва",www.sberbank.com,"'mon': 09:30-19:30, 'tue': 09:30-19:30, 'wed': 09:30-19:30, 'thu': 09:30-19:30, 'fri': 09:30-19:30, 'sat': 10:30-18:00, 'sun': выходной, ",55.768026,37.623483,"4,4",['8 (800) 555-55-50Показать телефон'],"['http://ok.ru/sberbank', 'https://t.me/sberbank', 'https://vk.com/sberbank']",63,63,71,95,,,,,,2024-07-29 08:04:06
36,sberbank/1004054747,СберБанк,"Спартаковская ул., 21, Москва",www.sberbank.com,"'mon': 09:00-20:00, 'tue': 09:00-20:00, 'wed': 09:00-20:00, 'thu': 09:00-20:00, 'fri': 09:00-20:00, 'sat': 09:00-17:30, 'sun': выходной, ",55.773170,37.677642,"4,4",['+7 (495) 500-55-50Показать телефон'],"['https://ok.ru/sberbank', 'https://vk.com/sberbank']",81,61,56,92,,,,,,2024-07-29 08:04:06
37,sberbank/1092553132,Сбербанк России,"ш. Энтузиастов, 12, корп. 2, Москва",www.sberbank.com,"'mon': 10:00-20:30, 'tue': 10:00-20:30, 'wed': 10:00-20:30, 'thu': 10:00-20:30, 'fri': 10:00-20:30, 'sat': 10:00-20:00, 'sun': 10:00-20:00, ",55.747369,37.707108,"4,4",['8 (800) 555-55-50Показать телефон'],"['https://ok.ru/sberbank', 'https://vk.com/sberbank']",68,56,60,82,,,,,,2024-07-29 08:04:06
38,sberbank/1026531495,СберБанк,"Сретенский бул., 4, Москва",www.sberbank.com,"'mon': 10:00-19:30, 'tue': 10:00-19:30, 'wed': 10:00-19:30, 'thu': 10:00-19:30, 'fri': 10:00-19:30, 'sat': выходной, 'sun': выходной, ",55.766182,37.632116,"4,4",['8 (800) 555-55-50Показать телефон'],"['http://ok.ru/sberbank', 'https://t.me/Sber_Business_Live_bot', 'https://vk.com/careersber']",77,53,54,100,,,,,,2024-07-29 08:04:06
39,sberbank/1172990790,СберБанк,"ул. Хамовнический Вал, 36, Москва",www.sberbank.com,"'mon': 08:30-19:30, 'tue': 08:30-19:30, 'wed': 08:30-19:30, 'thu': 08:30-19:30, 'fri': 08:30-19:30, 'sat': выходной, 'sun': выходной, ",55.722593,37.558400,"4,6",['8 (800) 555-55-50Показать телефон'],"['https://ok.ru/sberbank', 'https://vk.com/sberbank']",80,60,81,89,73,,,,,2024-07-29 08:04:06
40,sberbank/1094331006,СберБанк,"Краснопрудная ул., 11, Москва",www.sberbank.com,"'mon': 09:00-20:00, 'tue': 09:00-20:00, 'wed': 09:00-20:00, 'thu': 09:00-20:00, 'fri': 09:00-20:00, 'sat': 09:30-17:00, 'sun': выходной, ",55.779413,37.664950,"4,4",['8 (800) 555-55-50Показать телефон'],"['http://ok.ru/sberbank', 'https://t.me/sberbank', 'https://vk.com/sberbank']",85,71,22,87,9,,,,,2024-07-29 08:04:06
41,sberbank/1010200513,СберБанк,"пер. Сивцев Вражек, 29/16, Москва",www.sberbank.com,"'mon': 09:30-19:00, 'tue': 09:30-19:00, 'wed': 09:30-19:00, 'thu': 09:30-19:00, 'fri': 09:30-19:00, 'sat': 10:30-15:30, 'sun': выходной, ",55.746958,37.591144,"4,4",['8 (800) 555-55-50Показать телефон'],"['http://ok.ru/sberbank', 'https://t.me/sberbank', 'https://vk.com/sberbank']",77,65,62,76,40,,,,,2024-07-29 08:04:06
42,sberbank/224640232625,СберБанк,"Шмитовский пр., 16, стр. 1, Москва",www.sberbank.com,"'mon': 09:00-19:00, 'tue': 09:00-19:00, 'wed': 09:00-19:00, 'thu': 09:00-19:00, 'fri': 09:00-19:00, 'sat': 09:30-15:00, 'sun': выходной, ",55.758443,37.549238,"4,5",['8 (800) 555-55-50Показать телефон'],"['https://ok.ru/sber/', 'https://vk.com/sberbank']",77,61,70,72,,,,,,2024-07-29 08:04:06
43,sberbank/1000199304,СберБанк,"Аптекарский пер., 10/1, Москва",www.sberbank.com,"'mon': 09:30-19:30, 'tue': 09:30-19:30, 'wed': 09:30-19:30, 'thu': 09:30-19:30, 'fri': 09:30-19:30, 'sat': 09:30-16:00, 'sun': выходной, ",55.768051,37.677338,"4,4",['8 (800) 555-55-50Показать телефон'],"['http://ok.ru/sberbank', 'https://vk.com/sberbank']",85,77,52,92,,,92,,,2024-07-29 08:04:06
44,sberbank/1107699905,СберБанк,"Волгоградский просп., 63, Москва",www.sberbank.com,"'mon': 09:30-19:30, 'tue': 09:30-19:30, 'wed': 09:30-19:30, 'thu': 09:30-19:30, 'fri': 09:30-19:30, 'sat': 10:30-16:00, 'sun': выходной, ",55.709957,37.735378,"4,4",['8 (800) 555-55-50Показать телефон'],"['https://ok.ru/sber/', 'https://t.me/sberbank', 'https://vk.com/sberbank']",79,49,45,93,85,,84,,,2024-07-29 08:04:06
45,sberbank/1005203846,СберБанк,"Лесная ул., 4, стр. 1, Москва",www.sberbank.com,"'mon': 10:00-19:30, 'tue': 10:00-19:30, 'wed': 10:00-19:30, 'thu': 10:00-19:30, 'fri': 10:00-19:30, 'sat': 10:00-16:00, 'sun': выходной, ",55.776816,37.586508,"4,3",['8 (800) 555-55-50Показать телефон'],"['https://ok.ru/sberbank', 'https://vk.com/sberbank']",77,59,36,97,,,,,,2024-07-29 08:04:06
46,sberbank/81315124185,СберБанк,"ул. Дмитрия Ульянова, 24, стр. 1, Москва",,"'mon': выходной, 'tue': выходной, 'wed': выходной, 'thu': выходной, 'fri': выходной, 'sat': выходной, 'sun': выходной, ",55.686731,37.574974,"4,5",['8 (800) 555-55-50Показать телефон'],"['https://ok.ru/sberbank', 'https://vk.com/sberbank']",77,77,88,98,,,,,,2024-07-29 08:04:06
47,sberbank/141659955292,СберБанк,"Красноказарменная ул., 23, Москва",www.sberbank.com,"'mon': 09:00-19:30, 'tue': 09:00-19:30, 'wed': 09:00-19:30, 'thu': 09:00-19:30, 'fri': 09:00-19:30, 'sat': 10:00-17:00, 'sun': выходной, ",55.753615,37.713189,"4,5",['8 (800) 555-55-50Показать телефон'],"['https://ok.ru/sberbank', 'https://vk.com/sberbank']",80,53,83,93,,,,,,2024-07-29 08:04:06
48,sberbank/1132283404,СберБанк,"Волгоградский просп., 92, Москва",,"'mon': выходной, 'tue': выходной, 'wed': выходной, 'thu': выходной, 'fri': выходной, 'sat': выходной, 'sun': выходной, ",55.704255,37.770412,"4,6",['8 (800) 555-55-50Показать телефон'],"['https://ok.ru/sberbank', 'https://vk.com/sberbank']",81,65,71,94,78,64,,84,,2024-07-29 08:04:06
49,sberbank/1050059557,СберБанк,"Ленинский просп., 45, Москва",www.sberbank.com,"'mon': 09:30-19:30, 'tue': 09:30-19:30, 'wed': 09:30-19:30, 'thu': 09:30-19:30, 'fri': 09:30-19:30, 'sat': выходной, 'sun': выходной, ",55.703033,37.573312,"4,4",['8 (800) 555-55-50Показать телефон'],"['http://ok.ru/sberbank', 'https://t.me/sber_students_bot', 'https://vk.com/sberbank']",79,72,68,96,57,,,,,2024-07-29 08:04:06
50,sberbank/1159393041,СберБанк,"Люблинская ул., 157, корп. 3, Москва",www.sberbank.com,"'mon': 09:00-19:00, 'tue': 09:00-19:00, 'wed': 09:00-19:00, 'thu': 09:00-19:00, 'fri': 09:00-19:00, 'sat': 10:00-17:00, 'sun': выходной, ",55.655620,37.743911,"4,6",['8 (800) 555-55-50Показать телефон'],"['https://ok.ru/sberbank', 'https://t.me/Sber_Business_Live_bot', 'https://vk.com/careersber']",67,51,75,97,62,36,,,,2024-07-29 08:04:06
51,sberbank/1056287893,СберБанк,"ул. Лефортовский Вал, 16А, Москва",www.sberbank.com,"'mon': выходной, 'tue': выходной, 'wed': выходной, 'thu': выходной, 'fri': 09:00-20:00, 'sat': 09:00-16:00, 'sun': выходной, ",55.759572,37.701259,"4,7",['8 (800) 555-55-50Показать телефон'],"['http://ok.ru/sberbank', 'https://vk.com/sberbank']",85,83,83,89,82,,95,,,2024-07-29 08:04:06
52,sberbank/167015643857,СберБанк,"Большая Черёмушкинская ул., 13, стр. 6, Москва",www.sberbank.com,"'mon': 09:30-19:30, 'tue': 09:30-19:30, 'wed': 09:30-19:30, 'thu': 09:30-19:30, 'fri': 09:30-19:30, 'sat': 10:00-15:30, 'sun': выходной, ",55.686893,37.594917,"4,7",['8 (800) 555-55-50Показать телефон'],"['http://ok.ru/sberbank', 'https://t.me/sberbank', 'https://vk.com/sberbank']",83,64,66,97,73,,,,,2024-07-29 08:04:06
53,sberbank/1086169796,СберБанк,"Кутузовский просп., 36А, Москва",www.sberbank.com,"'mon': 09:00-19:30, 'tue': 09:00-19:30, 'wed': 09:00-19:30, 'thu': 09:00-19:30, 'fri': 09:00-19:30, 'sat': выходной, 'sun': выходной, ",55.738743,37.526186,"4,3",['8 (800) 555-55-50Показать телефон'],"['https://ok.ru/sberbank', 'https://t.me/sberbank', 'https://vk.com/sberbank']",86,75,59,94,,,,,,2024-07-29 08:04:06
54,sberbank/1006645554,СберБанк,"1-я Тверская-Ямская ул., 11, Москва",www.sberbank.com,"'mon': 10:30-19:30, 'tue': 10:30-19:30, 'wed': 10:30-19:30, 'thu': 10:30-19:30, 'fri': 10:30-19:30, 'sat': выходной, 'sun': выходной, ",55.772639,37.591045,"4,3",['8 (800) 555-55-50Показать телефон'],"['http://ok.ru/sberbank', 'https://vk.com/sberbank']",74,56,74,86,53,,94,,,2024-07-29 08:04:06
55,sberbank/1041055233,СберБанк,"Нагатинская ул., 16, Москва",www.sberbank.com,"'mon': 10:00-20:00, 'tue': 10:00-20:00, 'wed': 10:00-20:00, 'thu': 10:00-20:00, 'fri': 10:00-20:00, 'sat': выходной, 'sun': выходной, ",55.678890,37.642572,"4,4",['8 (800) 555-55-50Показать телефон'],"['https://ok.ru/sber/', 'https://t.me/sberbank', 'https://vk.com/sberbank']",81,82,77,70,38,,,,,2024-07-29 08:04:06
56,sberbank/1117013623,СберБанк,"ул. Большая Дмитровка, 21/7, Москва",www.sberbank.com,"'mon': 09:00-20:30, 'tue': 09:00-20:30, 'wed': 09:00-20:30, 'thu': 09:00-20:30, 'fri': 09:00-20:30, 'sat': 09:00-18:00, 'sun': выходной, ",55.765448,37.610260,"4,2",['8 (800) 555-55-50Показать телефон'],"['http://ok.ru/sberbank', 'https://t.me/sberbank', 'https://vk.com/sberbank']",66,47,24,93,,,,,,2024-07-29 08:04:06
57,sberbank/1109154915,СберБанк,"Шоссейная ул., 1/2с2, Москва",www.sberbank.com,"'mon': 09:00-20:00, 'tue': 09:00-20:00, 'wed': 09:00-20:00, 'thu': 09:00-20:00, 'fri': 09:00-20:00, 'sat': 10:00-16:00, 'sun': выходной, ",55.691125,37.727931,"4,5",['8 (800) 555-55-50Показать телефон'],"['https://ok.ru/sberbank', 'https://t.me/sberbank', 'https://vk.com/sberbank']",78,62,65,91,65,,61,,,2024-07-29 08:04:06
58,sberbank/1016535390,СберБанк,"Преображенская площадь, 7А, стр. 1, Москва",www.sberbank.com,"'mon': 08:30-20:00, 'tue': 08:30-20:00, 'wed': 08:30-20:00, 'thu': 08:30-20:00, 'fri': 08:30-20:00, 'sat': 09:30-17:00, 'sun': 10:00-16:00, ",55.795560,37.709164,"4,6",['8 (800) 555-55-50Показать телефон'],"['https://ok.ru/sberbank', 'https://t.me/sberbank', 'https://vk.com/sberbank']",72,61,61,93,55,56,,59,,2024-07-29 08:04:06
59,sberbank/1038114324,СберБанк,"Цветной бул., 1, Москва",www.sberbank.com,"'mon': 09:30-19:30, 'tue': 09:30-19:30, 'wed': 09:30-19:30, 'thu': 09:30-19:30, 'fri': 09:30-19:30, 'sat': 11:00-15:00, 'sun': выходной, ",55.767762,37.620743,"4,3",['8 (800) 555-55-50Показать телефон'],"['https://ok.ru/sberbank', 'https://t.me/sberbank', 'https://vk.com/sberbank']",82,50,61,94,,,,,,2024-07-29 08:04:06
60,sberbank/1021933597,СберБанк,"Чертановская ул., 1В, корп. 1, Москва",www.sberbank.com,"'mon': 08:30-20:00, 'tue': 08:30-20:00, 'wed': 08:30-20:00, 'thu': 08:30-20:00, 'fri': 08:30-20:00, 'sat': 10:00-18:00, 'sun': 10:00-17:00, ",55.639461,37.607143,"4,5",['8 (800) 555-55-50Показать телефон'],"['https://ok.ru/sber/', 'https://t.me/sberbank', 'https://vk.com/sberbank']",77,60,77,95,76,,,,,2024-07-29 08:04:06
61,sberbank/230760996254,Сбербанк России,"Хорошёвское ш., 27, Москва",www.sberbank.com,"'mon': 10:00-20:30, 'tue': 10:00-20:30, 'wed': 10:00-20:30, 'thu': 10:00-20:30, 'fri': 10:00-20:30, 'sat': 11:00-17:00, 'sun': выходной, ",55.777105,37.523716,"4,5",['8 (800) 555-55-50Показать телефон'],"['https://ok.ru/sberbank', 'https://t.me/sber_students_bot', 'https://vk.com/sberbank']",79,59,69,87,,,,,,2024-07-29 08:04:06
62,sberbank/1000927269,СберБанк,"ул. Измайловский Вал, 20, Москва",www.sberbank.com,"'mon': 09:00-20:00, 'tue': 09:00-20:00, 'wed': 09:00-20:00, 'thu': 09:00-20:00, 'fri': 09:00-20:00, 'sat': 09:00-17:00, 'sun': выходной, ",55.784780,37.718974,"4,4",['8 (800) 555-55-50Показать телефон'],"['http://ok.ru/sberbank', 'https://vk.com/sberbank']",76,63,59,96,,,,,,2024-07-29 08:04:06
63,sberbank/1307325955,СберБанк,"ул. Каховка, 23, Москва",www.sberbank.com,"'mon': 09:00-19:30, 'tue': 09:00-19:30, 'wed': 09:00-19:30, 'thu': 09:00-19:30, 'fri': 09:00-19:30, 'sat': 09:30-16:30, 'sun': выходной, ",55.654508,37.574525,"4,6",['8 (800) 555-55-50Показать телефон'],"['https://ok.ru/sber/', 'https://t.me/Sber_Business_Live_bot', 'https://vk.com/careersber']",80,64,79,84,67,64,50,69,,2024-07-29 08:04:06
64,sberbank/1190385105,СберБанк,"Кутузовский просп., 30, Москва",www.sberbank.com,"'mon': 10:00-19:00, 'tue': 10:00-19:00, 'wed': 10:00-19:00, 'thu': 10:00-19:00, 'fri': 10:00-19:00, 'sat': выходной, 'sun': выходной, ",55.741480,37.537434,"4,4",['8 (800) 555-55-50Показать телефон'],"['http://ok.ru/sberbank', 'https://vk.com/sberbank']",82,60,52,95,55,,,,,2024-07-29 08:04:06
65,sberbank/188007632904,Сбербанк России,"Профсоюзная ул., 56, Москва",www.sberbank.com,"'mon': 10:00-20:00, 'tue': 10:00-20:00, 'wed': 10:00-20:00, 'thu': 10:00-20:00, 'fri': 10:00-20:00, 'sat': 11:00-18:00, 'sun': 11:00-18:00, ",55.670021,37.552481,"4,4",['8 (800) 555-55-50Показать телефон'],"['https://ok.ru/sber/', 'https://t.me/sberbank', 'https://vk.com/club41190667']",79,60,59,88,81,,,,,2024-07-29 08:04:06
66,sberbank/1261973984,СберБанк,"Садовая-Кудринская ул., 25, Москва",www.sberbank.com,"'mon': 09:00-19:00, 'tue': 09:00-19:00, 'wed': 09:00-19:00, 'thu': 09:00-19:00, 'fri': 09:00-19:00, 'sat': выходной, 'sun': выходной, ",55.765803,37.589859,"4,3",['8 (800) 555-55-50Показать телефон'],"['http://ok.ru/sberbank', 'https://vk.com/sberbank']",83,68,87,96,,,,,,2024-07-29 08:04:06
67,sberbank/1261532735,СберБанк,"Загородное ш., 15, корп. 1, Москва",www.sberbank.com,"'mon': 09:00-19:00, 'tue': 09:00-19:00, 'wed': 09:00-19:00, 'thu': 09:00-19:00, 'fri': 09:00-19:00, 'sat': выходной, 'sun': выходной, ",55.691679,37.603065,"4,6",['8 (800) 555-55-50Показать телефон'],"['http://ok.ru/sberbank', 'https://t.me/sberbank', 'https://vk.com/sberbank']",85,76,74,100,75,,94,,,2024-07-29 08:04:06
68,sberbank/1128438097,СберБанк,"Ленинский просп., 75/9, Москва",www.sberbank.com,"'mon': 09:00-19:00, 'tue': 09:00-19:00, 'wed': 09:00-19:00, 'thu': 09:00-19:00, 'fri': 09:00-19:00, 'sat': 09:30-16:30, 'sun': выходной, ",55.686980,37.544998,"4,4",['8 (800) 555-55-50Показать телефон'],"['http://ok.ru/sberbank', 'https://t.me/s/sberbank', 'https://vk.com/sber']",80,67,74,88,,,,,,2024-07-29 08:04:06
69,sberbank/1027516913,СберБанк,"Судостроительная ул., 32, Москва",www.sberbank.com,"'mon': 08:30-19:00, 'tue': 08:30-19:00, 'wed': 08:30-19:00, 'thu': 08:30-19:00, 'fri': 08:30-19:00, 'sat': 09:00-16:30, 'sun': выходной, ",55.683823,37.686239,"4,5",['8 (800) 555-55-50Показать телефон'],"['http://ok.ru/sberbank', 'https://vk.com/sberbank']",83,65,66,100,42,,,,,2024-07-29 08:04:06
70,sberbank/1092960272,СберБанк,"Варшавское ш., 76, корп. 1, Москва",www.sberbank.com,"'mon': 09:00-19:30, 'tue': 09:00-19:30, 'wed': 09:00-19:30, 'thu': 09:00-19:30, 'fri': 09:00-19:30, 'sat': 09:30-16:30, 'sun': выходной, ",55.654528,37.618731,"4,4",['8 (800) 555-55-50Показать телефон'],"['http://ok.ru/sberbank', 'https://t.me/sberbank', 'https://vk.com/sberbank']",83,73,75,96,42,,82,,,2024-07-29 08:04:06
71,sberbank/1294036493,СберБанк,"Большая Грузинская ул., 12, Москва",www.sberbank.com,"'mon': 09:30-19:30, 'tue': 09:30-19:30, 'wed': 09:30-19:30, 'thu': 09:30-19:30, 'fri': 09:30-19:30, 'sat': 09:30-13:30, 'sun': выходной, ",55.763372,37.579161,"4,3",['8 (800) 555-55-50Показать телефон'],"['https://ok.ru/sberbank', 'https://vk.com/sberbank']",83,75,62,86,83,,,,,2024-07-29 08:04:06
72,sberbank/1107987500,СберБанк,,dzen.ru,"'mon': выходной, 'tue': выходной, 'wed': выходной, 'thu': выходной, 'fri': выходной, 'sat': выходной, 'sun': выходной, ",61.261842,37.617700,"4,4",['8 (800) 555-55-50Показать телефон'],"['https://ok.ru/sber/', 'https://t.me/sberbank', 'https://vk.com/sberbank']",79,58,50,100,50,,,,,2024-07-29 08:04:06
73,sberbank/1295053201,СберБанк,"к1, Юго-Восточный административный округ, район Кузьминки, Волжский Бульвар квартал 113А, Москва",www.sberbank.com,"'mon': 09:30-19:30, 'tue': 09:30-19:30, 'wed': 09:30-19:30, 'thu': 09:30-19:30, 'fri': 09:30-19:30, 'sat': 10:00-16:00, 'sun': выходной, ",55.700035,37.752355,"4,6",['8 (800) 555-55-50Показать телефон'],"['https://ok.ru/sberbank', 'https://vk.com/sberbank']",78,49,50,89,,,,,,2024-07-29 08:04:06
74,sberbank/242282487702,СберБанк,"Совхозная ул., 39, Москва",www.sberbank.com,"'mon': 09:00-20:00, 'tue': 09:00-20:00, 'wed': 09:00-20:00, 'thu': 09:00-20:00, 'fri': 09:00-20:00, 'sat': 10:00-15:00, 'sun': выходной, ",55.673834,37.760494,"4,6",['8 (800) 555-55-50Показать телефон'],"['https://ok.ru/sber/', 'https://t.me/sberbank', 'https://vk.com/sberbank']",74,56,56,100,,,,,,2024-07-29 08:04:06
75,sberbank/126086585532,СберБанк,"Щербаковская ул., 53, стр. 1, Москва",www.sberbank.com,"'mon': 09:30-19:30, 'tue': 09:30-19:30, 'wed': 09:30-19:30, 'thu': 09:30-19:30, 'fri': 09:30-19:30, 'sat': выходной, 'sun': выходной, ",55.783064,37.735018,"4,5",['8 (800) 555-55-50Показать телефон'],"['https://ok.ru/sberbank', 'https://vk.com/sberbank']",83,79,77,90,,,,,,2024-07-29 08:04:06
76,sberbank/1335729456,СберБанк,"Братиславская ул., 16, корп. 1, Москва",,"'mon': выходной, 'tue': выходной, 'wed': выходной, 'thu': выходной, 'fri': выходной, 'sat': выходной, 'sun': выходной, ",55.659358,37.757449,"4,5",['8 (800) 555-55-50Показать телефон'],"['https://ok.ru/sberbank', 'https://vk.com/sberbank']",75,57,53,86,69,,,,,2024-07-29 08:04:06
77,sberbank/1069560670,СберБанк,"Ленинградский просп., 34, Москва",www.sberbank.com,"'mon': 09:00-19:30, 'tue': 09:00-19:30, 'wed': 09:00-19:30, 'thu': 09:00-19:30, 'fri': 09:00-19:30, 'sat': 09:30-15:30, 'sun': выходной, ",55.785762,37.568838,"4,4",['8 (800) 555-55-50Показать телефон'],"['https://ok.ru/sber/', 'https://vk.com/sberbank']",74,59,81,86,,,,,,2024-07-29 08:04:06
78,sberbank/200093053484,СберБанк,"Луганская ул., 5, Москва",www.sberbank.com,"'mon': 09:00-20:00, 'tue': 09:00-20:00, 'wed': 09:00-20:00, 'thu': 09:00-20:00, 'fri': 09:00-20:00, 'sat': 09:00-17:00, 'sun': выходной, ",55.626091,37.666279,"4,8",['8 (800) 555-55-50Показать телефон'],"['https://ok.ru/sberbank', 'https://t.me/sberbank', 'https://vk.com/sberbank']",83,76,85,90,92,,,,,2024-07-29 08:04:06
79,sberbank/1132040156,СберБанк,"просп. Будённого, 30/8, Москва",www.sberbank.com,"'mon': 09:00-19:30, 'tue': 09:00-19:30, 'wed': 09:00-19:30, 'thu': 09:00-19:30, 'fri': 09:00-19:30, 'sat': 09:00-17:00, 'sun': выходной, ",55.762110,37.734704,"4,5",['8 (800) 555-55-50Показать телефон'],"['http://ok.ru/sberbank', 'https://vk.com/sberbank']",71,60,43,92,,,,,,2024-07-29 08:04:06
80,sberbank/1255204801,СберБанк,"Бутырская ул., 2/18, Москва",www.sberbank.com,"'mon': 09:30-20:00, 'tue': 09:30-20:00, 'wed': 09:30-20:00, 'thu': 09:30-20:00, 'fri': 09:30-20:00, 'sat': 10:30-15:30, 'sun': 10:30-15:30, ",55.794452,37.586472,"4,4",['8 (800) 555-55-50Показать телефон'],"['https://ok.ru/sberbank', 'https://vk.com/sberbank']",75,64,44,83,,,,,,2024-07-29 08:04:06
81,sberbank/1003263702,СберБанк,"Люблинская ул., 38, Москва",www.sberbank.com,"'mon': 09:00-19:00, 'tue': 09:00-19:00, 'wed': 09:00-19:00, 'thu': 09:00-19:00, 'fri': 09:00-19:00, 'sat': 09:30-15:30, 'sun': выходной, ",55.686782,37.736329,"4,5",['8 (800) 555-55-50Показать телефон'],"['https://ok.ru/sberbank', 'https://vk.com/sberbank', 'https://youtube.com/user/Sberbank']",81,70,66,69,23,,,,,2024-07-29 08:04:06
82,sberbank/58075982453,СберБанк,"Бакунинская ул., 44-48с1, Москва",www.sberbank.com,"'mon': 09:30-19:00, 'tue': 09:30-19:00, 'wed': 09:30-19:00, 'thu': 09:30-19:00, 'fri': 09:30-19:00, 'sat': 10:30-16:30, 'sun': выходной, ",55.776355,37.687542,"4,4",['8 (800) 555-55-50Показать телефон'],"['https://ok.ru/sberbank', 'https://vk.com/sberbank']",86,64,52,95,75,,,,,2024-07-29 08:04:06
83,sberbank/238115567563,СберБанк,"просп. Мира, 91, корп. 3, Москва",www.sberbank.com,"'mon': 09:00-20:00, 'tue': 09:00-20:00, 'wed': 09:00-20:00, 'thu': 09:00-20:00, 'fri': 09:00-20:00, 'sat': 09:00-17:30, 'sun': выходной, ",55.806894,37.635592,"4,4",['8 (800) 555-55-50Показать телефон'],"['https://ok.ru/sberbank', 'https://t.me/sberbank', 'https://vk.com/sberbank']",80,66,74,88,73,,,,,2024-07-29 08:04:06
84,sberbank/1287175300,СберБанк,"Кантемировская ул., 3, корп. 5, стр. 2, Москва",www.sberbank.com,"'mon': 09:00-19:00, 'tue': 09:00-19:00, 'wed': 09:00-19:00, 'thu': 09:00-19:00, 'fri': 09:00-19:00, 'sat': 09:00-15:00, 'sun': выходной, ",55.636170,37.680954,"4,6",['8 (800) 555-55-50Показать телефон'],"['https://ok.ru/sberbank', 'https://vk.com/sberbank']",81,71,64,39,71,67,80,75,,2024-07-29 08:04:06
85,sberbank/1030109544,Сбербанк России,"Ленинградский просп., 62А, Москва",www.sberbank.com,"'mon': 09:00-20:00, 'tue': 09:00-20:00, 'wed': 09:00-20:00, 'thu': 09:00-20:00, 'fri': 09:00-20:00, 'sat': 10:00-17:30, 'sun': 11:00-16:30, ",55.801835,37.532107,"4,3",['8 (800) 555-55-50Показать телефон'],"['http://ok.ru/sberbank', 'https://vk.com/sberbank']",75,48,76,93,91,,,,,2024-07-29 08:04:06
86,sberbank/55468574172,СберБанк,"просп. Вернадского, 86Б, Москва",www.sberbank.com,"'mon': 09:00-20:00, 'tue': 09:00-20:00, 'wed': 09:00-20:00, 'thu': 09:00-20:30, 'fri': 09:00-20:00, 'sat': 10:00-17:00, 'sun': выходной, ",55.661689,37.481469,"4,3",['8 (800) 555-55-50Показать телефон'],"['https://ok.ru/sberbank', 'https://vk.com/sberbank']",77,63,78,100,75,,,,,2024-07-29 08:04:06
87,sberbank/1349377666,СберБанк,"2-я Владимирская ул., 40, Москва",www.sberbank.com,"'mon': 08:30-19:30, 'tue': 08:30-19:30, 'wed': 08:30-19:30, 'thu': 08:30-19:30, 'fri': 08:30-19:30, 'sat': 09:00-16:00, 'sun': выходной, ",55.749841,37.784452,"4,4",['8 (800) 555-55-50Показать телефон'],"['https://ok.ru/sberbank', 'https://t.me/sberbank', 'https://vk.com/sberbank']",70,53,59,90,75,10,,,,2024-07-29 08:04:06
88,sberbank/1126079394,СберБанк,"Большая Грузинская ул., 37, Москва",www.sberbank.ru,"'mon': 09:00-19:30, 'tue': 09:00-19:30, 'wed': 09:00-19:30, 'thu': 09:00-19:30, 'fri': 09:00-19:30, 'sat': 09:30-17:00, 'sun': выходной, ",55.768815,37.579995,"4,3",['8 (800) 555-55-50Показать телефон'],"['https://ok.ru/sberbank', 'https://vk.com/sberbank']",75,65,71,,,,,,,2024-07-29 08:04:06
89,sberbank/1001159544,СберБанк,"Ленинский просп., 99, Москва",www.sberbank.com,"'mon': 09:00-19:30, 'tue': 09:00-19:30, 'wed': 09:00-19:30, 'thu': 09:00-19:30, 'fri': 09:00-19:30, 'sat': 09:30-16:00, 'sun': выходной, ",55.668346,37.518353,"4,5",['8 (800) 555-55-50Показать телефон'],"['https://ok.ru/sberbank', 'https://vk.com/sberbank']",73,67,81,85,44,,,,,2024-07-29 08:04:06
90,sberbank/217428131038,СберБанк,"ул. Плющиха, 42, Москва",www.sberbank.com,"'mon': 09:00-20:00, 'tue': 09:00-20:00, 'wed': 09:00-20:00, 'thu': 09:00-20:00, 'fri': 09:00-20:00, 'sat': выходной, 'sun': выходной, ",55.741024,37.576367,"4,3",['8 (800) 555-55-50Показать телефон'],"['http://ok.ru/sberbank', 'https://t.me/sberbank', 'https://vk.com/sberbank']",81,57,50,,46,,,,,2024-07-29 08:04:06
91,sberbank/30547341753,Сбербанк,"Щёлковское ш., 75, Москва",www.sberbank.com,"'mon': 10:00-21:00, 'tue': 10:00-21:00, 'wed': 10:00-21:00, 'thu': 10:00-21:00, 'fri': 10:00-21:00, 'sat': 10:00-21:00, 'sun': 11:30-19:00, ",55.810967,37.801081,"4,6",['8 (800) 555-55-50Показать телефон'],"['http://ok.ru/sberbank', 'https://vk.com/sberbank']",56,41,61,85,41,25,,,,2024-07-29 08:04:06
92,sberbank/1131965726,СберБанк,"Сокольническая площадь, 9, Москва",www.sberbank.com,"'mon': 09:00-20:00, 'tue': 09:00-20:00, 'wed': 09:00-20:00, 'thu': 09:00-20:00, 'fri': 09:00-20:00, 'sat': 10:00-16:00, 'sun': выходной, ",55.790448,37.680517,"4,3",['8 (800) 555-55-50Показать телефон'],"['https://ok.ru/sber/', 'https://vk.com/sberbank']",68,53,44,83,70,,,,,2024-07-29 08:04:06
93,sberbank/1119859822,СберБанк,"Профсоюзная ул., 20/9, Москва",www.sberbank.ru,"'mon': 08:30-19:00, 'tue': 08:30-19:00, 'wed': 08:30-19:00, 'thu': 08:30-19:00, 'fri': 08:30-19:00, 'sat': 09:30-17:00, 'sun': выходной, ",55.681695,37.566094,"4,3",['8 (800) 555-55-50Показать телефон'],"['https://ok.ru/sberbank', 'https://vk.com/sberbank']",79,53,60,85,,,,,,2024-07-29 08:04:06
94,sberbank/1055521354,СберБанк,"Волгоградский просп., 119А, Москва",www.sberbank.com,"'mon': 09:00-19:30, 'tue': 09:00-19:30, 'wed': 09:00-19:30, 'thu': 09:00-19:30, 'fri': 09:00-19:30, 'sat': 10:00-16:00, 'sun': выходной, ",55.706284,37.765372,"4,4",['8 (800) 555-55-50Показать телефон'],"['https://ok.ru/sberbank', 'https://vk.com/sberbank']",81,58,49,100,40,,,,,2024-07-29 08:04:06
95,sberbank/1033917790,СберБанк,,www.sberbank.com,"'mon': 09:00-19:00, 'tue': 09:00-19:00, 'wed': 09:00-19:00, 'thu': 09:00-19:00, 'fri': 09:00-19:00, 'sat': выходной, 'sun': выходной, ",61.261842,37.617700,"4,3",['8 (800) 555-55-50Показать телефон'],"['http://ok.ru/sberbank', 'https://vk.com/sberbank']",67,41,44,92,38,,36,,,2024-07-29 08:04:06
96,sberbank/1029759146,Сбер,"Кантемировская ул., 47, Москва",www.sberbank.com,"'mon': 09:00-19:30, 'tue': 09:00-19:30, 'wed': 09:00-19:30, 'thu': 09:00-19:30, 'fri': 09:00-19:30, 'sat': 10:00-17:00, 'sun': выходной, ",55.637799,37.656182,"4,4",['8 (800) 555-55-50Показать телефон'],"['https://ok.ru/sberbank', 'https://vk.com/sberbank']",78,63,50,89,50,50,,,,2024-07-29 08:04:06
97,sberbank/1069132121,СберБанк,"Краснодарская ул., 57, корп. 1, Москва",www.sberbank.com,"'mon': 08:30-20:00, 'tue': 08:30-20:00, 'wed': 08:30-13:00, 'thu': 08:30-20:00, 'fri': 08:30-20:00, 'sat': 09:00-18:00, 'sun': выходной, ",55.676930,37.767448,"4,3",['8 (800) 555-55-50Показать телефон'],"['https://ok.ru/sberbank', 'https://vk.com/sberbank']",69,36,42,78,54,,,,,2024-07-29 08:04:06
98,sberbank/1116257146,СберБанк,"просп. Вернадского, 41, стр. 3, Москва",www.sberbank.com,"'mon': 09:00-20:00, 'tue': 09:00-20:00, 'wed': 09:00-20:00, 'thu': 09:00-20:00, 'fri': 09:00-20:00, 'sat': 09:00-17:00, 'sun': выходной, ",55.674504,37.504564,"4,4",['8 (800) 555-55-50Показать телефон'],"['https://ok.ru/sberbank', 'https://t.me/sberbank', 'https://vk.com/sberbank']",71,49,39,78,,,,,,2024-07-29 08:04:06
99,sberbank/1195492724,СберБанк,"Ореховый бул., 14, корп. 3, Москва",www.sberbank.com,"'mon': 10:00-19:30, 'tue': 10:00-19:30, 'wed': 10:00-19:30, 'thu': 10:00-19:30, 'fri': 10:00-19:30, 'sat': 10:00-18:30, 'sun': 10:00-16:00, ",55.609680,37.720106,"4,5",['8 (800) 555-55-50Показать телефон'],"['https://ok.ru/sber/', 'https://t.me/sberbank', 'https://vk.com/sberbank']",64,46,60,90,67,,,,,2024-07-29 08:04:06
100,sberbank/1011474447,СберБанк,"ул. Сущёвский Вал, 71, Москва",www.sberbank.com,"'mon': 09:00-19:30, 'tue': 09:00-19:30, 'wed': 09:00-19:30, 'thu': 09:00-19:30, 'fri': 09:00-19:30, 'sat': 11:00-16:00, 'sun': выходной, ",55.793359,37.625810,"4,4",['8 (800) 555-55-50Показать телефон'],"['https://ok.ru/sberbank', 'https://vk.com/sberbank']",83,60,50,90,,,,,,2024-07-29 08:04:06
101,sberbank/26798005782,СберБанк,"Авиамоторная ул., 51, Москва",www.sberbank.com,"'mon': 09:00-19:00, 'tue': 09:00-19:00, 'wed': 09:00-19:00, 'thu': 09:00-19:00, 'fri': 09:00-19:00, 'sat': выходной, 'sun': выходной, ",55.746304,37.720995,"4,5",['8 (800) 555-55-50Показать телефон'],"['http://ok.ru/sberbank', 'https://vk.com/sberbank']",75,73,85,,,,93,,,2024-07-29 08:04:06
102,sberbank/1065694292,СберБанк,"просп. Маршала Жукова, 11, корп. 1, Москва",www.sberbank.com,"'mon': 09:00-19:30, 'tue': 09:00-19:30, 'wed': 09:00-19:30, 'thu': 09:00-19:30, 'fri': 09:00-19:30, 'sat': 09:30-15:30, 'sun': выходной, ",55.775454,37.495680,"4,6",['8 (800) 555-55-50Показать телефон'],"['http://ok.ru/sberbank', 'https://vk.com/sberbank']",75,57,60,94,54,,,,,2024-07-29 08:04:06
103,sberbank/113007839275,СберБанк,"Волжский бул., 7, Москва",www.sberbank.com,"'mon': 09:00-19:30, 'tue': 09:00-19:30, 'wed': 09:00-19:30, 'thu': 09:00-19:30, 'fri': 09:00-19:30, 'sat': 10:00-16:30, 'sun': выходной, ",55.716585,37.745708,"4,7",['8 (800) 555-55-50Показать телефон'],"['https://ok.ru/sberbank', 'https://vk.com/sberbank']",85,78,65,100,90,,,,,2024-07-29 08:04:06
104,sberbank/1088927681,СберБанк,"ул. Павла Корчагина, 11, Москва",www.sberbank.com,"'mon': 09:00-19:00, 'tue': 09:00-19:00, 'wed': 09:00-19:00, 'thu': 09:00-19:00, 'fri': 09:00-19:00, 'sat': 09:30-16:30, 'sun': выходной, ",55.817158,37.659452,"4,5",['8 (800) 555-55-50Показать телефон'],"['http://ok.ru/sberbank', 'https://vk.com/sberbank']",87,73,76,96,81,,,,,2024-07-29 08:04:06
105,sberbank/1079391585,СберБанк,"Зелёный просп., 45/31, Москва",www.sberbank.com,"'mon': 09:00-19:30, 'tue': 09:00-19:30, 'wed': 09:00-19:30, 'thu': 09:00-19:30, 'fri': 09:00-19:30, 'sat': 10:00-16:30, 'sun': выходной, ",55.754117,37.799464,"4,7",['8 (800) 555-55-50Показать телефон'],"['http://ok.ru/sberbank', 'https://vk.com/sberbank']",77,65,73,94,60,,,,,2024-07-29 08:04:06
106,sberbank/1615818147,СберБанк,"Мичуринский просп., 3, Москва",www.sberbank.com,"'mon': 09:00-20:00, 'tue': 09:00-20:00, 'wed': 09:00-20:00, 'thu': 09:00-20:00, 'fri': 09:00-20:00, 'sat': 10:00-16:00, 'sun': выходной, ",55.704509,37.512838,"4,4",['8 (800) 555-55-50Показать телефон'],"['https://ok.ru/sber/', 'https://t.me/sberbank', 'https://vk.com/sberbank']",77,61,61,92,,,64,,,2024-07-29 08:04:06
107,sberbank/1108843273,СберБанк,"Багратионовский пр., 7, корп. 20В, Москва",www.sberbank.com,"'mon': 09:30-19:30, 'tue': 09:30-19:30, 'wed': 09:30-19:30, 'thu': 09:30-19:30, 'fri': 09:30-19:30, 'sat': 10:30-16:00, 'sun': выходной, ",55.743522,37.505507,"4,4",['8 (800) 555-55-50Показать телефон'],"['https://ok.ru/sber', 'https://vk.com/sberbank']",85,60,71,91,,,,,,2024-07-29 08:04:06
108,sberbank/1250036115,СберБанк,"Азовская ул., 24, стр. 1, Москва",www.sberbank.com,"'mon': 09:00-19:30, 'tue': 09:00-19:30, 'wed': 09:00-19:30, 'thu': 09:00-19:30, 'fri': 09:00-19:30, 'sat': 09:30-16:30, 'sun': выходной, ",55.651509,37.597875,"4,4",['8 (800) 555-55-50Показать телефон'],"['https://ok.ru/sberbank', 'https://t.me/sberbank', 'https://vk.com/sberbank']",75,60,55,92,,,,,,2024-07-29 08:04:06
109,sberbank/227895727860,СберБанк,"Университетский просп., 25/17, Москва",www.sberbank.com,"'mon': 09:00-19:00, 'tue': 09:00-19:00, 'wed': 09:00-19:00, 'thu': 09:00-19:00, 'fri': 09:00-19:00, 'sat': выходной, 'sun': выходной, ",55.715977,37.517321,"4,4",['8 (800) 555-55-50Показать телефон'],"['http://ok.ru/sberbank', 'https://vk.com/sberbank']",74,50,83,86,43,,,,,2024-07-29 08:04:06
110,sberbank/1225493955,СберБанк,"Мичуринский просп., 26, Москва",www.sberbank.com,"'mon': 09:00-19:30, 'tue': 09:00-19:30, 'wed': 09:00-19:30, 'thu': 09:00-19:30, 'fri': 09:00-19:30, 'sat': 09:00-17:00, 'sun': выходной, ",55.699903,37.500764,"4,4",['8 (800) 555-55-50Показать телефон'],"['https://ok.ru/sberbank', 'https://vk.com/sberbank']",77,57,75,78,,,,,,2024-07-29 08:04:06
111,sberbank/1056682434,СберБанк,"Ленинградский просп., 76, корп. 2, Москва",www.sberbank.com,"'mon': 08:30-20:00, 'tue': 08:30-20:00, 'wed': 08:30-20:00, 'thu': 08:30-20:00, 'fri': 08:30-20:00, 'sat': 10:00-16:00, 'sun': выходной, ",55.806474,37.515290,"4,3",['8 (800) 555-55-50Показать телефон'],"['https://ok.ru/sber/', 'https://vk.com/sberbank']",81,65,49,76,4,,,,,2024-07-29 08:04:06
112,sberbank/35018678745,Сбербанк,"ул. Красного Маяка, 2Б, Москва",www.sberbank.com,"'mon': 10:30-20:30, 'tue': 10:30-20:30, 'wed': 10:30-20:30, 'thu': 10:30-20:30, 'fri': 10:30-20:30, 'sat': 10:30-19:30, 'sun': 10:30-19:30, ",55.611119,37.606622,"4,6",['8 (800) 555-55-50Показать телефон'],"['http://ok.ru/sberbank', 'https://t.me/sberbank', 'https://vk.com/sberbank']",76,58,66,97,80,,,,,2024-07-29 08:04:06
113,sberbank/1091205211,СберБанк,"Болотниковская ул., 21, стр. 1, Москва",www.sberbank.com,"'mon': 09:00-19:00, 'tue': 09:00-19:00, 'wed': 09:00-19:00, 'thu': 09:00-19:00, 'fri': 09:00-19:00, 'sat': 09:30-15:30, 'sun': выходной, ",55.656595,37.597594,"4,3",['8 (800) 555-55-50Показать телефон'],"['https://ok.ru/sberbank', 'https://vk.com/sberbank']",84,57,57,75,,,,,,2024-07-29 08:04:06
114,sberbank/1595999674,СберБанк,"Рязанский просп., 69, Москва",www.sberbank.com,"'mon': 08:30-19:30, 'tue': 08:30-19:30, 'wed': 08:30-19:30, 'thu': 08:30-19:30, 'fri': 08:30-19:30, 'sat': 10:00-17:00, 'sun': выходной, ",55.718806,37.787148,"4,4",['8 (800) 555-55-50Показать телефон'],"['http://ok.ru/sberbank', 'https://vk.com/sberbank']",81,56,47,95,,,,,,2024-07-29 08:04:06
115,sberbank/1122211559,СберБанк,"ул. Борисовские Пруды, 26, Москва",www.sberbank.com,"'mon': 08:30-19:30, 'tue': 08:30-19:30, 'wed': 08:30-19:30, 'thu': 08:30-19:30, 'fri': 08:30-19:30, 'sat': 09:00-16:00, 'sun': 10:00-15:00, ",55.639964,37.758212,"4,7",['8 (800) 555-55-50Показать телефон'],"['https://ok.ru/sberbank', 'https://t.me/sberbank', 'https://vk.com/sberbank']",78,64,87,90,60,,80,,,2024-07-29 08:04:06
116,sberbank/1080537908,СберБанк,"Рязанский просп., 45, корп. 1, Москва",www.sberbank.com,"'mon': 09:00-19:30, 'tue': 09:00-19:30, 'wed': 09:00-19:30, 'thu': 09:00-19:30, 'fri': 09:00-19:30, 'sat': 10:30-16:00, 'sun': выходной, ",55.726426,37.761159,"4,4",['8 (800) 555-55-50Показать телефон'],"['https://ok.ru/sberbank', 'https://vk.com/sberbank']",89,65,54,84,,,,,,2024-07-29 08:04:06
117,sberbank/235259139937,СберБанк,"ул. Юных Ленинцев, 3, Москва",www.sberbank.com,"'mon': 08:30-19:30, 'tue': 08:30-19:30, 'wed': 08:30-19:30, 'thu': 08:30-19:30, 'fri': 08:30-19:30, 'sat': 10:00-17:00, 'sun': выходной, ",55.699589,37.736087,"4,4",['8 (800) 555-55-50Показать телефон'],"['https://ok.ru/sberbank', 'https://t.me/sberbank', 'https://vk.com/sberbank']",89,75,78,,,,,,,2024-07-29 08:04:06
118,sberbank/1092767836,СберБанк,"Перовская ул., 8, корп. 1, Москва",www.sberbank.com,"'mon': 10:00-20:00, 'tue': 10:00-20:00, 'wed': 10:00-20:00, 'thu': 10:00-20:00, 'fri': 10:00-20:00, 'sat': 10:00-15:00, 'sun': выходной, ",55.746897,37.758644,"4,3",['8 (800) 555-55-50Показать телефон'],"['http://ok.ru/sberbank', 'https://vk.com/sberbank']",82,48,17,81,10,,86,,,2024-07-29 08:04:06
119,sberbank/37158065220,СберБанк,"ул. Бутлерова, 30А, Москва",www.sberbank.com,"'mon': 09:00-19:30, 'tue': 09:00-19:30, 'wed': 09:00-19:30, 'thu': 09:00-19:30, 'fri': 09:00-19:30, 'sat': 10:00-16:00, 'sun': выходной, ",55.645705,37.543371,"4,6",['8 (800) 555-55-50Показать телефон'],"['https://ok.ru/sberbank', 'https://vk.com/sberbank']",81,68,71,69,55,,,,,2024-07-29 08:04:06
120,sberbank/1117287165,СберБанк,"бул. Маршала Рокоссовского, 18, Москва",www.sberbank.com,"'mon': 09:00-19:30, 'tue': 09:00-19:30, 'wed': 09:00-19:30, 'thu': 09:00-19:30, 'fri': 09:00-19:30, 'sat': 09:30-17:00, 'sun': выходной, ",55.813304,37.723268,"4,4",['8 (800) 555-55-50Показать телефон'],"['https://ok.ru/sberbank', 'https://vk.com/sberbank']",80,61,37,91,25,,,,,2024-07-29 08:04:06
121,sberbank/1123106661,СберБанк,"ул. Сущёвский Вал, 52/17, Москва",www.sberbank.com,"'mon': 09:00-20:00, 'tue': 09:00-20:00, 'wed': 09:00-20:00, 'thu': 09:00-20:00, 'fri': 09:00-20:00, 'sat': 10:00-17:30, 'sun': выходной, ",55.792574,37.615470,"4,2",['+7 (495) 500-55-50Показать телефон'],"['https://ok.ru/sberbank', 'https://vk.com/sberbank']",52,30,30,59,,,,,,2024-07-29 08:04:06
122,sberbank/1267731664,СберБанк,"Беговая ул., 17, корп. 1, Москва",www.sberbank.com,"'mon': выходной, 'tue': выходной, 'wed': выходной, 'thu': выходной, 'fri': выходной, 'sat': выходной, 'sun': выходной, ",55.781742,37.559784,"4,2",['8 (800) 555-55-50Показать телефон'],"['http://ok.ru/sberbank', 'https://vk.com/sberbank']",67,51,42,69,16,,,,,2024-07-29 08:04:06
123,sberbank/1049401511,СберБанк,"ул. Гарибальди, 36, Москва",www.sberbank.com,"'mon': 09:00-18:30, 'tue': 09:00-18:30, 'wed': выходной, 'thu': 09:00-18:30, 'fri': 09:00-18:30, 'sat': 09:00-17:00, 'sun': выходной, ",55.673019,37.547868,"4,4",['8 (800) 555-55-50Показать телефон'],"['https://ok.ru/sberbank', 'https://vk.com/sberbank']",77,67,57,81,53,,,,,2024-07-29 08:04:06
124,sberbank/1130712814,СберБанк,"Тихвинская ул., 20, Москва",www.sberbank.com,"'mon': 09:30-19:30, 'tue': 09:30-19:30, 'wed': 09:30-19:30, 'thu': 09:30-19:30, 'fri': 09:30-19:30, 'sat': выходной, 'sun': выходной, ",55.790565,37.600612,"4,4",['8 (800) 555-55-50Показать телефон'],"['https://ok.ru/sberbank', 'https://vk.com/sberbank']",77,65,72,88,47,,94,,,2024-07-29 08:04:06
125,sberbank/1099170064,СберБанк,"Пролетарский просп., 6, Москва",www.sberbank.com,"'mon': 09:00-20:00, 'tue': 09:00-20:00, 'wed': 09:00-20:00, 'thu': 09:00-20:00, 'fri': 09:00-20:00, 'sat': 10:00-17:00, 'sun': выходной, ",55.646462,37.655787,"4,5",['8 (800) 555-55-50Показать телефон'],"['http://ok.ru/sberbank', 'https://vk.com/sberbank']",79,72,63,94,,,67,,,2024-07-29 08:04:06
126,sberbank/1199757682,Сбербанк,"Матвеевская ул., 2, Москва",www.sberbank.com,"'mon': 08:30-20:00, 'tue': 08:30-20:00, 'wed': 08:30-20:00, 'thu': 08:30-20:00, 'fri': 08:30-20:00, 'sat': 09:00-16:00, 'sun': выходной, ",55.705387,37.479160,"4,7",['8 (800) 555-55-50Показать телефон'],"['https://ok.ru/sberbank', 'https://vk.com/sberbank']",85,75,87,97,80,,,,,2024-07-29 08:04:06
127,sberbank/1058537510,СберБанк,"Большая Переяславская ул., 9, Москва",www.sberbank.com,"'mon': 09:30-19:00, 'tue': 09:30-19:00, 'wed': 09:30-19:00, 'thu': 09:30-19:00, 'fri': 09:30-19:00, 'sat': выходной, 'sun': выходной, ",55.783352,37.641378,"4,2",['8 (800) 555-55-50Показать телефон'],"['http://ok.ru/sberbank', 'https://t.me/sberbank', 'https://vk.com/sberbank']",76,52,60,88,60,,,,,2024-07-29 08:04:06
128,sberbank/1068586559,СберБанк,"Профсоюзная ул., 104, Москва",www.sberbank.com,"'mon': 08:30-20:00, 'tue': 08:30-20:00, 'wed': 08:30-20:00, 'thu': 08:30-20:00, 'fri': 08:30-20:00, 'sat': 09:00-16:00, 'sun': выходной, ",55.641920,37.523465,"4,4",['8 (800) 555-55-50Показать телефон'],"['https://ok.ru/sberbank', 'https://vk.com/sberbank']",79,56,77,92,91,,,,,2024-07-29 08:04:06
129,sberbank/1027804850,СберБанк,"Свободный просп., 33, Москва",www.sberbank.com,"'mon': 09:00-20:30, 'tue': 09:00-20:30, 'wed': 09:00-20:30, 'thu': 09:00-20:30, 'fri': 09:00-20:30, 'sat': 09:00-18:30, 'sun': выходной, ",55.752820,37.819316,"4,4",['8 (800) 555-55-50Показать телефон'],"['http://ok.ru/sberbank', 'https://t.me/sberbank', 'https://vk.com/sberbank']",69,52,41,85,,,,,,2024-07-29 08:04:06
130,sberbank/91013428713,СберБанк,"Щёлковское ш., 6, Москва",www.sberbank.com,"'mon': 09:00-20:00, 'tue': 09:00-20:00, 'wed': 09:00-20:00, 'thu': 09:00-20:00, 'fri': 09:00-20:00, 'sat': 09:30-15:30, 'sun': выходной, ",55.803854,37.760513,"4,6",['8 (800) 555-55-50Показать телефон'],"['https://ok.ru/sberbank', 'https://vk.com/sberbank']",80,64,68,77,,,,,,2024-07-29 08:04:06
131,sberbank/1130216142,СберБанк,"просп. Мира, 180, Москва",www.sberbank.com,"'mon': 10:00-19:30, 'tue': 10:00-19:30, 'wed': 10:00-19:30, 'thu': 10:00-19:30, 'fri': 10:00-19:30, 'sat': выходной, 'sun': выходной, ",55.824253,37.645897,"4,4",['8 (800) 555-55-50Показать телефон'],"['http://ok.ru/sberbank', 'https://vk.com/sberbank']",84,68,54,94,,,55,,,2024-07-29 08:04:06
132,sberbank/1013311129,СберБанк,"Кировоградская ул., 8, корп. 3, Москва",www.sberbank.com,"'mon': 09:00-19:30, 'tue': 09:00-19:30, 'wed': 09:00-19:30, 'thu': 09:00-19:30, 'fri': 09:00-19:30, 'sat': 09:30-16:30, 'sun': выходной, ",55.627417,37.610314,"4,6",['8 (800) 555-55-50Показать телефон'],"['http://ok.ru/sberbank', 'https://vk.com/sberbank']",82,75,83,93,67,,,,,2024-07-29 08:04:06
133,sberbank/1145622076,СберБанк,"ул. Расплетина, 10, корп. 1, Москва",www.sberbank.com,"'mon': 08:30-19:30, 'tue': 08:30-19:30, 'wed': 08:30-19:30, 'thu': 08:30-19:30, 'fri': 08:30-19:30, 'sat': 09:30-16:00, 'sun': выходной, ",55.790948,37.482869,"4,6",['8 (800) 555-55-50Показать телефон'],"['https://ok.ru/sberbank', 'https://vk.com/sberbank']",81,74,82,75,57,74,,81,,2024-07-29 08:04:06
134,sberbank/1059022742,СберБанк,"Кастанаевская ул., 24, Москва",www.sberbank.com,"'mon': 09:30-19:30, 'tue': 09:30-19:30, 'wed': 09:30-19:30, 'thu': 09:30-19:30, 'fri': 09:30-19:30, 'sat': выходной, 'sun': выходной, ",55.738637,37.490227,"4,4",['8 (800) 555-55-50Показать телефон'],"['https://ok.ru/sberbank', 'https://vk.com/sberbank']",75,65,14,69,3,,,,,2024-07-29 08:04:06
135,sberbank/1010347723,СберБанк,"ул. Академика Королёва, 5, Москва",www.sberbank.com,"'mon': 09:00-19:30, 'tue': 09:00-19:30, 'wed': 09:00-19:30, 'thu': 09:00-19:30, 'fri': 09:00-19:30, 'sat': 10:00-16:00, 'sun': выходной, ",55.820885,37.628271,"4,4",['8 (800) 555-55-50Показать телефон'],"['https://t.me/sberbank', 'https://vk.com/sber']",67,57,54,92,,,,,,2024-07-29 08:04:06
136,sberbank/1133836910,СберБанк,"Измайловский просп., 61, стр. 1, Москва",www.sberbank.com,"'mon': 08:30-19:30, 'tue': 08:30-19:30, 'wed': 08:30-19:30, 'thu': 08:30-19:30, 'fri': 08:30-19:30, 'sat': 09:00-16:30, 'sun': выходной, ",55.788814,37.783706,"4,5",['8 (800) 555-55-50Показать телефон'],"['https://ok.ru/sberbank', 'https://t.me/Sber_Business_Live_bot', 'https://vk.com/careersber']",70,60,70,92,,,,,,2024-07-29 08:04:06
137,sberbank/1117438875,СберБанк,"Люблинская ул., 175, Москва",www.sberbank.com,"'mon': 09:00-20:00, 'tue': 09:00-20:00, 'wed': 09:00-20:00, 'thu': 09:00-20:00, 'fri': 09:00-20:00, 'sat': 09:00-17:00, 'sun': выходной, ",55.645914,37.747379,"4,6",['8 (800) 555-55-50Показать телефон'],"['http://ok.ru/sberbank', 'https://vk.com/sberbank']",80,64,63,83,80,,90,,,2024-07-29 08:04:06
138,sberbank/1128805042,СберБанк,"Башиловская ул., 11, Москва",www.sberbank.com,"'mon': 09:00-20:00, 'tue': 09:00-20:00, 'wed': 09:00-20:00, 'thu': 09:00-20:00, 'fri': 09:00-20:00, 'sat': 10:30-17:30, 'sun': выходной, ",55.796739,37.575693,"4,6",['8 (800) 555-55-50Показать телефон'],"['https://ok.ru/sberbank', 'https://vk.com/sberbank']",77,63,68,96,90,,68,,,2024-07-29 08:04:06
139,sberbank/1052738875,СберБанк,,www.sberbank.com,"'mon': 09:30-19:00, 'tue': 09:30-19:00, 'wed': 09:30-19:00, 'thu': 09:30-19:00, 'fri': 09:30-19:00, 'sat': 10:30-17:30, 'sun': выходной, ",61.261842,37.617700,"4,5",['8 (800) 555-55-50Показать телефон'],"['http://ok.ru/sberbank', 'https://vk.com/sberbank']",73,63,48,88,,,,,,2024-07-29 08:04:06
140,sberbank/1075320959,СберБанк,"Красноармейская ул., 20, Москва",www.sberbank.com,"'mon': 09:00-19:00, 'tue': 09:00-19:00, 'wed': 09:00-19:00, 'thu': 09:00-19:00, 'fri': 09:00-19:00, 'sat': 10:00-16:00, 'sun': выходной, ",55.800489,37.543641,"4,4",['8 (800) 555-55-50Показать телефон'],"['https://ok.ru/sberbank', 'https://t.me/sberbank', 'https://vk.com/sberbank']",82,70,56,96,,,,,,2024-07-29 08:04:06
141,sberbank/1082081308,СберБанк,"ул. Народного Ополчения, 39, корп. 1, Москва",www.sberbank.com,"'mon': 09:00-19:30, 'tue': 09:00-19:30, 'wed': 09:00-19:30, 'thu': 09:00-19:30, 'fri': 09:00-19:30, 'sat': 09:30-17:00, 'sun': выходной, ",55.791061,37.488494,"4,6",['8 (800) 555-55-50Показать телефон'],"['https://ok.ru/sberbank', 'https://t.me/sberbank', 'https://vk.com/sberbank']",90,70,81,93,83,,,,,2024-07-29 08:04:06
142,sberbank/1203628270,СберБанк,"Криворожская ул., 23, корп. 1, Москва",www.sberbank.com,"'mon': 10:00-18:30, 'tue': 10:00-18:30, 'wed': 10:00-18:30, 'thu': 10:00-18:30, 'fri': 10:00-18:30, 'sat': выходной, 'sun': выходной, ",55.668270,37.610655,"4,3",['8 (800) 555-55-50Показать телефон'],"['http://ok.ru/sberbank', 'https://t.me/sberbank', 'https://vk.com/sberbank']",78,55,32,69,30,,100,,,2024-07-29 08:04:06
143,sberbank/36058573249,СберБанк,"1, стр. 52, Западный административный округ, район Раменки, территория Ленинские Горы, Москва",www.sberbank.com,"'mon': 10:00-19:00, 'tue': 10:00-19:00, 'wed': 10:00-19:00, 'thu': 10:00-19:00, 'fri': 10:00-19:00, 'sat': выходной, 'sun': выходной, ",55.698736,37.531406,"4,3",['8 (800) 555-55-50Показать телефон'],"['http://ok.ru/sberbank', 'https://vk.com/sberbank']",63,38,,,,,,,,2024-07-29 08:04:06
144,sberbank/57490556382,СберБанк,"Новоясеневский просп., 1, корп. 2, Москва",www.sberbank.com,"'mon': 09:00-20:00, 'tue': выходной, 'wed': 09:00-20:00, 'thu': 09:00-20:00, 'fri': 09:00-20:00, 'sat': 10:00-17:00, 'sun': 10:00-17:00, ",55.619915,37.507205,"4,6",['8 (800) 555-55-50Показать телефон'],"['https://ok.ru/sberbank', 'https://vk.com/sberbank']",77,66,85,96,50,,,,,2024-07-29 08:04:06
145,sberbank/1115514801,СберБанк,"ул. Судакова, 17, Москва",www.sberbank.com,"'mon': 08:30-19:30, 'tue': 08:30-19:30, 'wed': выходной, 'thu': 08:30-19:30, 'fri': 08:30-19:30, 'sat': 10:00-15:00, 'sun': выходной, ",55.673184,37.750451,"4,6",['8 (800) 555-55-50Показать телефон'],"['https://ok.ru/sberbank', 'https://vk.com/sberbank']",80,65,57,95,46,,90,,,2024-07-29 08:04:06
146,sberbank/1091486166,СберБанк,"Рязанский просп., 58/1, Москва",www.sberbank.com,"'mon': 09:00-19:00, 'tue': 09:00-19:00, 'wed': 09:00-19:00, 'thu': 09:00-19:00, 'fri': 09:00-19:00, 'sat': 10:00-15:00, 'sun': выходной, ",55.715155,37.797478,"4,4",['8 (800) 555-55-50Показать телефон'],"['http://ok.ru/sberbank', 'https://vk.com/sberbank']",83,56,19,89,,,,,,2024-07-29 08:04:06
147,sberbank/1130776010,Сбербанк России,"Ярцевская ул., 25А, Москва",www.sberbank.com,"'mon': 09:30-20:00, 'tue': 09:30-20:00, 'wed': 09:30-20:00, 'thu': 09:30-20:00, 'fri': 09:30-20:00, 'sat': 10:00-19:00, 'sun': 10:00-19:00, ",55.741019,37.415415,"4,4",['8 (800) 555-55-50Показать телефон'],"['https://ok.ru/sberbank', 'https://t.me/Sber_Business_Live_bot', 'https://vk.com/careersber']",75,44,43,87,89,,,,,2024-07-29 08:04:06
148,sberbank/76042338235,СберБанк,"Ходынский бул., 2, Москва",www.sberbank.com,"'mon': 10:00-19:00, 'tue': 10:00-19:00, 'wed': 10:00-19:00, 'thu': 10:00-19:00, 'fri': выходной, 'sat': 12:00-16:00, 'sun': выходной, ",55.789254,37.538080,"4,4",['8 (800) 555-55-50Показать телефон'],"['http://ok.ru/sberbank', 'https://t.me/sberbank', 'https://vk.com/sberbank']",78,61,,90,,,,,,2024-07-29 08:04:06
149,sberbank/172015505206,Сбербанк России,"Новоясеневский просп., 7, Москва",www.sberbank.com,"'mon': 10:00-22:00, 'tue': 10:00-22:00, 'wed': 10:00-22:00, 'thu': 10:00-22:00, 'fri': 10:00-22:00, 'sat': 10:00-21:00, 'sun': 10:00-20:00, ",55.607489,37.532367,"4,4",['8 (800) 555-55-50Показать телефон'],"['http://ok.ru/sberbank', 'https://vk.com/sberbank']",72,32,38,96,79,,,,,2024-07-29 08:04:06
150,sberbank/185450832194,СберБанк,"ул. Госпитальный Вал, 18/1, Москва",www.sberbank.com,"'mon': 09:00-18:30, 'tue': 09:00-18:30, 'wed': 09:00-18:30, 'thu': 09:00-18:30, 'fri': 09:00-18:30, 'sat': 10:00-15:00, 'sun': выходной, ",55.773196,37.710988,"4,4",['8 (800) 555-55-50Показать телефон'],"['https://ok.ru/sberbank', 'https://vk.com/sberbank']",84,55,51,96,55,,,,,2024-07-29 08:04:06
151,sberbank/1056987568,СберБанк,"ул. Гурьянова, 55, Москва",www.sberbank.com,"'mon': 09:00-19:00, 'tue': 09:00-19:00, 'wed': 09:00-19:00, 'thu': 09:00-19:00, 'fri': 09:00-19:00, 'sat': выходной, 'sun': выходной, ",55.680423,37.717070,"4,6",['8 (800) 555-55-50Показать телефон'],"['http://ok.ru/sberbank', 'https://vk.com/sberbank']",80,71,62,95,73,60,,,,2024-07-29 08:04:06
152,sberbank/1072367573,СберБанк,"Зеленодольская ул., 22/14, Москва",www.sberbank.com,"'mon': 09:00-19:00, 'tue': 09:00-19:00, 'wed': 09:00-19:00, 'thu': 09:00-19:00, 'fri': 09:00-19:00, 'sat': 10:00-16:00, 'sun': выходной, ",55.712432,37.777041,"4,5",['8 (800) 555-55-50Показать телефон'],"['https://ok.ru/sberbank', 'https://t.me/sberbank', 'https://vk.com/sberbank']",83,71,62,93,70,,,,,2024-07-29 08:04:06
153,sberbank/1120097305,СберБанк,"ул. Яблочкова, 21А, Москва",www.sberbank.com,"'mon': выходной, 'tue': выходной, 'wed': выходной, 'thu': выходной, 'fri': выходной, 'sat': выходной, 'sun': выходной, ",55.819494,37.578271,"4,5",['8 (800) 555-55-50Показать телефон'],"['https://ok.ru/sberbank', 'https://vk.com/sberbank']",86,77,78,80,65,,,,,2024-07-29 08:04:06
154,sberbank/1123781527,СберБанк,"ул. Нижняя Масловка, 14, Москва",www.sberbank.com,"'mon': 09:30-19:30, 'tue': 09:30-19:30, 'wed': 09:30-19:30, 'thu': 09:30-19:30, 'fri': 09:30-19:30, 'sat': 11:00-15:00, 'sun': выходной, ",55.792093,37.575972,"4,4",['8 (800) 555-55-50Показать телефон'],"['https://ok.ru/sberbank', 'https://vk.com/sberbank']",79,67,46,63,,,,,,2024-07-29 08:04:06
155,sberbank/1093766360,СберБанк,"ул. Намёткина, 11, Москва",www.sberbank.com,"'mon': 09:00-19:00, 'tue': 09:00-19:00, 'wed': 09:00-19:00, 'thu': 09:00-19:00, 'fri': 09:00-19:00, 'sat': 09:00-15:00, 'sun': выходной, ",55.663157,37.553649,"4,4",['8 (800) 555-55-50Показать телефон'],"['https://ok.ru/sber/', 'https://vk.com/sberbank']",85,79,79,95,,,,,,2024-07-29 08:04:06
156,sberbank/76541561557,СберБанк,"Вешняковская ул., 18А, Москва",www.sberbank.com,"'mon': выходной, 'tue': выходной, 'wed': выходной, 'thu': выходной, 'fri': выходной, 'sat': выходной, 'sun': выходной, ",55.723389,37.825182,"4,6",['8 (800) 555-55-50Показать телефон'],"['http://ok.ru/sberbank', 'https://vk.com/sberbank']",79,76,66,79,,,,,,2024-07-29 08:04:06
157,sberbank/1120408681,СберБанк,"Вешняковская ул., 24Б, Москва",www.sberbank.com,"'mon': 09:00-19:30, 'tue': 09:00-19:30, 'wed': 09:00-19:30, 'thu': 09:00-19:30, 'fri': 09:00-19:30, 'sat': 09:30-16:30, 'sun': выходной, ",55.720307,37.817564,"4,5",['8 (800) 555-55-50Показать телефон'],"['http://ok.ru/sberbank', 'https://vk.com/sberbank']",79,70,78,88,92,,,,,2024-07-29 08:04:06
158,sberbank/1050604603,СберБанк,"Ленинский просп., 89/2, Москва",www.sberbank.com,"'mon': 09:00-19:30, 'tue': 09:00-19:30, 'wed': 09:00-19:30, 'thu': 09:00-19:30, 'fri': 09:00-19:30, 'sat': 10:00-17:00, 'sun': выходной, ",55.677936,37.531631,"4,5",['8 (800) 555-55-50Показать телефон'],"['http://ok.ru/sberbank', 'https://vk.com/sberbank']",77,61,47,100,30,,,,,2024-07-29 08:04:06
159,sberbank/54944782791,Сбербанк,"Старокачаловская ул., 5А, Москва",www.sberbank.com,"'mon': 10:00-20:00, 'tue': 10:00-20:00, 'wed': 10:00-20:00, 'thu': 10:00-20:00, 'fri': 10:00-20:00, 'sat': 10:00-18:00, 'sun': 10:00-15:00, ",55.569851,37.579053,"4,9",['8 (800) 555-55-50Показать телефон'],['https://vk.com/sberbank'],86,67,72,85,82,,,,,2024-07-29 08:04:06
160,sberbank/1102193377,СберБанк,"Саянская ул., 18, Москва",www.sberbank.com,"'mon': 08:30-19:30, 'tue': 08:30-19:30, 'wed': 08:30-19:30, 'thu': 08:30-19:30, 'fri': 08:30-19:30, 'sat': 09:30-17:30, 'sun': выходной, ",55.766917,37.834327,"4,8",['8 (800) 555-55-50Показать телефон'],"['http://ok.ru/sberbank', 'https://vk.com/sberbank']",83,81,88,93,89,30,87,,,2024-07-29 08:04:06
161,sberbank/1092471023,СберБанк,"Днепропетровская ул., 3, корп. 5А, Москва",www.sberbank.com,"'mon': 09:00-19:00, 'tue': 09:00-19:00, 'wed': 09:00-19:00, 'thu': 09:00-19:00, 'fri': 09:00-19:00, 'sat': 09:00-16:30, 'sun': выходной, ",55.622014,37.601457,"4,4",['8 (800) 555-55-50Показать телефон'],"['http://ok.ru/sberbank', 'https://vk.com/sberbank']",71,67,71,76,60,,,,,2024-07-29 08:04:06
162,sberbank/1028158103,СберБанк,"Огородный пр., 19, Москва",www.sberbank.com,"'mon': 09:00-19:30, 'tue': 09:00-19:30, 'wed': 09:00-19:30, 'thu': 09:00-19:30, 'fri': 09:00-19:30, 'sat': 10:00-14:00, 'sun': выходной, ",55.816040,37.597405,"4,3",['8 (800) 555-55-50Показать телефон'],"['https://ok.ru/sberbank', 'https://vk.com/sberbank']",84,66,39,100,64,,,,,2024-07-29 08:04:06
163,sberbank/1021880068,СберБанк,"Вешняковская ул., 12Б, стр. 1, Москва",www.sberbank.com,"'mon': 09:30-19:00, 'tue': 09:30-19:00, 'wed': 09:30-19:00, 'thu': 09:30-19:00, 'fri': 09:30-19:00, 'sat': 09:30-16:00, 'sun': выходной, ",55.734785,37.825541,"4,6",['8 (800) 555-55-50Показать телефон'],"['http://ok.ru/sberbank', 'https://vk.com/sberbank']",87,64,56,84,91,,,,,2024-07-29 08:04:06
164,sberbank/1020705043,СберБанк,"Тимирязевская ул., 10/12, Москва",www.sberbank.com,"'mon': 09:00-19:00, 'tue': 09:00-19:00, 'wed': 09:00-19:00, 'thu': 09:00-19:00, 'fri': 09:00-19:00, 'sat': 09:00-16:30, 'sun': выходной, ",55.812110,37.568147,"4,4",['8 (800) 555-55-50Показать телефон'],"['https://ok.ru/sberbank', 'https://vk.com/sberbank']",81,59,55,92,,,92,,,2024-07-29 08:04:06
165,sberbank/1017488654,СберБанк,"ул. Барклая, 16, корп. 1, Москва",www.sberbank.com,"'mon': 09:00-19:30, 'tue': 09:00-19:30, 'wed': 09:00-19:30, 'thu': 09:00-19:30, 'fri': 09:00-19:30, 'sat': 09:00-16:30, 'sun': выходной, ",55.745864,37.496623,"4,5",['8 (800) 555-55-50Показать телефон'],"['http://ok.ru/sberbank', 'https://t.me/Sber_Business_Live_bot', 'https://vk.com/careersber']",83,66,75,100,56,,97,,,2024-07-29 08:04:06
166,sberbank/1040859940,СберБанк,"ул. Академика Миллионщикова, 19, Москва",www.sberbank.com,"'mon': 10:00-19:00, 'tue': 10:00-19:00, 'wed': 10:00-19:00, 'thu': 10:00-19:00, 'fri': 10:00-19:00, 'sat': 10:30-16:30, 'sun': выходной, ",55.668341,37.648609,"4,4",['8 (800) 555-55-50Показать телефон'],"['https://ok.ru/sberbank', 'https://vk.com/sberbank']",88,81,48,100,20,,,,,2024-07-29 08:04:06
167,sberbank/1105986943,СберБанк,"просп. Маршала Жукова, 44, Москва",www.sberbank.com,"'mon': 08:30-19:30, 'tue': 08:30-19:30, 'wed': 08:30-19:30, 'thu': 08:30-19:30, 'fri': 08:30-19:30, 'sat': 09:00-16:30, 'sun': выходной, ",55.777307,37.467060,"4,4",['8 (800) 555-55-50Показать телефон'],"['https://ok.ru/sberbank', 'https://vk.com/sberbank']",81,69,80,95,73,43,31,,,2024-07-29 08:04:06
168,sberbank/1085479428,СберБанк,"Шипиловская ул., 32, Москва",www.sberbank.com,"'mon': 09:30-19:00, 'tue': 09:30-19:00, 'wed': выходной, 'thu': 09:30-19:00, 'fri': 09:30-19:00, 'sat': 10:00-16:00, 'sun': выходной, ",55.619879,37.719028,"4,7",['8 (800) 555-55-50Показать телефон'],"['http://ok.ru/sberbank', 'https://vk.com/sberbank']",88,78,59,97,48,,,,,2024-07-29 08:04:06
169,sberbank/182076831605,СберБанк,"Ясеневая ул., 26, Москва",www.sberbank.com,"'mon': 08:30-19:30, 'tue': 08:30-19:30, 'wed': 08:30-19:30, 'thu': 08:30-19:30, 'fri': 08:30-19:30, 'sat': 09:00-17:00, 'sun': выходной, ",55.603930,37.735955,"4,8",['8 (800) 555-55-50Показать телефон'],"['https://ok.ru/sberbank', 'https://vk.com/sberbank']",87,80,88,88,93,,88,,,2024-07-29 08:04:06
170,sberbank/1074903265,СберБанк,"Россошанская ул., 3, корп. 1А, стр. 2, Москва",www.sberbank.com,"'mon': выходной, 'tue': выходной, 'wed': выходной, 'thu': выходной, 'fri': выходной, 'sat': выходной, 'sun': выходной, ",55.595211,37.607232,"4,7",['8 (800) 555-55-50Показать телефон'],"['https://ok.ru/sberbank', 'https://t.me/sberbank', 'https://vk.com/sberbank']",90,70,73,93,77,,,,,2024-07-29 08:04:06
171,sberbank/1067092228,СберБанк,"Фестивальная ул., 2Б, Москва",www.sberbank.com,"'mon': 10:00-21:00, 'tue': 10:00-21:00, 'wed': 10:00-21:00, 'thu': 09:30-20:00, 'fri': 10:00-21:00, 'sat': 10:00-18:00, 'sun': 10:00-18:00, ",55.855083,37.478091,"4,5",['8 (800) 555-55-50Показать телефон'],"['https://ok.ru/sber/', 'https://t.me/sberbank', 'https://vk.com/sberbank']",78,52,75,86,87,,,,,2024-07-29 08:04:06
172,sberbank/1010197748,СберБанк,"Измайловский бул., 38, Москва",www.sberbank.com,"'mon': 09:00-19:30, 'tue': 09:00-19:30, 'wed': 09:00-19:30, 'thu': 09:00-19:30, 'fri': 09:00-19:30, 'sat': 10:00-17:00, 'sun': выходной, ",55.796405,37.800757,"4,5",['8 (800) 555-55-50Показать телефон'],"['http://ok.ru/sberbank', 'https://vk.com/sberbank']",85,75,70,87,,,,,,2024-07-29 08:04:06
173,sberbank/1188897310,СберБанк,"ул. Генерала Кузнецова, 28, корп. 1, Москва",www.sberbank.com,"'mon': выходной, 'tue': выходной, 'wed': выходной, 'thu': выходной, 'fri': выходной, 'sat': выходной, 'sun': выходной, ",55.683052,37.852015,"4,6",['8 (800) 555-55-50Показать телефон'],"['https://ok.ru/sberbank', 'https://vk.com/sberbank']",84,62,65,97,50,,,,,2024-07-29 08:04:06
174,sberbank/1141089392,СберБанк,"Никулинская ул., 25, Москва",www.sberbank.com,"'mon': 08:30-20:00, 'tue': 08:30-20:00, 'wed': 08:30-20:00, 'thu': 08:30-20:00, 'fri': 08:30-20:00, 'sat': 10:00-16:00, 'sun': выходной, ",55.669630,37.453181,"4,6",['8 (800) 555-55-50Показать телефон'],"['https://ok.ru/sberbank', 'https://t.me/sberbank', 'https://vk.com/sberbank']",77,64,81,91,74,67,75,75,,2024-07-29 08:04:06
175,sberbank/1232723322,СберБанк,"Большая Черкизовская ул., 5, корп. 1, Москва",www.sberbank.com,"'mon': 09:00-19:30, 'tue': 09:00-19:30, 'wed': 09:00-19:30, 'thu': 09:00-19:30, 'fri': 09:00-19:30, 'sat': 09:30-16:30, 'sun': выходной, ",55.797483,37.720690,"4,3",['8 (800) 555-55-50Показать телефон'],"['http://ok.ru/sberbank', 'https://vk.com/sberbank']",65,33,21,86,,,,,,2024-07-29 08:04:06
176,sberbank/1771193961,СберБанк,"ул. Хачатуряна, 18А, Москва",www.sberbank.com,"'mon': 08:30-20:30, 'tue': 08:30-20:30, 'wed': 08:30-20:30, 'thu': 08:30-20:30, 'fri': 08:30-20:30, 'sat': 09:00-16:30, 'sun': 09:30-15:30, ",55.861297,37.603729,"4,6",['8 (800) 555-55-50Показать телефон'],"['https://ok.ru/sber/', 'https://vk.com/sberbank']",77,64,84,96,90,,,,,2024-07-29 08:04:06
177,sberbank/121176118798,СберБанк,"Рождественская ул., 31, Москва",www.sberbank.com,"'mon': 09:00-20:00, 'tue': 09:00-20:00, 'wed': 09:00-20:00, 'thu': 09:00-20:00, 'fri': 09:00-20:00, 'sat': 10:00-17:00, 'sun': 10:00-15:00, ",55.705919,37.931731,"4,8",['8 (800) 555-55-50Показать телефон'],"['https://ok.ru/sberbank', 'https://vk.com/sberbank']",85,66,50,81,87,33,,,,2024-07-29 08:04:06
178,sberbank/1086967085,СберБанк,"Дмитровское ш., 64, корп. 2, Москва",www.sberbank.ru,"'mon': 09:00-20:00, 'tue': 09:00-20:00, 'wed': 09:00-20:00, 'thu': 09:00-20:00, 'fri': 09:00-20:00, 'sat': 09:00-17:00, 'sun': выходной, ",55.855809,37.562644,"4,7",['8 (800) 555-55-50Показать телефон'],"['https://ok.ru/sberbank', 'https://t.me/sberbank', 'https://vk.com/sberbank']",80,73,83,93,86,,,,,2024-07-29 08:04:06
179,sberbank/1396706379,СберБанк,"1-я Мясниковская ул., 2, Москва",www.sberbank.com,"'mon': 09:30-20:00, 'tue': 09:30-20:00, 'wed': 09:30-20:00, 'thu': 09:30-20:00, 'fri': 09:30-20:00, 'sat': 10:00-17:00, 'sun': выходной, ",55.816480,37.702167,"4,5",['8 (800) 555-55-50Показать телефон'],"['http://ok.ru/sberbank', 'https://t.me/Sber_Business_Live_bot', 'https://vk.com/careersber']",78,59,43,100,73,,,,,2024-07-29 08:04:06
180,sberbank/1026766377,СберБанк,"Юбилейный просп., 24/7, Реутов",www.sberbank.com,"'mon': 09:00-20:00, 'tue': 09:00-20:00, 'wed': 09:00-20:00, 'thu': 09:00-20:00, 'fri': 09:00-20:00, 'sat': 09:00-16:00, 'sun': выходной, ",55.749179,37.862949,"4,6",['8 (800) 555-55-50Показать телефон'],"['https://ok.ru/sberbank', 'https://vk.com/sberbank']",75,57,58,93,58,,,,,2024-07-29 08:04:06
181,sberbank/1026848141,СберБанк,"Ленинский просп., 82, Москва",,"'mon': выходной, 'tue': выходной, 'wed': выходной, 'thu': выходной, 'fri': выходной, 'sat': выходной, 'sun': выходной, ",55.681184,37.534065,"4,3",['8 (800) 555-55-50Показать телефон'],"['http://ok.ru/sberbank', 'https://vk.com/sberbank']",83,66,72,92,55,,,,,2024-07-29 08:04:06
182,sberbank/1055613851,СберБанк,"Озёрная ул., 10, Москва",www.sberbank.com,"'mon': 08:30-20:00, 'tue': 08:30-20:00, 'wed': 08:30-20:00, 'thu': 08:30-20:00, 'fri': 08:30-20:00, 'sat': 09:00-16:00, 'sun': выходной, ",55.681291,37.458579,"4,6",['8 (800) 555-55-50Показать телефон'],"['https://ok.ru/sberbank', 'https://vk.com/sberbank']",74,64,61,79,74,,61,,,2024-07-29 08:04:06
183,sberbank/1118725368,СберБанк,"Петровско-Разумовский пр., 24, корп. 2, Москва",www.sberbank.com,"'mon': 09:30-18:30, 'tue': 09:30-18:30, 'wed': 09:30-18:30, 'thu': 09:30-18:30, 'fri': 09:30-18:30, 'sat': выходной, 'sun': выходной, ",55.801931,37.565084,"4,4",['8 (800) 555-55-50Показать телефон'],"['https://ok.ru/sberbank', 'https://vk.com/sberbank']",78,59,46,93,28,,,,,2024-07-29 08:04:06
184,sberbank/1001688437,Сбербанк России,"Старопетровский пр., 1, стр. 2, Москва",www.sberbank.com,"'mon': 10:00-19:30, 'tue': 10:00-19:30, 'wed': 10:00-19:30, 'thu': 10:00-19:30, 'fri': 10:00-19:30, 'sat': 11:00-16:00, 'sun': выходной, ",55.823707,37.500423,"4,3",['8 (800) 555-55-50Показать телефон'],"['http://ok.ru/sberbank', 'https://vk.com/sberbank']",79,59,80,95,,,,,,2024-07-29 08:04:06
185,sberbank/1104414157,СберБанк,"ул. Академика Челомея, 4Б, Москва",www.sberbank.com,"'mon': 10:00-19:00, 'tue': 10:00-19:00, 'wed': 10:00-19:00, 'thu': 10:00-19:00, 'fri': 10:00-19:00, 'sat': выходной, 'sun': выходной, ",55.662390,37.533607,"4,5",['8 (800) 555-55-50Показать телефон'],"['http://ok.ru/sberbank', 'https://vk.com/sberbank']",90,79,79,96,44,,,,,2024-07-29 08:04:06
186,sberbank/1071704305,Сбербанк России,"Щукинская ул., 42, Москва",www.sberbank.com,"'mon': 10:00-20:00, 'tue': 10:00-20:00, 'wed': 10:00-20:00, 'thu': 10:00-20:00, 'fri': 10:00-20:00, 'sat': 11:00-17:00, 'sun': выходной, ",55.809474,37.464572,"4,6",['8 (800) 555-55-50Показать телефон'],"['https://ok.ru/sber/', 'https://vk.com/sberbank']",72,45,53,91,74,,,,,2024-07-29 08:04:06
187,sberbank/1138765115,СберБанк,"ул. Бажова, 24, корп. 2, Москва",www.sberbank.com,"'mon': 09:00-19:00, 'tue': 09:00-19:00, 'wed': 09:00-19:00, 'thu': 09:00-19:00, 'fri': 09:00-19:00, 'sat': 09:30-15:30, 'sun': выходной, ",55.836428,37.665534,"4,5",['8 (800) 555-55-50Показать телефон'],"['http://ok.ru/sberbank', 'https://vk.com/sberbank']",85,61,69,92,58,,,,,2024-07-29 08:04:06
188,sberbank/1101504261,СберБанк,"Славянский бул., 3, Москва",www.sberbank.com,"'mon': 08:30-19:30, 'tue': 08:30-19:30, 'wed': 08:30-19:30, 'thu': 08:30-19:30, 'fri': 08:30-19:30, 'sat': 10:00-16:00, 'sun': выходной, ",55.726989,37.473698,"4,3",['8 (800) 555-55-50Показать телефон'],"['http://ok.ru/sberbank', 'https://vk.com/sberbank']",71,61,46,81,,,90,,,2024-07-29 08:04:06
189,sberbank/32413334408,СберБанк,"Лесная ул., 20, стр. 1, Москва",www.sberbank.com,"'mon': 09:00-20:00, 'tue': 09:00-20:00, 'wed': 09:00-20:00, 'thu': 09:00-20:00, 'fri': 09:00-20:00, 'sat': 10:00-18:00, 'sun': выходной, ",55.780522,37.592132,"4,1",['8 (800) 555-55-50Показать телефон'],"['http://ok.ru/sberbank', 'https://vk.com/sberbank']",62,83,,,,,,,,2024-07-29 08:04:06
190,sberbank/1053709661,СберБанк,"Славянский бул., 15, Москва",www.sberbank.com,"'mon': 09:30-19:00, 'tue': 09:30-19:00, 'wed': 09:30-19:00, 'thu': 09:30-19:00, 'fri': 09:30-19:00, 'sat': 10:00-14:00, 'sun': выходной, ",55.725189,37.461931,"4,4",['8 (800) 555-55-50Показать телефон'],"['http://ok.ru/sberbank', 'https://vk.com/sberbank']",79,58,59,91,73,,,,,2024-07-29 08:04:06
191,sberbank/1082557054,СберБанк,"Нахимовский просп., 25А, Москва",www.sberbank.com,"'mon': 09:00-20:00, 'tue': 09:00-20:00, 'wed': 09:00-20:00, 'thu': 09:00-20:00, 'fri': 09:00-20:00, 'sat': 09:30-17:30, 'sun': выходной, ",55.667858,37.589976,,['8 (800) 555-55-50Показать телефон'],"['https://ok.ru/sberbank', 'https://vk.com/sberbank']",80,50,10,100,4,,,,,2024-07-29 08:04:06
192,sberbank/1102239925,СберБанк,"ул. Миклухо-Маклая, 55, Москва",www.sberbank.com,"'mon': 08:30-19:30, 'tue': 08:30-19:30, 'wed': 08:30-19:30, 'thu': 08:30-19:30, 'fri': 08:30-19:30, 'sat': 09:00-16:00, 'sun': выходной, ",55.641254,37.533086,"4,6",['8 (800) 555-55-50Показать телефон'],"['http://ok.ru/sberbank', 'https://vk.com/sberbank']",88,69,65,100,67,,,,,2024-07-29 08:04:06
193,sberbank/1644852143,Сбербанк России,"Кустанайская ул., 6, Москва",www.sberbank.com,"'mon': 09:30-19:30, 'tue': 09:30-19:30, 'wed': 09:30-19:30, 'thu': 09:30-19:30, 'fri': 09:30-19:30, 'sat': 10:00-17:00, 'sun': 10:00-16:00, ",55.619574,37.752158,"4,7",['8 (800) 555-55-50Показать телефон'],"['http://ok.ru/sberbank', 'https://vk.com/sberbank']",80,55,83,89,,,90,,,2024-07-29 08:04:06
194,sberbank/100043815591,СберБанк,"Кастанаевская ул., 54, корп. 3, Москва",www.sberbank.com,"'mon': 10:00-19:30, 'tue': 10:00-19:30, 'wed': 10:00-19:30, 'thu': 10:00-19:30, 'fri': 10:00-19:30, 'sat': 10:00-17:30, 'sun': выходной, ",55.735576,37.467797,"4,4",['8 (800) 555-55-50Показать телефон'],"['https://ok.ru/sberbank', 'https://vk.com/sberbank']",78,71,62,88,21,,,,,2024-07-29 08:04:06
195,sberbank/1052296229,СберБанк,"ул. Адмирала Макарова, 45, Москва",www.sberbank.com,"'mon': 08:30-20:00, 'tue': 08:30-20:00, 'wed': 08:30-20:00, 'thu': 08:30-20:00, 'fri': 08:30-20:00, 'sat': 09:00-16:00, 'sun': выходной, ",55.839011,37.485690,"4,4",['8 (800) 555-55-50Показать телефон'],"['https://ok.ru/sber/', 'https://t.me/sberbank', 'https://vk.com/sberbank']",75,78,86,76,64,,,,,2024-07-29 08:04:06
196,sberbank/1254022466,СберБанк,"Дмитровское ш., 29, корп. 1, Москва",www.sberbank.com,"'mon': 09:00-19:30, 'tue': 09:00-19:30, 'wed': 09:00-19:30, 'thu': 09:00-19:30, 'fri': 09:00-19:30, 'sat': 09:30-16:30, 'sun': выходной, ",55.828051,37.571965,"4,4",['8 (800) 555-55-50Показать телефон'],"['https://ok.ru/sber/', 'https://t.me/sberbank', 'https://vk.com/sberbank']",83,71,64,96,54,,,,,2024-07-29 08:04:06
197,sberbank/84941437349,СберБанк,"Бирюлёвская ул., 37, корп. 1, Москва",www.sberbank.com,"'mon': 08:30-19:30, 'tue': 08:30-19:30, 'wed': 08:30-19:30, 'thu': 08:30-19:30, 'fri': 08:30-19:30, 'sat': 09:30-16:00, 'sun': выходной, ",55.588654,37.665309,"4,7",['8 (800) 555-55-50Показать телефон'],"['http://ok.ru/sberbank', 'https://vk.com/sberbank']",82,71,61,89,78,,,,,2024-07-29 08:04:06
198,sberbank/194871878014,СберБанк,"Открытое ш., 17, стр. 13, Москва",www.sberbank.com,"'mon': 08:30-19:00, 'tue': 08:30-19:00, 'wed': 08:30-19:00, 'thu': 08:30-19:00, 'fri': 08:30-19:00, 'sat': выходной, 'sun': выходной, ",55.822766,37.753864,"4,6",['8 (800) 555-55-50Показать телефон'],"['http://ok.ru/sberbank', 'https://vk.com/sberbank']",82,57,48,87,44,,,,,2024-07-29 08:04:06
199,sberbank/97140927564,СберБанк,"Череповецкая ул., 20, Москва",www.sberbank.com,"'mon': 08:30-20:00, 'tue': 08:30-20:00, 'wed': 08:30-20:00, 'thu': 08:30-20:00, 'fri': 08:30-20:00, 'sat': 09:00-17:00, 'sun': 10:00-15:00, ",55.897630,37.581047,"4,7",['8 (800) 555-55-50Показать телефон'],"['https://ok.ru/sberbank', 'https://vk.com/sberbank']",78,75,69,86,79,62,,76,,2024-07-29 08:04:06
200,sberbank/1065604418,СберБанк,"Сиреневый бул., 53, Москва",www.sberbank.com,"'mon': 08:30-20:00, 'tue': 08:30-20:00, 'wed': 08:30-20:00, 'thu': 08:30-20:00, 'fri': 08:30-20:00, 'sat': 09:30-18:00, 'sun': выходной, ",55.803631,37.814394,"4,5",['8 (800) 555-55-50Показать телефон'],"['https://ok.ru/sberbank', 'https://t.me/sberbank', 'https://vk.com/sberbank']",76,59,67,86,83,,,,,2024-07-29 08:04:06
201,sberbank/1089958194,СберБанк,"ул. Борисовские Пруды, 12, корп. 1, Москва",www.sberbank.com,"'mon': 10:30-20:00, 'tue': 10:30-20:00, 'wed': 10:30-20:00, 'thu': 10:30-20:00, 'fri': 10:30-20:00, 'sat': 11:00-17:00, 'sun': выходной, ",55.636011,37.742447,"4,7",['8 (800) 555-55-50Показать телефон'],"['http://ok.ru/sberbank', 'https://vk.com/sberbank']",87,63,78,100,32,,,,,2024-07-29 08:04:06
202,sberbank/108849696717,СберБанк,"Ореховый бул., 22А, Москва",www.sberbank.com,"'mon': 10:00-19:30, 'tue': 10:00-19:30, 'wed': 10:00-19:30, 'thu': 10:00-19:30, 'fri': 10:00-19:30, 'sat': 10:00-19:00, 'sun': 10:00-19:00, ",55.612045,37.732719,"4,4",['8 (800) 555-55-50Показать телефон'],"['https://ok.ru/sberbank', 'https://vk.com/sberbank']",66,51,,100,,,,,,2024-07-29 08:04:06
203,sberbank/1077445172,СберБанк,"Первомайская ул., 106А, Москва",www.sberbank.com,"'mon': 09:00-19:30, 'tue': 09:00-19:30, 'wed': 09:00-19:30, 'thu': 09:00-19:30, 'fri': 09:00-19:30, 'sat': 10:00-17:00, 'sun': выходной, ",55.793222,37.813172,"4,6",['8 (800) 555-55-50Показать телефон'],"['http://ok.ru/sberbank', 'https://vk.com/sberbank']",85,73,69,94,,,90,,,2024-07-29 08:04:06
204,sberbank/1017459268,СберБанк,"Домодедовская ул., 28, Москва",www.sberbank.com,"'mon': 09:00-19:30, 'tue': 09:00-19:30, 'wed': 09:00-19:30, 'thu': 09:00-19:30, 'fri': 09:00-19:30, 'sat': 09:00-16:00, 'sun': выходной, ",55.604927,37.712760,"4,4",['8 (800) 555-55-50Показать телефон'],"['https://ok.ru/sberbank', 'https://vk.com/sberbank']",75,56,29,60,4,,,,5,2024-07-29 08:04:06
205,sberbank/1021171198,СберБанк,"ул. Дубки, 2А, Москва",www.sberbank.com,"'mon': 09:00-19:00, 'tue': 09:00-19:00, 'wed': 09:00-19:00, 'thu': 09:00-19:00, 'fri': 09:00-19:00, 'sat': 10:00-16:00, 'sun': выходной, ",55.817335,37.569261,"4,4",['8 (800) 555-55-50Показать телефон'],"['https://ok.ru/sberbank', 'https://vk.com/sberbank']",74,64,40,94,25,,,,,2024-07-29 08:04:06
206,sberbank/1212799575,СберБанк,"Ташкентская ул., 9, Москва",www.sberbank.com,"'mon': 09:00-19:00, 'tue': 09:00-19:00, 'wed': 09:00-19:00, 'thu': 09:00-19:00, 'fri': 09:00-19:00, 'sat': 10:00-16:00, 'sun': выходной, ",55.708227,37.819253,"4,5",['8 (800) 555-55-50Показать телефон'],"['https://ok.ru/sberbank', 'https://vk.com/sberbank']",84,69,72,90,83,,,,,2024-07-29 08:04:06
207,sberbank/89186739078,СберБанк,"просп. Вернадского, 97, корп. 1, Москва",www.sberbank.com,"'mon': 10:00-19:30, 'tue': 10:00-19:30, 'wed': 10:00-19:30, 'thu': 10:00-19:30, 'fri': 10:00-19:30, 'sat': выходной, 'sun': выходной, ",55.667158,37.491386,"4,5",['8 (800) 555-55-50Показать телефон'],"['https://ok.ru/sberbank', 'https://vk.com/sberbank']",92,88,90,94,,,,,,2024-07-29 08:04:06
208,sberbank/1700496759,СберБанк,"Сиреневый бул., 29/45к3, Москва",www.sberbank.com,"'mon': 09:00-19:30, 'tue': 09:00-19:30, 'wed': 09:00-19:30, 'thu': 09:00-19:30, 'fri': 09:00-19:30, 'sat': 09:30-16:00, 'sun': выходной, ",55.803459,37.798224,"4,4",['8 (800) 555-55-50Показать телефон'],"['http://ok.ru/sberbank', 'https://t.me/sberbank', 'https://vk.com/bankdruzey']",78,58,50,87,82,,,,20,2024-07-29 08:04:06
209,sberbank/1137208987,СберБанк,"ул. Красного Маяка, 1, корп. 1, Москва",www.sberbank.com,"'mon': 08:30-19:30, 'tue': 08:30-19:30, 'wed': 08:30-19:30, 'thu': 08:30-19:30, 'fri': 08:30-19:30, 'sat': 09:00-17:00, 'sun': выходной, ",55.610794,37.600558,"4,5",['8 (800) 555-55-50Показать телефон'],"['https://ok.ru/sber/', 'https://t.me/sberbank', 'https://vk.com/sberbank']",88,69,56,94,,,,,,2024-07-29 08:04:06
210,sberbank/1020792492,СберБанк,"ул. Удальцова, 32, стр. 2, Москва",www.sberbank.com,"'mon': 09:00-19:00, 'tue': 09:00-19:00, 'wed': 09:00-19:00, 'thu': 09:00-19:00, 'fri': 09:00-19:00, 'sat': выходной, 'sun': выходной, ",55.681854,37.493236,"4,4",['8 (800) 555-55-50Показать телефон'],"['http://ok.ru/sberbank', 'https://vk.com/sberbank']",83,76,59,92,37,,,,,2024-07-29 08:04:06
211,sberbank/1020792492,СберБанк,"ул. Удальцова, 32, стр. 2, Москва",www.sberbank.com,"'mon': 09:00-19:00, 'tue': 09:00-19:00, 'wed': 09:00-19:00, 'thu': 09:00-19:00, 'fri': 09:00-19:00, 'sat': выходной, 'sun': выходной, ",55.681854,37.493236,"4,4",['8 (800) 555-55-50Показать телефон'],"['http://ok.ru/sberbank', 'https://vk.com/sberbank']",83,76,59,92,37,,,,,2024-07-29 08:04:06
212,sberbank/240876996528,СберБанк,"Шипиловский пр., 39, корп. 1, Москва",www.sberbank.com,"'mon': 09:30-19:30, 'tue': 09:30-19:30, 'wed': 09:30-19:30, 'thu': 09:30-19:30, 'fri': 09:30-19:30, 'sat': 09:30-17:00, 'sun': выходной, ",55.611308,37.696741,"4,6",['8 (800) 555-55-50Показать телефон'],"['http://ok.ru/sberbank', 'https://vk.com/sberbank']",83,77,87,94,65,,70,,,2024-07-29 08:04:06
213,sberbank/1073759529,СберБанк,"Большая Академическая ул., 15, корп. 1, Москва",www.sberbank.com,"'mon': 10:00-19:30, 'tue': 10:00-19:30, 'wed': 10:00-19:30, 'thu': 10:00-19:30, 'fri': 10:00-19:30, 'sat': 10:00-16:30, 'sun': выходной, ",55.822979,37.526734,"4,5",['8 (800) 555-55-50Показать телефон'],"['http://ok.ru/sberbank', 'https://vk.com/sberbank']",85,85,78,96,73,,77,,,2024-07-29 08:04:06
214,sberbank/1025767099,СберБанк,"Старокачаловская ул., 1, корп. 1, Москва",www.sberbank.com,"'mon': 09:00-19:00, 'tue': 09:00-19:00, 'wed': 09:00-19:00, 'thu': 09:00-19:00, 'fri': 09:00-19:00, 'sat': 09:00-15:00, 'sun': выходной, ",55.568314,37.587640,"4,7",['8 (800) 555-55-50Показать телефон'],"['https://ok.ru/sber/', 'https://t.me/sberbank', 'https://vk.com/sberbank']",77,66,63,80,50,64,,81,,2024-07-29 08:04:06
215,sberbank/1109033786,СберБанк,"ул. Алабяна, 13, корп. 1, Москва",www.sberbank.com,"'mon': 09:30-19:00, 'tue': 09:30-19:00, 'wed': 09:30-19:00, 'thu': 09:30-19:00, 'fri': 09:30-19:00, 'sat': 09:30-15:30, 'sun': выходной, ",55.799887,37.506118,"4,5",['8 (800) 555-55-50Показать телефон'],"['http://ok.ru/sberbank', 'https://vk.com/sberbank']",81,62,74,90,67,,,,,2024-07-29 08:04:06
216,sberbank/1031770839,СберБанк,"ул. Академика Бакулева, 2, Москва",www.sberbank.com,"'mon': 09:00-19:00, 'tue': 09:00-19:00, 'wed': 09:00-19:00, 'thu': 09:00-19:00, 'fri': 09:00-19:00, 'sat': 10:00-16:00, 'sun': выходной, ",55.644156,37.487891,"4,3",['8 (800) 555-55-50Показать телефон'],"['https://ok.ru/sberbank', 'https://vk.com/sberbank']",83,65,61,100,,,64,,,2024-07-29 08:04:06
217,sberbank/1014326311,Сбербанк,"Осенний бул., 12, Москва",www.sberbank.com,"'mon': 10:00-20:00, 'tue': 10:00-20:00, 'wed': 10:00-20:00, 'thu': 10:00-20:00, 'fri': 10:00-20:00, 'sat': 10:00-19:30, 'sun': 10:00-18:30, ",55.759238,37.409253,"4,4",['8 (800) 555-55-50Показать телефон'],"['http://ok.ru/sberbank', 'https://vk.com/sberbank']",73,58,60,94,67,,,,,2024-07-29 08:04:06
218,sberbank/96350421766,СберБанк,"Снежная ул., 13, корп. 1, Москва",www.sberbank.com,"'mon': 09:00-19:30, 'tue': 09:00-19:30, 'wed': 09:00-19:30, 'thu': 09:00-19:30, 'fri': 09:00-19:30, 'sat': 09:30-17:30, 'sun': выходной, ",55.852203,37.645617,"4,5",['8 (800) 555-55-50Показать телефон'],"['http://ok.ru/sberbank', 'https://t.me/sber_students_bot', 'https://vk.com/sberbank']",79,62,70,100,,,,,,2024-07-29 08:04:06
219,sberbank/1000217841,СберБанк,"Дмитровское ш., 98С, Москва",www.sberbank.com,"'mon': 09:00-20:00, 'tue': 09:00-20:00, 'wed': 09:00-20:00, 'thu': 09:00-20:00, 'fri': 09:00-20:00, 'sat': 09:30-17:30, 'sun': 09:30-16:30, ",55.879258,37.547090,"4,7",['8 (800) 555-55-50Показать телефон'],"['http://ok.ru/sberbank', 'https://vk.com/sberbank']",85,83,86,87,78,,64,,,2024-07-29 08:04:06
220,sberbank/87918851510,СберБанк,"Просторная ул., 8, Москва",www.sberbank.com,"'mon': 09:00-19:00, 'tue': 09:00-19:00, 'wed': 09:00-19:00, 'thu': 09:00-19:00, 'fri': 09:00-19:00, 'sat': выходной, 'sun': выходной, ",55.804693,37.717699,"4,6",['8 (800) 555-55-50Показать телефон'],"['https://ok.ru/sberbank', 'https://vk.com/sberbank']",85,62,48,100,67,,,,,2024-07-29 08:04:06
221,sberbank/1041863881,СберБанк,"Ярославское ш., 28, Москва",www.sberbank.com,"'mon': 09:00-19:30, 'tue': 09:00-19:30, 'wed': 09:00-19:30, 'thu': 09:00-19:30, 'fri': 09:00-19:30, 'sat': 09:30-16:00, 'sun': выходной, ",55.861205,37.694400,"4,5",['8 (800) 555-55-50Показать телефон'],"['http://ok.ru/sberbank', 'https://vk.com/sberbank']",75,70,61,69,,,85,,,2024-07-29 08:04:06
222,sberbank/1262351001,СберБанк,"Бирюлёвская ул., 55, корп. 1, стр. 2, Москва",www.sberbank.com,"'mon': 09:00-19:30, 'tue': 09:00-19:30, 'wed': 09:00-19:30, 'thu': 09:00-19:30, 'fri': 09:00-19:30, 'sat': 09:30-16:30, 'sun': выходной, ",55.583363,37.677014,"4,6",['8 (800) 555-55-50Показать телефон'],"['http://ok.ru/sberbank', 'https://vk.com/sberbank']",86,61,70,93,91,,,,,2024-07-29 08:04:06
223,sberbank/1094675240,СберБанк,"Большая Марфинская ул., 6, Москва",www.sberbank.com,"'mon': 09:00-19:30, 'tue': 09:00-19:30, 'wed': 09:00-19:30, 'thu': 09:00-19:30, 'fri': 09:00-19:30, 'sat': 09:30-17:00, 'sun': выходной, ",55.832076,37.592761,"4,5",['8 (800) 555-55-50Показать телефон'],"['https://ok.ru/sberbank', 'https://vk.com/sberbank']",82,74,60,100,70,,80,,,2024-07-29 08:04:06
224,sberbank/217379276094,СберБанк,"Литовский бул., 20, Москва",www.sberbank.com,"'mon': 08:30-19:00, 'tue': 08:30-19:00, 'wed': 08:30-19:00, 'thu': 08:30-19:00, 'fri': 08:30-19:00, 'sat': 09:30-16:00, 'sun': выходной, ",55.612625,37.536140,"4,6",['8 (800) 555-55-50Показать телефон'],"['https://ok.ru/sber/', 'https://t.me/sberbank', 'https://vk.com/sberbank']",76,72,67,93,75,67,,78,,2024-07-29 08:04:06
225,sberbank/6193269325,СберБанк,"Дубнинская ул., 16, корп. 1, Москва",www.sberbank.com,"'mon': 08:30-19:30, 'tue': 08:30-19:30, 'wed': 08:30-19:30, 'thu': 08:30-19:30, 'fri': 08:30-19:30, 'sat': 09:00-17:30, 'sun': выходной, ",55.868834,37.562919,"4,6",['8 (800) 555-55-50Показать телефон'],"['https://ok.ru/sberbank', 'https://vk.com/sberbank']",74,47,49,88,39,,,,,2024-07-29 08:04:06
226,sberbank/1065514172,СберБанк,"Ташкентская ул., 12/20, Москва",www.sberbank.com,"'mon': 09:00-19:00, 'tue': 09:00-19:00, 'wed': 09:00-19:00, 'thu': 09:00-19:00, 'fri': 09:00-19:00, 'sat': 10:00-16:00, 'sun': выходной, ",55.704895,37.816379,"4,4",['8 (800) 555-55-50Показать телефон'],"['http://ok.ru/sberbank', 'https://vk.com/sberbank']",75,45,47,92,,,,,,2024-07-29 08:04:06
227,sberbank/1006493872,СберБанк,"Коровинское ш., 5, корп. 1, Москва",www.sberbank.com,"'mon': выходной, 'tue': выходной, 'wed': выходной, 'thu': выходной, 'fri': выходной, 'sat': выходной, 'sun': выходной, ",55.866678,37.540228,"4,7",['8 (800) 555-55-50Показать телефон'],"['https://ok.ru/sber/', 'https://vk.com/sberbank']",80,66,69,93,50,,,,,2024-07-29 08:04:06
228,sberbank/1194899803,СберБанк,"2-й Покровский пр., 2, Котельники",www.sberbank.com,"'mon': 09:00-20:00, 'tue': 09:00-20:00, 'wed': 09:00-20:00, 'thu': 09:00-20:00, 'fri': 09:00-20:00, 'sat': 10:00-14:00, 'sun': выходной, ",55.659251,37.855941,"4,6",['8 (800) 555-55-50Показать телефон'],"['https://ok.ru/sberbank', 'https://vk.com/sberbank']",75,55,26,81,55,,,,,2024-07-29 08:04:06
229,sberbank/1623855727,СберБанк,"Строгинский бул., 22, Москва",www.sberbank.com,"'mon': 09:00-20:00, 'tue': 09:00-20:00, 'wed': 09:00-20:00, 'thu': 09:00-20:00, 'fri': 09:00-20:00, 'sat': 09:30-17:00, 'sun': выходной, ",55.802963,37.402938,"4,5",['8 (800) 555-55-50Показать телефон'],"['http://ok.ru/sberbank', 'https://t.me/sberbank', 'https://vk.com/sberbank']",77,55,50,89,,,,,,2024-07-29 08:04:06
230,sberbank/1158376490,СберБанк,"Красноармейская ул., 8, Люберцы",www.sberbank.com,"'mon': 09:00-19:00, 'tue': 09:00-19:00, 'wed': 09:00-19:00, 'thu': 09:00-19:00, 'fri': 09:00-19:00, 'sat': 10:00-16:00, 'sun': выходной, ",55.678763,37.888405,"4,4",['8 (800) 555-55-50Показать телефон'],"['http://ok.ru/sberbank', 'https://vk.com/sberbank']",64,52,18,,,59,,63,,2024-07-29 08:04:06
231,sberbank/105644001647,СберБанк,"Комсомольская ул., 15А, Люберцы",www.sberbank.com,"'mon': 09:00-19:00, 'tue': 09:00-19:00, 'wed': 09:00-19:00, 'thu': 09:00-19:00, 'fri': 09:00-19:00, 'sat': 09:30-16:30, 'sun': выходной, ",55.677118,37.882243,"4,8",['8 (800) 555-55-50Показать телефон'],"['https://ok.ru/sberbank', 'https://t.me/sberbank', 'https://vk.com/sberbank']",79,67,45,87,47,,80,,,2024-07-29 08:04:06
232,sberbank/1086573383,СберБанк,"Михалковская ул., 24, Москва",www.sberbank.com,"'mon': 09:00-19:30, 'tue': 09:00-19:30, 'wed': 09:00-19:30, 'thu': 09:00-19:30, 'fri': 09:00-19:30, 'sat': 09:30-17:30, 'sun': выходной, ",55.839845,37.528109,"4,4",['8 (800) 555-55-50Показать телефон'],"['https://ok.ru/sberbank', 'https://t.me/sberbank', 'https://vk.com/sberbank']",85,58,64,88,,,100,,,2024-07-29 08:04:06
233,sberbank/1101057062,СберБанк,"бул. Адмирала Ушакова, 5, Москва",www.sberbank.com,"'mon': 08:30-20:00, 'tue': 08:30-20:00, 'wed': 08:30-20:00, 'thu': 08:30-20:00, 'fri': 08:30-20:00, 'sat': 09:00-17:00, 'sun': 09:00-15:00, ",55.546914,37.552633,"4,7",['8 (800) 555-55-50Показать телефон'],"['https://ok.ru/sberbank', 'https://vk.com/sberbank']",79,70,87,98,93,,,,,2024-07-29 08:04:06
234,sberbank/1082012063,СберБанк,"ул. Побратимов, 7, Люберцы",www.sberbank.com,"'mon': 10:00-21:00, 'tue': 10:00-21:00, 'wed': 10:00-21:00, 'thu': 10:00-21:00, 'fri': 10:00-21:00, 'sat': 10:00-20:00, 'sun': 10:00-20:00, ",55.692115,37.896401,"4,8",['8 (800) 555-55-50Показать телефон'],"['https://ok.ru/sberbank', 'https://vk.com/sberbank']",79,66,77,94,93,,,,,2024-07-29 08:04:06
235,sberbank/1029356705,СберБанк,"Вяземская ул., 4, Москва",www.sberbank.com,"'mon': 09:00-19:30, 'tue': 09:00-19:30, 'wed': 09:00-19:30, 'thu': 09:00-19:30, 'fri': 09:00-19:30, 'sat': 09:30-16:00, 'sun': выходной, ",55.714420,37.402713,"4,4",['8 (800) 555-55-50Показать телефон'],"['https://ok.ru/sberbank', 'https://vk.com/sberbank']",73,56,56,86,67,31,,,,2024-07-29 08:04:06
236,sberbank/1101473489,СберБанк,"Чертановская ул., 32А, Москва",www.sberbank.com,"'mon': выходной, 'tue': выходной, 'wed': выходной, 'thu': 09:00-19:00, 'fri': 09:00-19:00, 'sat': 09:00-16:00, 'sun': выходной, ",55.617836,37.592491,"4,6",['8 (800) 555-55-50Показать телефон'],"['http://ok.ru/sberbank', 'https://t.me/sberbank', 'https://vk.com/sberbank']",88,81,86,97,76,,,,,2024-07-29 08:04:06
237,sberbank/1001697864,СберБанк,"ул. Академика Янгеля, 4, корп. 2, Москва",www.sberbank.com,"'mon': 09:00-19:30, 'tue': 09:00-19:30, 'wed': 09:00-19:30, 'thu': 09:00-19:30, 'fri': 09:00-19:30, 'sat': 09:00-17:00, 'sun': выходной, ",55.596046,37.593794,"4,5",['8 (800) 555-55-50Показать телефон'],"['http://ok.ru/sberbank', 'https://t.me/sberbank', 'https://vk.com/sberbank']",81,59,58,95,82,,,,,2024-07-29 08:04:06
238,sberbank/170452199018,СберБанк,"Ярославское ш., 54, Москва",,"'mon': выходной, 'tue': выходной, 'wed': выходной, 'thu': выходной, 'fri': выходной, 'sat': выходной, 'sun': выходной, ",55.866212,37.705244,"4,3",['8 (800) 555-55-50Показать телефон'],"['http://ok.ru/sberbank', 'https://t.me/sberbank', 'https://vk.com/sberbank']",72,47,58,100,,,,,,2024-07-29 08:04:06
239,sberbank/1012146630,СберБанк,"Енисейская ул., 29, Москва",www.sberbank.com,"'mon': 08:30-19:30, 'tue': 08:30-19:30, 'wed': 08:30-19:30, 'thu': 08:30-19:30, 'fri': 08:30-19:30, 'sat': 09:30-16:00, 'sun': 09:30-17:30, ",55.872915,37.664572,"4,4",['8 (800) 555-55-50Показать телефон'],"['http://ok.ru/sberbank', 'https://vk.com/sberbank']",67,55,57,73,76,20,,,,2024-07-29 08:04:06
240,sberbank/1152730247,СберБанк,"Новокосинская ул., 36Б, Москва",www.sberbank.com,"'mon': 08:30-19:30, 'tue': 08:30-19:30, 'wed': 08:30-19:30, 'thu': 08:30-19:30, 'fri': 08:30-19:30, 'sat': 09:00-16:00, 'sun': выходной, ",55.742377,37.869451,"4,6",['8 (800) 555-55-50Показать телефон'],"['http://ok.ru/sberbank', 'https://vk.com/sberbank']",88,69,65,97,,,,,,2024-07-29 08:04:06
241,sberbank/1051222684,СберБанк,"Ореховый пр., 9, Москва",www.sberbank.com,"'mon': 09:00-19:00, 'tue': 09:00-19:00, 'wed': 09:00-19:00, 'thu': 09:00-19:00, 'fri': 09:00-19:00, 'sat': 09:00-17:00, 'sun': выходной, ",55.626091,37.735988,"4,7",['8 (800) 555-55-50Показать телефон'],"['http://ok.ru/sberbank', 'https://t.me/sberbank', 'https://vk.com/sberbank']",79,76,89,88,73,,,,,2024-07-29 08:04:06
242,sberbank/1133736123,СберБанк,"ул. Кирова, 9, Реутов",www.sberbank.com,"'mon': выходной, 'tue': 09:00-18:00, 'wed': 09:00-18:00, 'thu': 09:00-18:00, 'fri': 09:00-18:00, 'sat': 09:00-18:00, 'sun': выходной, ",55.757810,37.851314,"4,7",['8 (800) 555-55-50Показать телефон'],"['https://ok.ru/sber/', 'https://vk.com/careersber']",86,67,38,81,64,45,,50,,2024-07-29 08:04:06
243,sberbank/52904631303,Сбербанк России,"Варшавское ш., 160, Москва",www.sberbank.com,"'mon': 10:00-19:00, 'tue': 10:00-19:00, 'wed': 10:00-19:00, 'thu': 10:00-19:00, 'fri': 10:00-19:00, 'sat': выходной, 'sun': выходной, ",55.582991,37.595249,"4,6",['8 (800) 555-55-50Показать телефон'],"['http://ok.ru/sberbank', 'https://vk.com/sberbank']",88,70,52,88,0,,,,,2024-07-29 08:04:06
244,sberbank/1053742849,СберБанк,"ул. Дмитриевского, 21, Москва",www.sberbank.ru,"'mon': 10:00-19:00, 'tue': 10:00-19:00, 'wed': 10:00-19:00, 'thu': 10:00-19:00, 'fri': 10:00-19:00, 'sat': 10:00-14:00, 'sun': выходной, ",55.709406,37.894732,"4,7",['8 (800) 555-55-50Показать телефон'],"['http://ok.ru/sberbank', 'https://vk.com/sberbank']",85,77,81,92,80,,,,,2024-07-29 08:04:06
245,sberbank/1221636534,СберБанк,"Большая Черкизовская ул., 22, корп. 1, Москва",www.sberbank.com,"'mon': 10:00-18:30, 'tue': 10:00-18:30, 'wed': 10:00-18:30, 'thu': 10:00-18:30, 'fri': 10:00-18:30, 'sat': выходной, 'sun': выходной, ",55.798617,37.735342,"4,4",['8 (800) 555-55-50Показать телефон'],"['https://ok.ru/sber/', 'https://t.me/sberbank', 'https://vk.com/sberbank']",84,40,20,82,11,,,,,2024-07-29 08:04:06
246,sberbank/1040950472,СберБанк,"Липецкая ул., 2А, Москва",www.sberbank.com,"'mon': 09:30-19:00, 'tue': 09:30-19:00, 'wed': 09:30-19:00, 'thu': 09:30-19:00, 'fri': 09:30-19:00, 'sat': 09:30-15:30, 'sun': выходной, ",55.601137,37.669792,"4,3",['8 (800) 555-55-50Показать телефон'],"['http://ok.ru/sberbank', 'https://vk.com/sberbank']",84,70,48,84,30,,,,,2024-07-29 08:04:06
247,sberbank/88737904817,СберБанк,"Солнцевский просп., 2, стр. 3, Москва",www.sberbank.com,"'mon': 08:30-19:30, 'tue': 08:30-19:30, 'wed': 08:30-19:30, 'thu': 08:30-19:30, 'fri': 08:30-19:30, 'sat': 09:00-17:00, 'sun': выходной, ",55.652624,37.396946,"4,6",['8 (800) 555-55-50Показать телефон'],"['https://ok.ru/sberbank', 'https://vk.com/sberbank']",89,67,86,96,,,80,,,2024-07-29 08:04:06
248,sberbank/1032013243,СберБанк,"Широкая ул., 12, Москва",www.sberbank.com,"'mon': 09:00-20:30, 'tue': 09:00-20:30, 'wed': 09:00-20:30, 'thu': 09:00-20:30, 'fri': 09:00-20:30, 'sat': 09:30-17:30, 'sun': 10:30-17:00, ",55.886731,37.659470,"4,4",['8 (800) 555-55-50Показать телефон'],"['http://ok.ru/sberbank', 'https://vk.com/sberbank']",76,51,43,88,80,36,,,,2024-07-29 08:04:06
249,sberbank/1252784550,СберБанк,"ул. Александры Монаховой, 5, корп. 2, посёлок Коммунарка",www.sberbank.com,"'mon': 09:00-20:00, 'tue': 09:00-20:00, 'wed': 09:00-20:00, 'thu': 09:00-20:00, 'fri': 09:00-20:00, 'sat': 09:00-18:00, 'sun': выходной, ",55.575414,37.473258,"4,6",['8 (800) 555-55-50Показать телефон'],"['https://ok.ru/sberbank', 'https://t.me/sberbank', 'https://vk.com/sberbank']",86,60,55,54,74,,,,,2024-07-29 08:04:06
250,sberbank/1000083696,СберБанк,"МКАД, 47-й километр, с20, Москва",www.sberbank.com,"'mon': 10:00-21:00, 'tue': 10:00-21:00, 'wed': 10:00-21:00, 'thu': 10:00-21:00, 'fri': 10:00-21:00, 'sat': 10:00-21:00, 'sun': 10:00-21:00, ",55.658764,37.429986,"4,4",['8 (800) 555-55-50Показать телефон'],"['https://ok.ru/sberbank', 'https://vk.com/sberbank']",87,45,46,82,95,,,,,2024-07-29 08:04:06
251,sberbank/1236881705,СберБанк,"Живописная ул., 6, корп. 1, Москва",www.sberbank.com,"'mon': 09:30-19:00, 'tue': 09:30-19:00, 'wed': 09:30-19:00, 'thu': 09:30-19:00, 'fri': выходной, 'sat': 10:00-16:00, 'sun': выходной, ",55.781874,37.457043,"4,6",['8 (800) 555-55-50Показать телефон'],"['https://ok.ru/sberbank', 'https://vk.com/sberbank']",84,61,81,98,65,,,,,2024-07-29 08:04:06
252,sberbank/1087586769,СберБанк,"Новочеркасский бул., 46, Москва",www.sberbank.com,"'mon': 08:30-19:30, 'tue': 08:30-19:30, 'wed': 08:30-19:30, 'thu': 08:30-19:30, 'fri': 08:30-19:30, 'sat': 10:00-15:00, 'sun': выходной, ",55.646701,37.740632,"4,4",['8 (800) 555-55-50Показать телефон'],"['http://ok.ru/sberbank', 'https://vk.com/sberbank']",86,78,73,93,,,,,,2024-07-29 08:04:06
253,sberbank/138363271928,СберБанк,"ул. Мичуринский Проспект, Олимпийская Деревня, 3, Москва",www.sberbank.com,"'mon': 09:00-19:30, 'tue': 09:00-19:30, 'wed': 09:00-19:30, 'thu': 09:00-19:30, 'fri': 09:00-19:30, 'sat': 09:00-16:30, 'sun': выходной, ",55.675986,37.466719,"4,3",['8 (800) 555-55-50Показать телефон'],"['http://ok.ru/sberbank', 'https://vk.com/sberbank']",80,62,25,88,17,,,,,2024-07-29 08:04:06
254,sberbank/106674492978,СберБанк,"Октябрьский просп., 9, Люберцы",www.sberbank.com,"'mon': 09:30-19:00, 'tue': 09:30-19:00, 'wed': 09:30-19:00, 'thu': 09:30-19:00, 'fri': 09:30-19:00, 'sat': 10:00-14:00, 'sun': выходной, ",55.696220,37.861708,"4,5",['8 (800) 555-55-50Показать телефон'],"['https://ok.ru/sberbank', 'https://t.me/sberbank', 'https://vk.com/sberbank']",75,66,57,91,67,,,,,2024-07-29 08:04:06
