,ID,name,address,website,opening_hours,lat,lon,rating,phone,social,Персонал,Время ожидания,Банкомат,Ремонт,Расположение,График работы,Доступность,Кредит,Ипотека,load_time
0,sberbank/1056287893,СберБанк,"ул. Лефортовский Вал, 16А, Москва",www.sberbank.com,"'mon': 09:00-20:00, 'tue': 09:00-20:00, 'wed': 09:00-20:00, 'thu': 09:00-20:00, 'fri': 09:00-20:00, 'sat': 09:00-16:00, 'sun': выходной",55.759572,37.701259,"4,7",['8 (800) 555-55-50Показать телефон'],"['http://ok.ru/sberbank', 'https://vk.com/sberbank']",85,84,85,95,89,82,,,,2024-10-03 11:47:03
1,sberbank/1041408503,СберБанк,"2-я Новорублёвская ул., 1, посёлок Рублёво",www.sberbank.com,"'mon': выходной, 'tue': 09:30-19:00, 'wed': 09:30-19:00, 'thu': 09:30-19:00, 'fri': 09:30-19:00, 'sat': 09:30-14:15, 'sun': выходной",55.785109,37.357609,"4,0",['8 (800) 555-55-50Показать телефон'],"['http://ok.ru/sberbank', 'https://vk.com/sberbank']",60,43,0,,,6,,,,2024-10-03 11:47:03
2,sberbank/1017459268,СберБанк,"Домодедовская ул., 28, Москва",www.sberbank.com,"'mon': 09:00-19:30, 'tue': 09:00-19:30, 'wed': 09:00-19:30, 'thu': 09:00-19:30, 'fri': 09:00-19:30, 'sat': 09:00-16:00, 'sun': выходной",55.604758,37.712345,"4,4",['8 (800) 555-55-50Показать телефон'],"['https://ok.ru/sberbank', 'https://vk.com/sberbank']",75,57,30,,60,4,7,,,2024-10-03 11:47:03
3,sberbank/1053371321,СберБанк,"ул. Академика Виноградова, 1, Москва",www.sberbank.com,"'mon': 09:00-19:00, 'tue': 09:00-19:00, 'wed': 09:00-19:00, 'thu': 09:00-19:00, 'fri': 09:00-19:00, 'sat': 09:00-15:30, 'sun': выходной",55.631793,37.482969,"4,5",['8 (800) 555-55-50Показать телефон'],"['http://ok.ru/sberbank', 'https://vk.com/sberbank']",75,68,85,,100,74,,,,2024-10-03 11:47:03
4,sberbank/1247944515,СберБанк,"ул. Веры Волошиной, 12, Мытищи",www.sberbank.com,"'mon': 10:00-19:00, 'tue': 10:00-19:00, 'wed': 10:00-19:00, 'thu': 10:00-19:00, 'fri': 10:00-19:00, 'sat': 10:00-16:00, 'sun': выходной",55.893061,37.725397,"4,6",['8 (800) 555-55-50Показать телефон'],"['http://ok.ru/sberbank', 'https://vk.com/sberbank']",77,61,56,,91,63,,,,2024-10-03 11:47:03
5,sberbank/1028158103,СберБанк,"Огородный пр., 19, Москва",www.sberbank.com,"'mon': 09:00-19:30, 'tue': 09:00-19:30, 'wed': 09:00-19:30, 'thu': 09:00-19:30, 'fri': 09:00-19:30, 'sat': 10:00-14:00, 'sun': выходной",55.816040,37.597405,"4,4",['8 (800) 555-55-50Показать телефон'],"['https://ok.ru/sberbank', 'https://vk.com/sberbank']",83,67,43,,100,67,,,,2024-10-03 11:47:03
6,sberbank/1145373091,СберБанк,"Котельники, микрорайон Южный, 8",www.sberbank.com,"'mon': 09:00-18:00, 'tue': 09:00-18:00, 'wed': 09:00-18:00, 'thu': 09:00-18:00, 'fri': 09:00-18:00, 'sat': выходной, 'sun': выходной",55.646747,37.860720,"4,3",['8 (800) 555-55-50Показать телефон'],"['http://ok.ru/sberbank', 'https://vk.com/sberbank']",60,47,29,,,,,,,2024-10-03 11:47:03
7,sberbank/1107699905,СберБанк,"Волгоградский просп., 63, Москва",www.sberbank.com,"'mon': 09:30-19:30, 'tue': 09:30-19:30, 'wed': 09:30-19:30, 'thu': 09:30-19:30, 'fri': 09:30-19:30, 'sat': 10:30-16:00, 'sun': выходной",55.709957,37.735378,"4,4",['8 (800) 555-55-50Показать телефон'],"['https://ok.ru/sber', 'https://t.me/sberbank', 'https://vk.com/sberbank']",79,49,46,84,93,85,,,,2024-10-03 11:47:03
8,sberbank/121700461169,СберБанк,"Цветной бул., 2, Москва",www.sberbank.com,"'mon': 09:30-19:30, 'tue': 09:30-19:30, 'wed': 09:30-19:30, 'thu': 09:30-19:30, 'fri': 09:30-19:30, 'sat': 10:30-18:00, 'sun': выходной",55.768026,37.623483,"4,4",['8 (800) 555-55-50Показать телефон'],"['http://ok.ru/sberbank', 'https://t.me/sberbank', 'https://vk.com/sberbank']",62,62,73,,90,,,10,,2024-10-03 11:47:03
9,sberbank/100043815591,СберБанк,"Кастанаевская ул., 54, корп. 3, Москва",www.sberbank.com,"'mon': 10:00-19:30, 'tue': 10:00-19:30, 'wed': 10:00-19:30, 'thu': 10:00-19:30, 'fri': 10:00-19:30, 'sat': 10:00-17:30, 'sun': выходной",55.735576,37.467797,"4,4",['8 (800) 555-55-50Показать телефон'],"['https://ok.ru/sberbank', 'https://vk.com/sberbank']",76,70,62,,88,21,,,,2024-10-03 11:47:03
10,sberbank/1615818147,СберБанк,"Мичуринский просп., 3, Москва",www.sberbank.com,"'mon': 09:00-20:00, 'tue': 09:00-20:00, 'wed': 09:00-20:00, 'thu': 09:00-20:00, 'fri': 09:00-20:00, 'sat': 10:00-16:00, 'sun': выходной",55.704509,37.512838,"4,4",['8 (800) 555-55-50Показать телефон'],"['https://ok.ru/sber/', 'https://t.me/sberbank', 'https://vk.com/sberbank']",75,58,61,64,92,,,,,2024-10-03 11:47:03
11,sberbank/232863277765,СберБанк,"Пятницкое ш., 39, Москва",www.sberbank.com,"'mon': 10:00-20:00, 'tue': 10:00-20:00, 'wed': 10:00-20:00, 'thu': 10:00-20:00, 'fri': 10:00-20:00, 'sat': 10:00-18:00, 'sun': выходной",55.855153,37.355498,"4,6",['8 (800) 555-55-50Показать телефон'],"['http://ok.ru/sberbank', 'https://vk.com/sberbank']",76,64,71,,86,91,,,,2024-10-03 11:47:03
12,sberbank/1324337043,СберБанк,"Московский, 3-й микрорайон, 10А",www.sberbank.com,"'mon': 09:30-19:30, 'tue': 09:30-19:30, 'wed': 09:30-19:30, 'thu': 09:30-19:30, 'fri': 09:30-19:30, 'sat': 09:30-17:00, 'sun': выходной",55.595613,37.342822,"4,8",['8 (800) 555-55-50Показать телефон'],"['https://ok.ru/sberbank', 'https://vk.com/sberbank']",84,56,49,83,86,,,,,2024-10-03 11:47:03
13,sberbank/1089958194,СберБанк,"ул. Борисовские Пруды, 12, корп. 1, Москва",www.sberbank.com,"'mon': 10:30-20:00, 'tue': 10:30-20:00, 'wed': 10:30-20:00, 'thu': 10:30-20:00, 'fri': 10:30-20:00, 'sat': 11:00-17:00, 'sun': выходной",55.636011,37.742447,"4,7",['8 (800) 555-55-50Показать телефон'],"['http://ok.ru/sberbank', 'https://vk.com/sberbank']",87,64,78,,100,37,,,,2024-10-03 11:47:03
14,sberbank/1087586769,СберБанк,"Новочеркасский бул., 46, Москва",www.sberbank.com,"'mon': 08:30-19:30, 'tue': 08:30-19:30, 'wed': 08:30-19:30, 'thu': 08:30-19:30, 'fri': 08:30-19:30, 'sat': 10:00-16:00, 'sun': выходной",55.646701,37.740632,"4,4",['8 (800) 555-55-50Показать телефон'],"['http://ok.ru/sberbank', 'https://vk.com/sberbank']",86,81,73,,93,,,,,2024-10-03 11:47:03
15,sberbank/1001085265,СберБанк,"Советская ул., 2Б, Видное",www.sberbank.com,"'mon': 09:00-18:00, 'tue': 09:00-18:00, 'wed': 09:00-18:00, 'thu': 09:00-18:00, 'fri': 09:00-18:00, 'sat': 09:00-14:30, 'sun': выходной",55.552566,37.700622,"4,7",['8 (800) 555-55-50Показать телефон'],"['https://ok.ru/sberbank', 'https://t.me/sberbank', 'https://vk.com/sberbank']",81,72,59,,96,90,,,,2024-10-03 11:47:03
16,sberbank/1014019410,СберБанк,"Химкинский бул., 21, Москва",www.sberbank.com,"'mon': 09:00-21:00, 'tue': 09:00-21:00, 'wed': 09:00-21:00, 'thu': 09:00-21:00, 'fri': 09:00-21:00, 'sat': 10:00-19:00, 'sun': 10:00-17:00",55.849368,37.443020,"4,5",['8 (800) 555-55-50Показать телефон'],"['https://ok.ru/sberbank', 'https://vk.com/sberbank']",83,67,86,,93,93,,,,2024-10-03 11:47:03
17,sberbank/1072744268,СберБанк,"Таллинская ул., 26, Москва",www.sberbank.com,"'mon': 08:30-19:00, 'tue': 08:30-19:00, 'wed': 08:30-19:00, 'thu': 08:30-19:00, 'fri': 08:30-19:00, 'sat': 09:00-16:00, 'sun': выходной",55.799882,37.407627,"4,4",['8 (800) 555-55-50Показать телефон'],"['https://ok.ru/sber/', 'https://t.me/sberbank', 'https://vk.com/sberbank']",84,73,71,,92,,,,,2024-10-03 11:47:03
18,sberbank/1063013654,СберБанк,"просп. Андропова, 28, корп. 2, Москва",www.sberbank.com,"'mon': 08:30-19:30, 'tue': 08:30-19:30, 'wed': 08:30-19:30, 'thu': 08:30-19:30, 'fri': 08:30-19:30, 'sat': 10:00-17:00, 'sun': 10:00-16:00",55.680159,37.663261,"4,4",['8 (800) 555-55-50Показать телефон'],"['https://ok.ru/sberbank', 'https://t.me/sberbank', 'https://vk.com/sberbank']",77,67,70,,92,83,,,,2024-10-03 11:47:03
19,sberbank/1307325955,СберБанк,"ул. Каховка, 23, Москва",www.sberbank.com,"'mon': 09:30-19:30, 'tue': 09:30-19:30, 'wed': 09:30-19:30, 'thu': 09:30-19:30, 'fri': 09:30-19:30, 'sat': 10:00-16:30, 'sun': выходной",55.654508,37.574525,"4,6",['8 (800) 555-55-50Показать телефон'],"['https://ok.ru/sber/', 'https://t.me/Sber_Business_Live_bot', 'https://vk.com/careersber']",80,65,79,50,84,67,,65,69,2024-10-03 11:47:03
20,sberbank/1026502090,СберБанк,"просп. Ленина, 47, Балашиха",www.sberbank.com,"'mon': 09:00-18:30, 'tue': 09:00-18:30, 'wed': 09:00-18:30, 'thu': 09:00-18:30, 'fri': 09:00-18:30, 'sat': 09:00-15:00, 'sun': выходной",55.797534,37.947344,"4,7",['8 (800) 555-55-50Показать телефон'],"['https://ok.ru/sberbank', 'https://vk.com/sberbank']",74,64,61,,89,53,,81,75,2024-10-03 11:47:03
21,sberbank/1036477749,СберБанк,"ул. Миклухо-Маклая, 17, Москва",www.sberbank.com,"'mon': 09:30-18:30, 'tue': 09:30-18:30, 'wed': 09:30-18:30, 'thu': 09:30-18:30, 'fri': 09:30-18:30, 'sat': выходной, 'sun': выходной",55.651968,37.506136,"4,2",['8 (800) 555-55-50Показать телефон'],"['http://ok.ru/sberbank', 'https://vk.com/sberbank']",71,55,10,,64,,,,,2024-10-03 11:47:03
22,sberbank/90494940753,СберБанк,"Москва, Новомосковский административный округ, район Коммунарка, улица Сервантеса, 1, корп. 3",www.sberbank.com,"'mon': 10:00-19:00, 'tue': 10:00-19:00, 'wed': 10:00-19:00, 'thu': 10:00-19:00, 'fri': 10:00-19:00, 'sat': 10:00-17:00, 'sun': выходной",55.590836,37.451447,"4,9",['8 (800) 555-55-50Показать телефон'],"['https://ok.ru/sberbank', 'https://vk.com/sberbank']",76,70,82,,88,64,,,,2024-10-03 11:47:03
23,sberbank/1235641738,СберБанк,"ул. 40 лет Октября, 15/1, Щербинка",www.sberbank.com,"'mon': 08:30-19:30, 'tue': 08:30-19:30, 'wed': 08:30-19:30, 'thu': 08:30-19:30, 'fri': 08:30-19:30, 'sat': 09:00-16:30, 'sun': выходной",55.512042,37.573663,"4,8",['8 (800) 555-55-50Показать телефон'],"['https://ok.ru/sberbank', 'https://vk.com/sberbank']",89,73,71,,82,68,,,,2024-10-03 11:47:03
24,sberbank/1117013623,СберБанк,"ул. Большая Дмитровка, 21/7, Москва",www.sberbank.com,"'mon': 09:00-20:30, 'tue': 09:00-20:00, 'wed': 09:00-20:30, 'thu': 09:00-20:30, 'fri': 09:00-20:30, 'sat': 09:00-18:00, 'sun': выходной",55.765448,37.610260,"4,2",['8 (800) 555-55-50Показать телефон'],"['http://ok.ru/sberbank', 'http://vk.com/sberbank', 'https://t.me/sberbank']",66,46,27,,93,,,,,2024-10-03 11:47:03
25,sberbank/1011474447,СберБанк,"ул. Сущёвский Вал, 71, Москва",www.sberbank.com,"'mon': 09:00-19:30, 'tue': 09:00-19:30, 'wed': 09:00-19:30, 'thu': 09:00-19:30, 'fri': 09:00-19:30, 'sat': 11:00-16:00, 'sun': выходной",55.793374,37.625810,"4,4",['8 (800) 555-55-50Показать телефон'],"['https://ok.ru/sberbank', 'https://vk.com/sberbank']",83,60,52,,90,73,,,,2024-10-03 11:47:03
26,sberbank/1098772580,СберБанк,"ул. Агрохимиков, 2, рабочий посёлок Новоивановское",www.sberbank.com,"'mon': выходной, 'tue': 09:15-19:00, 'wed': выходной, 'thu': 09:15-19:00, 'fri': 09:15-19:00, 'sat': 09:15-13:00, 'sun': выходной",55.705092,37.365362,"1,1",['8 (800) 555-55-50Показать телефон'],"['https://ok.ru/sberbank', 'https://vk.com/sberbank']",33,20,17,,,3,,,,2024-10-03 11:47:03
27,sberbank/1188897310,СберБанк,"ул. Генерала Кузнецова, 28, корп. 1, Москва",www.sberbank.com,"'mon': выходной, 'tue': выходной, 'wed': выходной, 'thu': выходной, 'fri': выходной, 'sat': выходной, 'sun': выходной",55.683052,37.852015,"4,6",['8 (800) 555-55-50Показать телефон'],"['https://ok.ru/sberbank', 'https://vk.com/sberbank']",84,62,65,,97,50,,,,2024-10-03 11:47:03
28,sberbank/1068586559,СберБанк,"Профсоюзная ул., 104, Москва",www.sberbank.com,"'mon': 09:00-19:30, 'tue': 09:00-19:30, 'wed': 09:00-19:30, 'thu': 09:00-19:30, 'fri': 09:00-19:30, 'sat': 10:00-16:00, 'sun': выходной",55.641920,37.523465,"4,4",['8 (800) 555-55-50Показать телефон'],"['https://ok.ru/sberbank', 'https://vk.com/sberbank']",78,54,77,,90,92,,,,2024-10-03 11:47:03
29,sberbank/1049401511,СберБанк,"ул. Гарибальди, 36, Москва",www.sberbank.com,"'mon': 09:00-18:30, 'tue': 09:00-18:30, 'wed': 09:00-18:30, 'thu': 09:00-18:30, 'fri': 09:00-18:30, 'sat': 09:00-17:00, 'sun': выходной",55.669017,37.559413,"4,4",['8 (800) 555-55-50Показать телефон'],"['https://ok.ru/sberbank', 'https://t.me/sberbank', 'https://vk.com/sberbank']",77,68,57,,78,53,,,,2024-10-03 11:47:03
30,sberbank/1026531495,СберБанк,"Сретенский бул., 4, Москва",www.sberbank.com,"'mon': 10:00-19:30, 'tue': 10:00-19:30, 'wed': 10:00-19:30, 'thu': 10:00-19:30, 'fri': 10:00-19:30, 'sat': выходной, 'sun': выходной",55.766182,37.632116,"4,4",['8 (800) 555-55-50Показать телефон'],"['http://ok.ru/sberbank', 'http://vk.com/sberbank', 'https://t.me/Sber_Business_Live_bot']",75,50,53,,100,,,,,2024-10-03 11:47:03
31,sberbank/1052296229,СберБанк,"ул. Адмирала Макарова, 45, Москва",www.sberbank.com,"'mon': 08:30-20:00, 'tue': 08:30-20:00, 'wed': 08:30-20:00, 'thu': 08:30-20:00, 'fri': 08:30-20:00, 'sat': 09:00-16:00, 'sun': выходной",55.839011,37.485690,"4,4",['8 (800) 555-55-50Показать телефон'],"['https://ok.ru/sber/', 'https://t.me/sberbank', 'https://vk.com/sberbank']",75,78,86,,78,64,,,,2024-10-03 11:47:03
32,sberbank/1096875379,СберБанк,"ул. Пресненский Вал, 6, стр. 2, Москва",www.sberbank.com,"'mon': 10:00-19:30, 'tue': 10:00-19:30, 'wed': 10:00-19:30, 'thu': 10:00-19:30, 'fri': 10:00-19:30, 'sat': 10:00-15:30, 'sun': выходной",55.764526,37.564562,"4,3",['8 (800) 555-55-50Показать телефон'],"['http://ok.ru/sberbank', 'https://t.me/sber_students_bot', 'https://vk.com/sberbank']",84,58,62,,95,,,,,2024-10-03 11:47:03
33,sberbank/1046811405,СберБанк,"Коровинское ш., 20, корп. 1, Москва",www.sberbank.com,"'mon': 09:00-19:30, 'tue': 09:00-19:30, 'wed': 09:00-19:30, 'thu': 09:00-19:30, 'fri': 09:00-19:30, 'sat': 09:30-17:30, 'sun': выходной",55.879556,37.522719,"4,5",['8 (800) 555-55-50Показать телефон'],"['https://ok.ru/sberbank', 'https://vk.com/sberbank']",88,53,45,50,92,,,,,2024-10-03 11:47:03
34,sberbank/1093145815,СберБанк,"Булатниковская ул., 6А, Москва",www.sberbank.com,"'mon': 09:00-20:00, 'tue': 09:00-20:00, 'wed': 09:00-20:00, 'thu': 09:00-20:00, 'fri': 09:00-20:00, 'sat': 09:00-17:00, 'sun': выходной",55.580992,37.644198,"4,6",['8 (800) 555-55-50Показать телефон'],"['http://ok.ru/sberbank', 'https://vk.com/sberbank']",80,57,42,70,88,36,,,,2024-10-03 11:47:03
35,sberbank/1104589509,СберБанк,"ул. Архитектора Власова, 39, Москва",www.sberbank.com,"'mon': 09:00-18:30, 'tue': 09:00-18:30, 'wed': 09:00-18:30, 'thu': 09:00-18:30, 'fri': 09:00-18:30, 'sat': 10:00-14:00, 'sun': выходной",55.668503,37.544108,"4,4",['8 (800) 555-55-50Показать телефон'],['https://vk.com/sberbank'],75,58,25,44,86,9,,,,2024-10-03 11:47:03
36,sberbank/1019587550,СберБанк,"ул. Маршала Федоренко, 7, Москва",www.sberbank.com,"'mon': 09:30-19:00, 'tue': 09:30-19:00, 'wed': 09:30-19:00, 'thu': 09:30-19:00, 'fri': 09:30-19:00, 'sat': 10:00-16:00, 'sun': выходной",55.880342,37.489859,"4,6",['8 (800) 555-55-50Показать телефон'],"['http://ok.ru/sberbank', 'https://t.me/sberbank', 'https://vk.com/sberbank']",86,66,53,,100,21,,,,2024-10-03 11:47:03
37,sberbank/112543181863,СберБанк,"Южная ул., 3, стр. 1, микрорайон Кучино, Балашиха",www.sberbank.com,"'mon': 09:00-18:30, 'tue': 09:00-18:30, 'wed': 09:00-18:30, 'thu': 09:00-18:30, 'fri': 09:00-18:30, 'sat': 09:00-16:30, 'sun': выходной",55.749851,37.952842,"4,3",['8 (800) 555-55-50Показать телефон'],"['http://ok.ru/sberbank', 'https://vk.com/sberbank']",65,21,,,,,,,,2024-10-03 11:47:03
38,sberbank/1058692504,СберБанк,"Можайское ш., 28, Москва",www.sberbank.com,"'mon': 09:00-19:00, 'tue': 09:00-19:00, 'wed': 09:00-19:00, 'thu': 09:00-19:00, 'fri': 09:00-19:00, 'sat': выходной, 'sun': выходной",55.720246,37.421614,"4,4",['8 (800) 555-55-50Показать телефон'],"['http://ok.ru/sberbank', 'https://t.me/sberbank', 'https://vk.com/sberbank']",82,42,21,92,83,20,,,,2024-10-03 11:47:03
39,sberbank/1006645554,СберБанк,"1-я Тверская-Ямская ул., 11, Москва",www.sberbank.com,"'mon': 10:30-19:30, 'tue': 10:30-19:30, 'wed': 10:30-19:30, 'thu': 10:30-19:30, 'fri': 10:30-19:30, 'sat': выходной, 'sun': выходной",55.772639,37.591045,"4,4",['8 (800) 555-55-50Показать телефон'],"['http://ok.ru/sberbank', 'https://vk.com/sberbank']",71,56,74,94,86,53,,,,2024-10-03 11:47:03
40,sberbank/1110022701,СберБанк,"Алтуфьевское ш., 8, Москва",www.sberbank.com,"'mon': 10:30-20:00, 'tue': 10:30-20:00, 'wed': 10:30-20:00, 'thu': 10:30-20:00, 'fri': 10:30-20:00, 'sat': 10:30-17:30, 'sun': выходной",55.852794,37.585853,"4,4",['8 (800) 555-55-50Показать телефон'],"['https://ok.ru/sber/', 'https://vk.com/sber']",81,68,81,,95,,,,,2024-10-03 11:47:03
41,sberbank/182076831605,СберБанк,"Ясеневая ул., 26, Москва",www.sberbank.com,"'mon': 08:30-19:30, 'tue': 08:30-19:30, 'wed': 08:30-19:30, 'thu': 08:30-19:30, 'fri': 08:30-19:30, 'sat': 09:00-17:00, 'sun': выходной",55.603807,37.735817,"4,8",['8 (800) 555-55-50Показать телефон'],"['https://ok.ru/sberbank', 'https://vk.com/sberbank']",88,80,87,88,88,90,,,,2024-10-03 11:47:03
42,sberbank/1091486166,СберБанк,"Рязанский просп., 58/1, Москва",www.sberbank.com,"'mon': 09:00-19:00, 'tue': 09:00-19:00, 'wed': 09:00-19:00, 'thu': 09:00-19:00, 'fri': 09:00-19:00, 'sat': 10:00-15:00, 'sun': выходной",55.715155,37.797478,"4,4",['8 (800) 555-55-50Показать телефон'],"['http://ok.ru/sberbank', 'https://vk.com/sberbank']",83,56,22,,90,,,,,2024-10-03 11:47:03
43,sberbank/1003263702,СберБанк,"Люблинская ул., 38, Москва",www.sberbank.com,"'mon': 09:00-19:00, 'tue': 09:00-19:00, 'wed': 09:00-19:00, 'thu': 09:00-19:00, 'fri': 09:00-19:00, 'sat': 09:30-15:30, 'sun': выходной",55.686608,37.736521,"4,5",['8 (800) 555-55-50Показать телефон'],"['https://ok.ru/sberbank', 'https://vk.com/sberbank', 'https://youtube.com/user/Sberbank']",81,69,67,,70,23,,,,2024-10-03 11:47:03
44,sberbank/1130712814,СберБанк,"Тихвинская ул., 20, Москва",www.sberbank.com,"'mon': 09:30-19:30, 'tue': 09:30-19:30, 'wed': 09:30-19:30, 'thu': 09:30-19:30, 'fri': 09:30-19:30, 'sat': выходной, 'sun': выходной",55.790565,37.600612,"4,4",['8 (800) 555-55-50Показать телефон'],"['https://ok.ru/sberbank', 'https://vk.com/sberbank']",78,65,73,94,88,47,,,,2024-10-03 11:47:03
45,sberbank/1034532827,СберБанк,"Пятницкая ул., 2/38с1, Москва",www.sberbank.com,"'mon': 10:00-19:00, 'tue': 10:00-19:00, 'wed': 10:00-19:00, 'thu': 10:00-19:00, 'fri': 10:00-19:00, 'sat': выходной, 'sun': выходной",55.745524,37.626412,"4,3",['8 (800) 555-55-50Показать телефон'],"['http://ok.ru/sberbank', 'https://t.me/sberbank', 'https://vk.com/sberbank']",75,49,36,,86,21,,,,2024-10-03 11:47:03
46,sberbank/1023265133,СберБанк,"Ленинградское ш., 112/1, Москва",www.sberbank.com,"'mon': 09:00-19:30, 'tue': 09:00-19:30, 'wed': 09:00-19:30, 'thu': 09:00-19:30, 'fri': 09:00-19:30, 'sat': 09:00-16:30, 'sun': выходной",55.863763,37.465551,"4,3",['8 (800) 555-55-50Показать телефон'],"['https://ok.ru/sber/', 'https://vk.com/sberbank']",85,74,70,,97,67,,,,2024-10-03 11:47:03
47,sberbank/1266815996,СберБанк,"Сходненская ул., 9, Москва",www.sberbank.com,"'mon': 09:30-19:00, 'tue': 09:30-19:00, 'wed': 09:30-19:00, 'thu': 09:30-19:00, 'fri': 09:30-19:00, 'sat': 09:30-16:00, 'sun': выходной",55.839486,37.437460,"4,7",['8 (800) 555-55-50Показать телефон'],"['https://ok.ru/sberbank', 'https://vk.com/sberbank']",81,74,54,,69,,,,,2024-10-03 11:47:03
48,sberbank/1158376490,СберБанк,"Красноармейская ул., 8, Люберцы",www.sberbank.com,"'mon': 09:00-19:00, 'tue': 09:00-19:00, 'wed': 09:00-19:00, 'thu': 09:00-19:00, 'fri': 09:00-19:00, 'sat': 10:00-16:00, 'sun': выходной",55.678763,37.888405,"4,4",['8 (800) 555-55-50Показать телефон'],"['http://ok.ru/sberbank', 'https://vk.com/sberbank']",64,53,18,,,,,62,63,2024-10-03 11:47:03
49,sberbank/35018678745,СберБанк,"ул. Красного Маяка, 2Б, Москва",www.sberbank.com,"'mon': 10:30-20:30, 'tue': 10:30-20:30, 'wed': 10:30-20:30, 'thu': 10:30-20:30, 'fri': 10:30-20:30, 'sat': 10:30-19:30, 'sun': 10:30-19:30",55.611119,37.606622,"4,6",['8 (800) 555-55-50Показать телефон'],"['http://ok.ru/sberbank', 'https://t.me/sberbank', 'https://vk.com/sberbank']",76,59,66,,97,80,,,,2024-10-03 11:47:03
50,sberbank/1054108376,СберБанк,"Вокзальная площадь, 2, Мытищи",www.sberbank.com,"'mon': 09:00-19:00, 'tue': 09:00-19:00, 'wed': 09:00-19:00, 'thu': 09:00-19:00, 'fri': 09:00-19:00, 'sat': выходной, 'sun': выходной",55.913308,37.761922,"4,3",['8 (800) 555-55-50Показать телефон'],"['https://ok.ru/sberbank', 'https://vk.com/sberbank']",83,71,17,,92,5,,,,2024-10-03 11:47:03
51,sberbank/1086967085,СберБанк,"Дмитровское ш., 64, корп. 2, Москва",www.sberbank.com,"'mon': 09:00-20:00, 'tue': 09:00-20:00, 'wed': 09:00-20:00, 'thu': 09:00-20:00, 'fri': 09:00-20:00, 'sat': 09:00-17:00, 'sun': выходной",55.855809,37.562644,"4,7",['8 (800) 555-55-50Показать телефон'],"['https://ok.ru/sberbank', 'https://t.me/sberbank', 'https://vk.com/sberbank']",79,73,83,,93,86,,,,2024-10-03 11:47:03
52,sberbank/70412747835,СберБанк,"ул. Генерала Тюленева, 9, Москва",www.sberbank.com,"'mon': 09:00-19:00, 'tue': 09:00-19:00, 'wed': 09:00-19:00, 'thu': 09:00-19:00, 'fri': 09:00-19:00, 'sat': 09:00-16:00, 'sun': выходной",55.624815,37.483238,"4,5",['8 (800) 555-55-50Показать телефон'],"['http://ok.ru/sberbank', 'https://vk.com/sberbank']",79,78,86,,94,,,,,2024-10-03 11:47:03
53,sberbank/1014326311,СберБанк,"Осенний бул., 12, Москва",www.sberbank.com,"'mon': 10:00-20:00, 'tue': 10:00-20:00, 'wed': 10:00-20:00, 'thu': 10:00-20:00, 'fri': 10:00-20:00, 'sat': 10:00-19:30, 'sun': 10:00-18:30",55.759238,37.409253,"4,4",['8 (800) 555-55-50Показать телефон'],"['http://ok.ru/sberbank', 'https://vk.com/sberbank']",72,58,60,,94,64,,,,2024-10-03 11:47:03
54,sberbank/1177691513,СберБанк,"Юбилейная ул., 3, корп. 1, Мытищи",www.sberbank.com,"'mon': 09:00-19:00, 'tue': 09:00-19:00, 'wed': 09:00-19:00, 'thu': 09:00-19:00, 'fri': 09:00-19:00, 'sat': 10:00-15:00, 'sun': выходной",55.915165,37.722720,,['8 (800) 555-55-50Показать телефон'],"['http://ok.ru/sberbank', 'https://vk.com/sberbank']",,,,,,,,,,2024-10-03 11:47:03
55,sberbank/1001697864,СберБанк,"ул. Академика Янгеля, 4, корп. 2, Москва",www.sberbank.com,"'mon': 08:30-19:30, 'tue': 09:00-19:30, 'wed': 08:30-19:30, 'thu': 08:30-19:30, 'fri': 08:30-19:30, 'sat': 09:00-17:00, 'sun': выходной",55.596046,37.593794,"4,5",['8 (800) 555-55-50Показать телефон'],"['http://vk.com/sberbank', 'https://ok.ru/sber/', 'https://t.me/sberbank']",81,58,59,,95,75,,,,2024-10-03 11:47:03
56,sberbank/1228254849,СберБанк,"ул. Грабина, 8Б, Королёв",www.sberbank.com,"'mon': 09:30-18:30, 'tue': 09:30-18:30, 'wed': 09:30-18:30, 'thu': 09:30-18:30, 'fri': 09:30-18:30, 'sat': выходной, 'sun': выходной",55.925808,37.820331,"4,6",['8 (800) 555-55-50Показать телефон'],"['http://ok.ru/sberbank', 'https://vk.com/sberbank']",81,67,50,,93,,,,,2024-10-03 11:47:03
57,sberbank/1102329448,СберБанк,"ул. 50 лет Октября, 11, Москва",www.sberbank.com,"'mon': 09:00-19:30, 'tue': 09:00-19:30, 'wed': 09:00-19:30, 'thu': 09:00-19:30, 'fri': 09:00-19:30, 'sat': 09:00-16:00, 'sun': выходной",55.651689,37.412901,"4,7",['8 (800) 555-55-50Показать телефон'],"['http://ok.ru/sberbank', 'https://vk.com/sberbank']",90,78,72,,96,91,,,,2024-10-03 11:47:03
58,sberbank/1027804850,СберБанк,"Свободный просп., 33, Москва",www.sberbank.com,"'mon': 09:00-20:30, 'tue': 09:00-20:30, 'wed': 09:00-20:30, 'thu': 09:00-20:30, 'fri': 09:00-20:30, 'sat': 09:00-18:30, 'sun': выходной",55.752820,37.819316,"4,4",['8 (800) 555-55-50Показать телефон'],"['http://ok.ru/sberbank', 'https://t.me/sberbank', 'https://vk.com/sberbank']",69,52,41,,84,,,,,2024-10-03 11:47:03
59,sberbank/1092471023,СберБанк,"Днепропетровская ул., 3, корп. 5А, Москва",www.sberbank.com,"'mon': 09:00-19:00, 'tue': 09:00-19:00, 'wed': 09:00-19:00, 'thu': 09:00-19:00, 'fri': 09:00-19:00, 'sat': 09:00-16:30, 'sun': выходной",55.622014,37.601457,"4,4",['8 (800) 555-55-50Показать телефон'],"['http://ok.ru/sberbank', 'https://vk.com/sberbank']",72,67,71,,77,60,,,,2024-10-03 11:47:03
60,sberbank/1086573383,СберБанк,"Михалковская ул., 24, Москва",www.sberbank.com,"'mon': 09:00-19:30, 'tue': 09:00-19:30, 'wed': 09:00-19:30, 'thu': 09:00-19:30, 'fri': 09:00-19:30, 'sat': 09:30-17:30, 'sun': выходной",55.839845,37.528109,"4,4",['8 (800) 555-55-50Показать телефон'],"['https://ok.ru/sberbank', 'https://t.me/sberbank', 'https://vk.com/sberbank']",85,59,66,100,88,,,,,2024-10-03 11:47:03
61,sberbank/1065694292,СберБанк,"просп. Маршала Жукова, 11, корп. 1, Москва",www.sberbank.com,"'mon': 09:00-19:30, 'tue': 09:00-19:30, 'wed': 09:00-19:30, 'thu': 09:00-19:30, 'fri': 09:00-19:30, 'sat': 09:30-15:30, 'sun': выходной",55.775454,37.495680,"4,6",['8 (800) 555-55-50Показать телефон'],"['http://ok.ru/sberbank', 'https://vk.com/sberbank']",75,57,59,,94,57,,,,2024-10-03 11:47:03
62,sberbank/1126238700,СберБанк,"ул. Лихоборские Бугры, 8, Москва",www.sberbank.com,"'mon': 10:00-19:00, 'tue': 10:00-19:00, 'wed': 10:00-19:00, 'thu': 10:00-19:00, 'fri': 10:00-19:00, 'sat': 10:00-16:00, 'sun': выходной",55.843045,37.547710,"4,6",['8 (800) 555-55-50Показать телефон'],"['https://ok.ru/sberbank', 'https://t.me/sberbank', 'https://vk.com/sberbank']",88,77,73,,100,,,,,2024-10-03 11:47:03
63,sberbank/69232606482,СберБанк,"Таганская ул., 1, стр. 1, Москва",www.sberbank.com,"'mon': 10:00-20:00, 'tue': 10:00-20:00, 'wed': 10:00-20:00, 'thu': 10:00-20:00, 'fri': 10:00-20:00, 'sat': 10:00-17:00, 'sun': выходной",55.741784,37.655904,"4,3",['8 (800) 555-55-50Показать телефон'],"['https://ok.ru/sberbank', 'https://t.me/sber_students_bot', 'https://vk.com/sberbank']",70,53,71,,77,,,,,2024-10-03 11:47:03
64,sberbank/1092553132,СберБанк,"ш. Энтузиастов, 12, корп. 2, Москва",www.sberbank.com,"'mon': 10:00-20:30, 'tue': 10:00-20:30, 'wed': 10:00-20:30, 'thu': 10:00-20:30, 'fri': 10:00-20:30, 'sat': 10:00-20:00, 'sun': 10:00-20:00",55.747369,37.707108,"4,4",['8 (800) 555-55-50Показать телефон'],"['https://ok.ru/sberbank', 'https://vk.com/sberbank']",68,56,61,,88,,,,,2024-10-03 11:47:03
65,sberbank/141659955292,СберБанк,"Красноказарменная ул., 23, Москва",www.sberbank.com,"'mon': 09:00-19:30, 'tue': 09:00-19:30, 'wed': 09:00-19:30, 'thu': 09:00-19:30, 'fri': 09:00-19:30, 'sat': 09:00-16:00, 'sun': выходной",55.753615,37.713189,"4,5",['8 (800) 555-55-50Показать телефон'],"['https://ok.ru/sberbank', 'https://vk.com/sberbank']",80,53,84,,93,,,,,2024-10-03 11:47:03
66,sberbank/1001159544,СберБанк,"Ленинский просп., 99, Москва",www.sberbank.com,"'mon': 09:00-19:30, 'tue': 09:00-19:30, 'wed': 09:00-19:30, 'thu': 09:00-19:30, 'fri': 09:00-19:30, 'sat': 09:30-16:00, 'sun': выходной",55.668346,37.518353,"4,5",['8 (800) 555-55-50Показать телефон'],"['https://ok.ru/sberbank', 'https://vk.com/sberbank']",73,66,82,,85,44,,,,2024-10-03 11:47:03
67,sberbank/116580378923,СберБанк,"Советская ул., 6/17, Балашиха",www.sberbank.com,"'mon': 08:30-19:30, 'tue': 08:30-19:30, 'wed': 08:30-19:30, 'thu': 08:30-19:30, 'fri': 08:30-19:30, 'sat': 09:00-16:00, 'sun': выходной",55.797665,37.934839,"4,6",['8 (800) 555-55-50Показать телефон'],"['https://ok.ru/sberbank', 'https://vk.com/sberbank']",72,61,51,,94,,,,,2024-10-03 11:47:03
68,sberbank/1115218846,СберБанк,"ул. 40 лет Победы, 1, Балашиха",www.sberbank.com,"'mon': 09:00-18:00, 'tue': 09:00-18:00, 'wed': 09:00-18:00, 'thu': 09:00-18:00, 'fri': 09:00-18:00, 'sat': выходной, 'sun': выходной",55.814113,37.967556,"4,6",['8 (800) 555-55-50Показать телефон'],"['http://ok.ru/sberbank', 'https://vk.com/sberbank']",85,70,53,,92,9,,,,2024-10-03 11:47:03
69,sberbank/1023606569,СберБанк,"Нижегородская ул., 13Б, Москва",www.sberbank.com,"'mon': 09:30-19:30, 'tue': 09:30-19:30, 'wed': 09:30-19:30, 'thu': 09:30-19:30, 'fri': 09:30-19:30, 'sat': 10:00-15:00, 'sun': выходной",55.737862,37.686806,"4,6",['8 (800) 555-55-50Показать телефон'],"['http://ok.ru/sberbank', 'https://t.me/sberbank', 'https://vk.com/sberbank']",85,74,72,80,90,82,,,,2024-10-03 11:47:03
70,sberbank/1595999674,СберБанк,"Рязанский просп., 69, Москва",www.sberbank.com,"'mon': 08:30-19:30, 'tue': 08:30-19:30, 'wed': 08:30-19:30, 'thu': 08:30-19:30, 'fri': 08:30-19:30, 'sat': 10:00-17:00, 'sun': выходной",55.718806,37.787148,"4,4",['8 (800) 555-55-50Показать телефон'],"['http://ok.ru/sberbank', 'https://vk.com/sberbank']",81,55,47,75,95,,,,,2024-10-03 11:47:03
71,sberbank/1131173418,СберБанк,"Тайнинская ул., 24, Москва",www.sberbank.com,"'mon': 08:30-19:30, 'tue': 08:30-19:30, 'wed': 08:30-19:30, 'thu': 08:30-19:30, 'fri': 08:30-19:30, 'sat': выходной, 'sun': выходной",55.883949,37.687084,"4,6",['8 (800) 555-55-50Показать телефон'],"['http://ok.ru/sberbank', 'https://vk.com/sberbank']",84,72,38,,95,55,,,,2024-10-03 11:47:03
72,sberbank/1057513260,СберБанк,"Смольная ул., 35, стр. 1, Москва",www.sberbank.com,"'mon': 10:00-19:00, 'tue': 10:00-19:00, 'wed': 10:00-19:00, 'thu': 10:00-19:00, 'fri': 10:00-19:00, 'sat': выходной, 'sun': выходной",55.860827,37.481244,"4,6",['8 (800) 555-55-50Показать телефон'],"['http://ok.ru/sberbank', 'https://t.me/sberbank', 'https://vk.com/sberbank']",94,86,53,85,80,35,,,,2024-10-03 11:47:03
73,sberbank/175941416373,СберБанк,"Москва, район Троицк, 5-я Нововатутинская улица, 9",www.sberbank.com,"'mon': 09:00-19:00, 'tue': 09:00-19:00, 'wed': 09:00-19:00, 'thu': 09:00-19:00, 'fri': 09:00-19:00, 'sat': 09:30-15:30, 'sun': выходной",55.516384,37.347368,"4,8",['8 (800) 555-55-50Показать телефон'],"['http://ok.ru/sberbank', 'https://vk.com/sberbank']",79,60,27,,93,36,,,,2024-10-03 11:47:03
74,sberbank/124014009186,СберБанк,"ул. Сретенка, 14, Москва",www.sberbank.com,"'mon': 09:00-19:00, 'tue': 09:00-19:00, 'wed': 09:00-19:00, 'thu': 09:00-19:00, 'fri': 09:00-19:00, 'sat': 10:00-17:00, 'sun': выходной",55.768332,37.632017,"4,4",['8 (800) 555-55-50Показать телефон'],"['https://ok.ru/sber/', 'https://t.me/sberbank', 'https://vk.com/sberbank']",79,73,87,,85,40,,79,82,2024-10-03 11:47:03
75,sberbank/32413334408,СберБанк,"Лесная ул., 20, стр. 1, Москва",www.sberbank.com,"'mon': 09:00-20:00, 'tue': 09:00-20:00, 'wed': 09:00-20:00, 'thu': 09:00-20:00, 'fri': 09:00-20:00, 'sat': 10:00-18:00, 'sun': выходной",55.780522,37.592132,"4,1",['8 (800) 555-55-50Показать телефон'],"['http://ok.ru/sberbank', 'https://vk.com/sberbank']",59,83,,,,,,,,2024-10-03 11:47:03
76,sberbank/1187168806,СберБанк,"ул. Гоголя, 34, рабочий посёлок Томилино",www.sberbank.com,"'mon': выходной, 'tue': 08:45-18:30, 'wed': 08:45-18:30, 'thu': 08:45-18:30, 'fri': 08:45-18:30, 'sat': 09:00-15:15, 'sun': выходной",55.668280,37.953874,"2,3",['8 (800) 555-55-50Показать телефон'],"['https://ok.ru/sberbank', 'https://vk.com/sberbank']",59,12,7,,50,3,,,,2024-10-03 11:47:03
77,sberbank/1123781527,СберБанк,"ул. Нижняя Масловка, 14, Москва",www.sberbank.com,"'mon': 09:30-19:30, 'tue': 09:30-19:30, 'wed': 09:30-19:30, 'thu': 09:30-19:30, 'fri': 09:30-19:30, 'sat': 11:00-15:00, 'sun': выходной",55.792093,37.575972,"4,4",['8 (800) 555-55-50Показать телефон'],"['https://ok.ru/sberbank', 'https://vk.com/sberbank']",80,69,48,,67,30,,,,2024-10-03 11:47:03
78,sberbank/1771193961,СберБанк,"ул. Хачатуряна, 20, Москва",www.sberbank.com,"'mon': 08:30-20:30, 'tue': 08:30-20:30, 'wed': 08:30-20:30, 'thu': 08:30-20:30, 'fri': 08:30-20:30, 'sat': 09:00-16:30, 'sun': 09:30-15:30",55.861333,37.603694,"4,6",['8 (800) 555-55-50Показать телефон'],"['https://ok.ru/sber/', 'https://vk.com/sberbank']",78,64,84,,96,90,,,,2024-10-03 11:47:03
79,sberbank/1223180976,СберБанк,"ул. Воздвиженка, 9, стр. 2, Москва",www.sberbank.com,"'mon': 09:00-19:30, 'tue': 09:00-19:30, 'wed': 09:00-19:30, 'thu': 09:00-19:30, 'fri': 09:00-19:30, 'sat': выходной, 'sun': выходной",55.752648,37.603846,"4,4",['8 (800) 555-55-50Показать телефон'],"['http://ok.ru/sberbank', 'https://vk.com/sberbank']",86,61,89,85,100,,,,,2024-10-03 11:47:03
80,sberbank/1050604603,СберБанк,"Ленинский просп., 89/2, Москва",www.sberbank.com,"'mon': 09:00-19:30, 'tue': 09:00-19:30, 'wed': 09:00-19:30, 'thu': 09:00-19:30, 'fri': 09:00-19:30, 'sat': 10:00-17:00, 'sun': выходной",55.677936,37.531631,"4,5",['8 (800) 555-55-50Показать телефон'],"['http://ok.ru/sberbank', 'https://vk.com/sberbank']",78,59,45,,100,30,,,,2024-10-03 11:47:03
81,sberbank/1130216142,СберБанк,"просп. Мира, 180, Москва",www.sberbank.com,"'mon': 10:00-19:30, 'tue': 10:00-19:30, 'wed': 10:00-19:30, 'thu': 10:00-19:30, 'fri': 10:00-19:30, 'sat': 10:00-15:30, 'sun': выходной",55.824253,37.645897,"4,4",['8 (800) 555-55-50Показать телефон'],"['http://ok.ru/sberbank', 'https://vk.com/sberbank']",84,66,55,60,94,,,,,2024-10-03 11:47:03
82,sberbank/221428274915,СберБанк,"Солнечная ул., 3, Московский",www.sberbank.com,"'mon': 10:00-19:30, 'tue': 10:00-19:30, 'wed': 10:00-19:30, 'thu': 10:00-19:30, 'fri': 10:00-19:30, 'sat': 10:00-16:30, 'sun': выходной",55.591498,37.366062,"4,9",['8 (800) 555-55-50Показать телефон'],"['https://ok.ru/sber/', 'https://vk.com/sberbank', 'https://www.youtube.com/channel/UCM4aBRnEiNCf9fQFl2qx2Bg']",82,76,62,,94,,,,,2024-10-03 11:47:03
83,sberbank/1224593129,СберБанк,"ул. Руднёвка, 19, Москва",www.sberbank.com,"'mon': 10:00-19:30, 'tue': 10:00-19:30, 'wed': 10:00-19:30, 'thu': 10:00-19:30, 'fri': 10:00-19:30, 'sat': 10:00-16:00, 'sun': выходной",55.716686,37.887345,"4,7",['8 (800) 555-55-50Показать телефон'],"['http://ok.ru/sberbank', 'https://vk.com/sberbank']",86,75,57,,97,13,,,,2024-10-03 11:47:03
84,sberbank/1097474065,СберБанк,"Мичуринский просп., 31, корп. 4, Москва",www.sberbank.com,"'mon': 08:30-20:00, 'tue': 08:30-20:00, 'wed': 08:30-20:00, 'thu': 08:30-20:00, 'fri': 08:30-20:00, 'sat': 09:00-16:30, 'sun': выходной",55.694420,37.497030,"4,3",['8 (800) 555-55-50Показать телефон'],"['https://ok.ru/sberbank', 'https://t.me/sber_students_bot', 'https://vk.com/sberbank']",85,45,29,,87,0,,,,2024-10-03 11:47:03
85,sberbank/1014323284,СберБанк,"Южнобутовская ул., 91, Москва",www.sberbank.com,"'mon': 08:30-19:30, 'tue': 08:30-19:30, 'wed': 08:30-19:30, 'thu': 08:30-19:30, 'fri': 08:30-19:30, 'sat': 09:00-16:30, 'sun': выходной",55.534610,37.521800,"4,4",['8 (800) 555-55-50Показать телефон'],"['http://ok.ru/sberbank', 'https://t.me/Sber_Business_Live_bot', 'https://vk.com/careersber']",79,54,13,,91,8,,,,2024-10-03 11:47:03
86,sberbank/57357712680,СберБанк,"Широкая ул., 29, Москва",www.sberbank.com,"'mon': 10:00-18:30, 'tue': 10:00-18:30, 'wed': 10:00-18:30, 'thu': 10:00-18:30, 'fri': 10:00-18:30, 'sat': выходной, 'sun': выходной",55.887771,37.677005,"4,6",['8 (800) 555-55-50Показать телефон'],"['http://ok.ru/sberbank', 'https://t.me/sberbank', 'https://vk.com/sberbank']",83,76,55,,93,,,,,2024-10-03 11:47:03
87,sberbank/1128805042,СберБанк,"Башиловская ул., 11, Москва",www.sberbank.com,"'mon': 09:00-20:00, 'tue': 09:00-20:00, 'wed': 09:00-20:00, 'thu': 09:00-20:00, 'fri': 09:00-20:00, 'sat': 10:30-17:30, 'sun': выходной",55.796739,37.575693,"4,6",['8 (800) 555-55-50Показать телефон'],"['https://ok.ru/sberbank', 'https://vk.com/sberbank']",75,62,67,68,96,82,,,,2024-10-03 11:47:03
88,sberbank/1110263302,СберБанк,"Павшинская ул., 2, Красногорск",www.sberbank.com,"'mon': 09:30-18:30, 'tue': 09:30-19:00, 'wed': 09:30-18:30, 'thu': 09:30-18:30, 'fri': 09:30-18:30, 'sat': выходной, 'sun': выходной",55.815631,37.350548,"4,5",['8 (800) 555-55-50Показать телефон'],"['http://ok.ru/sberbank', 'https://vk.com/sberbank']",75,52,25,54,,19,,,,2024-10-03 11:47:03
89,sberbank/1108843273,СберБанк,"Багратионовский пр., 7, корп. 20В, Москва",www.sberbank.com,"'mon': 09:30-19:30, 'tue': 09:30-19:30, 'wed': 09:30-19:30, 'thu': 09:30-19:30, 'fri': 09:30-19:30, 'sat': 10:30-16:00, 'sun': выходной",55.743522,37.505507,"4,4",['8 (800) 555-55-50Показать телефон'],"['https://ok.ru/sber', 'https://vk.com/sberbank']",81,58,72,,92,,,,,2024-10-03 11:47:03
90,sberbank/1082557054,СберБанк,"Нахимовский просп., 25А, Москва",www.sberbank.com,"'mon': 09:00-20:00, 'tue': 09:00-19:30, 'wed': 09:00-20:00, 'thu': 09:00-20:00, 'fri': 09:00-20:00, 'sat': 09:30-17:30, 'sun': выходной",55.667858,37.589976,,['8 (800) 555-55-50Показать телефон'],"['https://ok.ru/sberbank', 'https://vk.com/sberbank']",77,48,10,,100,4,,,,2024-10-03 11:47:03
91,sberbank/1031770839,СберБанк,"ул. Академика Бакулева, 2, Москва",www.sberbank.com,"'mon': 09:00-19:00, 'tue': 09:00-19:00, 'wed': 09:00-19:00, 'thu': 09:00-19:00, 'fri': 09:00-19:00, 'sat': 10:00-16:00, 'sun': выходной",55.644156,37.487891,"4,4",['8 (800) 555-55-50Показать телефон'],"['https://ok.ru/sberbank', 'https://vk.com/sberbank']",83,66,61,70,100,55,,,,2024-10-03 11:47:03
92,sberbank/1152730247,СберБанк,"Новокосинская ул., 36Б, Москва",www.sberbank.com,"'mon': 08:30-19:30, 'tue': 08:30-19:30, 'wed': 08:30-19:30, 'thu': 08:30-19:30, 'fri': 08:30-19:30, 'sat': 09:00-16:00, 'sun': выходной",55.742377,37.869451,"4,6",['8 (800) 555-55-50Показать телефон'],"['http://ok.ru/sberbank', 'https://vk.com/sberbank']",87,68,66,,97,,,,,2024-10-03 11:47:03
93,sberbank/1178698834,СберБанк,"Новомытищинский просп., 34/2, Мытищи",www.sberbank.com,"'mon': 09:00-18:00, 'tue': 09:00-18:00, 'wed': 09:00-18:00, 'thu': 09:00-18:00, 'fri': 09:00-18:00, 'sat': выходной, 'sun': выходной",55.911003,37.736752,"4,6",['8 (800) 555-55-50Показать телефон'],"['http://ok.ru/sberbank', 'https://vk.com/sberbank']",89,66,53,,94,20,,,,2024-10-03 11:47:03
94,sberbank/1676107682,СберБанк,"ул. Вавилова, 3, Москва",www.sberbank.com,"'mon': 09:00-22:00, 'tue': 09:00-22:00, 'wed': 09:00-22:00, 'thu': 09:00-22:00, 'fri': 09:00-22:00, 'sat': 09:00-22:00, 'sun': 09:00-22:00",55.706883,37.592096,"4,4",['8 (800) 555-55-50Показать телефон'],"['https://ok.ru/sber', 'https://t.me/Sber_Business_Live_bot', 'https://vk.com/careersber']",71,64,76,,89,82,,,,2024-10-03 11:47:03
95,sberbank/1059749193,СберБанк,"ул. Декабристов, 10, корп. 2, Москва",www.sberbank.com,"'mon': 08:30-19:30, 'tue': 08:30-19:30, 'wed': 08:30-19:30, 'thu': 08:30-19:30, 'fri': 08:30-19:30, 'sat': 09:30-16:30, 'sun': выходной",55.865728,37.598231,"4,6",['8 (800) 555-55-50Показать телефон'],"['https://ok.ru/sberbank', 'https://vk.com/sberbank']",83,75,63,,94,,,,,2024-10-03 11:47:03
96,sberbank/1126360440,СберБанк,"ул. Корнейчука, 44, Москва",www.sberbank.com,"'mon': 08:30-19:30, 'tue': 08:30-19:30, 'wed': 08:30-19:30, 'thu': 08:30-19:30, 'fri': 08:30-19:30, 'sat': 09:30-16:30, 'sun': выходной",55.896772,37.631918,"4,4",['8 (800) 555-55-50Показать телефон'],"['https://ok.ru/sberbank', 'https://vk.com/sberbank']",82,63,14,,94,8,,,,2024-10-03 11:47:03
97,sberbank/1052154505,СберБанк,"Новое ш., 79, рабочий посёлок Горки Ленинские",www.sberbank.com,"'mon': 09:00-16:30, 'tue': 09:00-16:30, 'wed': 09:00-16:30, 'thu': 09:00-16:30, 'fri': 09:00-16:15, 'sat': выходной, 'sun': выходной",55.507412,37.778021,"3,8",['8 (800) 555-55-50Показать телефон'],"['http://ok.ru/sberbank', 'https://vk.com/sberbank']",100,,10,,,,,,,2024-10-03 11:47:03
98,sberbank/96350421766,СберБанк,"Снежная ул., 13, корп. 1, Москва",www.sberbank.com,"'mon': 09:00-19:30, 'tue': 09:00-19:30, 'wed': 09:00-19:30, 'thu': 09:00-19:30, 'fri': 09:00-19:30, 'sat': 09:30-17:30, 'sun': выходной",55.852203,37.645617,"4,5",['8 (800) 555-55-50Показать телефон'],"['http://ok.ru/sberbank', 'https://t.me/sber_students_bot', 'https://vk.com/sberbank']",74,57,70,,100,,,,,2024-10-03 11:47:03
99,sberbank/37158065220,СберБанк,"ул. Бутлерова, 30А, Москва",www.sberbank.com,"'mon': 09:00-19:30, 'tue': 09:00-19:30, 'wed': 09:00-19:30, 'thu': 09:00-19:30, 'fri': 09:00-19:30, 'sat': 10:00-16:00, 'sun': выходной",55.645705,37.543371,"4,6",['8 (800) 555-55-50Показать телефон'],"['https://ok.ru/sberbank', 'https://vk.com/sberbank']",79,68,73,,70,55,,,,2024-10-03 11:47:03
100,sberbank/1085833756,СберБанк,"Комсомольский просп., 40, Москва",www.sberbank.com,"'mon': 09:30-19:30, 'tue': 09:30-19:30, 'wed': 09:30-19:30, 'thu': 09:30-19:30, 'fri': 09:30-19:30, 'sat': 09:30-15:30, 'sun': выходной",55.721878,37.573986,"4,4",['8 (800) 555-55-50Показать телефон'],"['http://ok.ru/sberbank', 'https://t.me/sber_students_bot', 'https://vk.com/sberbank']",67,46,57,93,96,35,,,,2024-10-03 11:47:03
101,sberbank/1040448865,СберБанк,"Новомытищинский просп., 5, корп. 1, Мытищи",www.sberbank.com,"'mon': 09:00-19:00, 'tue': 09:00-19:00, 'wed': 09:00-19:00, 'thu': 09:00-19:00, 'fri': 09:00-19:00, 'sat': 09:00-16:30, 'sun': выходной",55.915685,37.749957,"4,7",['8 (800) 555-55-50Показать телефон'],"['https://ok.ru/sber/', 'https://t.me/sberbank', 'https://vk.com/sberbank']",74,61,66,,91,50,,51,62,2024-10-03 11:47:03
102,sberbank/1046275670,СберБанк,"ул. Федосьино, 4, корп. 1, Москва",www.sberbank.com,"'mon': 09:00-19:30, 'tue': 09:00-19:30, 'wed': 09:00-19:30, 'thu': 09:00-19:30, 'fri': 09:00-19:30, 'sat': 09:00-16:30, 'sun': выходной",55.635210,37.343036,"4,7",['8 (800) 555-55-50Показать телефон'],"['https://ok.ru/sberbank', 'https://t.me/Sber_Business_Live_bot', 'https://vk.com/careersber']",79,74,91,,92,57,,,,2024-10-03 11:47:03
103,sberbank/57490556382,СберБанк,"Новоясеневский просп., 1, корп. 2, Москва",www.sberbank.com,"'mon': 09:00-20:00, 'tue': 09:00-20:00, 'wed': 09:00-20:00, 'thu': 09:00-20:00, 'fri': 09:00-20:00, 'sat': 10:00-17:00, 'sun': 10:00-17:00",55.619915,37.507205,"4,6",['8 (800) 555-55-50Показать телефон'],"['https://ok.ru/sberbank', 'https://vk.com/sberbank']",76,65,85,,96,54,,,,2024-10-03 11:47:03
104,sberbank/1020792492,СберБанк,"ул. Удальцова, 32, стр. 2, Москва",www.sberbank.com,"'mon': 09:00-19:00, 'tue': 09:00-19:00, 'wed': 09:00-19:00, 'thu': 09:00-19:00, 'fri': 09:00-19:00, 'sat': выходной, 'sun': выходной",55.681854,37.493236,"4,4",['8 (800) 555-55-50Показать телефон'],"['http://ok.ru/sberbank', 'https://vk.com/sberbank']",83,74,59,,92,40,,,,2024-10-03 11:47:03
105,sberbank/1010197748,СберБанк,"Измайловский бул., 38, Москва",www.sberbank.com,"'mon': 09:00-19:30, 'tue': 09:00-19:30, 'wed': 09:00-19:30, 'thu': 09:00-19:30, 'fri': 09:00-19:30, 'sat': 10:00-17:00, 'sun': выходной",55.796405,37.800757,"4,5",['8 (800) 555-55-50Показать телефон'],"['http://ok.ru/sberbank', 'https://vk.com/sberbank']",85,76,70,,87,,,,,2024-10-03 11:47:03
106,sberbank/38482343558,СберБанк,"Медынская ул., 5А, корп. 1, Москва",www.sberbank.com,"'mon': 08:30-19:30, 'tue': 08:30-19:30, 'wed': 08:30-19:30, 'thu': 08:30-19:30, 'fri': 08:30-19:30, 'sat': 09:00-16:30, 'sun': выходной",55.590597,37.647315,"4,5",['8 (800) 555-55-50Показать телефон'],"['http://ok.ru/sberbank', 'https://vk.com/sberbank']",78,56,65,,95,58,,,,2024-10-03 11:47:03
107,sberbank/1069560670,СберБанк,"Ленинградский просп., 34, Москва",www.sberbank.com,"'mon': 09:00-19:30, 'tue': 09:00-19:30, 'wed': 09:00-19:30, 'thu': 09:00-19:30, 'fri': 09:00-19:30, 'sat': 09:30-16:00, 'sun': выходной",55.785762,37.568838,"4,4",['8 (800) 555-55-50Показать телефон'],"['https://ok.ru/sber/', 'https://vk.com/sberbank']",74,59,81,,86,,,,,2024-10-03 11:47:03
108,sberbank/95915342913,СберБанк,"Балашиха, микрорайон Гагарина, 28",www.sberbank.com,"'mon': 09:30-19:00, 'tue': 09:30-19:00, 'wed': 09:30-19:00, 'thu': 09:30-19:00, 'fri': 09:30-19:00, 'sat': 10:00-15:30, 'sun': выходной",55.823768,37.928946,"4,5",['8 (800) 555-55-50Показать телефон'],"['https://ok.ru/sberbank', 'https://vk.com/sberbank']",78,70,41,,93,36,,,,2024-10-03 11:47:03
109,sberbank/1038153042,СберБанк,"ул. Скульптора Мухиной, 10, корп. 1, Москва",www.sberbank.com,"'mon': 08:30-19:30, 'tue': 08:30-19:30, 'wed': 08:30-19:30, 'thu': 08:30-19:30, 'fri': 08:30-19:30, 'sat': 09:00-17:00, 'sun': выходной",55.640078,37.342381,"4,8",['8 (800) 555-55-50Показать телефон'],"['http://ok.ru/sberbank', 'https://vk.com/sberbank']",90,77,66,,94,82,,,,2024-10-03 11:47:03
110,sberbank/167015643857,СберБанк,"Большая Черёмушкинская ул., 13, стр. 6, Москва",www.sberbank.com,"'mon': 09:30-19:30, 'tue': 09:30-19:30, 'wed': 09:30-19:30, 'thu': 09:30-19:30, 'fri': 09:30-19:30, 'sat': 10:00-15:30, 'sun': выходной",55.686893,37.594917,"4,7",['8 (800) 555-55-50Показать телефон'],"['http://ok.ru/sberbank', 'https://t.me/sberbank', 'https://vk.com/sberbank']",83,66,66,,97,67,,,,2024-10-03 11:47:03
111,sberbank/227895727860,СберБанк,"Университетский просп., 25/17, Москва",www.sberbank.com,"'mon': 09:00-19:00, 'tue': 09:00-19:00, 'wed': 09:00-19:00, 'thu': 09:00-19:00, 'fri': 09:00-19:00, 'sat': выходной, 'sun': выходной",55.715977,37.517321,"4,4",['8 (800) 555-55-50Показать телефон'],"['http://ok.ru/sberbank', 'https://vk.com/sberbank']",74,51,80,,87,43,,,,2024-10-03 11:47:03
112,sberbank/130520017792,СберБанк,"Варшавское ш., 26, Москва",www.sberbank.com,"'mon': 09:30-20:00, 'tue': 09:30-20:00, 'wed': 09:30-20:00, 'thu': 09:30-20:00, 'fri': 09:30-20:00, 'sat': 10:00-15:00, 'sun': выходной",55.684503,37.621947,"4,4",['8 (800) 555-55-50Показать телефон'],"['https://ok.ru/sberbank', 'https://t.me/sberbank', 'https://vk.com/sberbank']",73,60,58,,100,,,,,2024-10-03 11:47:03
113,sberbank/1055521354,СберБанк,"Волгоградский просп., 119А, Москва",www.sberbank.com,"'mon': 09:00-19:30, 'tue': 09:00-19:30, 'wed': 09:00-19:30, 'thu': 09:00-19:30, 'fri': 09:00-19:30, 'sat': 10:00-17:00, 'sun': выходной",55.706284,37.765372,"4,4",['8 (800) 555-55-50Показать телефон'],"['https://ok.ru/sberbank', 'https://vk.com/sberbank']",78,58,50,,100,40,,,,2024-10-03 11:47:03
114,sberbank/1252510678,СберБанк,"просп. Ленинского Комсомола, 3, Видное",www.sberbank.com,"'mon': 09:00-19:00, 'tue': 09:00-19:00, 'wed': 09:00-19:00, 'thu': 09:00-19:00, 'fri': 09:00-19:00, 'sat': 09:00-17:00, 'sun': выходной",55.547724,37.714097,"4,8",['8 (800) 555-55-50Показать телефон'],"['https://ok.ru/sberbank', 'https://vk.com/sberbank']",81,60,59,,97,61,,,,2024-10-03 11:47:03
115,sberbank/1110424183,СберБанк,"Онежская ул., 12, Москва",www.sberbank.com,"'mon': 09:00-19:30, 'tue': 09:00-19:30, 'wed': 09:00-19:30, 'thu': 09:00-19:30, 'fri': 09:00-19:30, 'sat': 09:30-17:00, 'sun': выходной",55.849434,37.521551,"4,5",['8 (800) 555-55-50Показать телефон'],"['http://ok.ru/sberbank', 'https://vk.com/sberbank']",73,66,75,,100,75,,,,2024-10-03 11:47:03
116,sberbank/1043268965,СберБанк,"Щёлковское ш., 34, Москва",www.sberbank.com,"'mon': 08:30-19:30, 'tue': 08:30-19:30, 'wed': 08:30-19:30, 'thu': 08:30-19:30, 'fri': 08:30-19:30, 'sat': 09:00-17:00, 'sun': выходной",55.809512,37.785523,"4,5",['8 (800) 555-55-50Показать телефон'],"['https://ok.ru/sberbank', 'https://vk.com/sberbank']",78,71,52,,84,,,,,2024-10-03 11:47:03
117,sberbank/1118725368,СберБанк,"Петровско-Разумовский пр., 24, корп. 2, Москва",www.sberbank.com,"'mon': 09:30-18:30, 'tue': 09:30-18:30, 'wed': 09:30-18:30, 'thu': 09:30-18:30, 'fri': 09:30-18:30, 'sat': выходной, 'sun': выходной",55.801931,37.565084,"4,4",['8 (800) 555-55-50Показать телефон'],"['https://ok.ru/sberbank', 'https://vk.com/sberbank']",79,59,46,,93,28,,,,2024-10-03 11:47:03
118,sberbank/1045546947,СберБанк,"просп. Космонавтов, 6А, Королёв",www.sberbank.com,"'mon': 09:00-19:00, 'tue': 09:00-19:00, 'wed': 09:00-19:00, 'thu': 09:00-19:00, 'fri': 09:00-19:00, 'sat': 09:00-16:00, 'sun': выходной",55.918933,37.867447,"4,8",['8 (800) 555-55-50Показать телефон'],"['https://ok.ru/sberbank', 'https://vk.com/sberbank']",73,60,64,,94,41,,39,50,2024-10-03 11:47:03
119,sberbank/230760996254,СберБанк,"Хорошёвское ш., 27, Москва",www.sberbank.com,"'mon': 10:00-20:00, 'tue': 10:00-20:00, 'wed': 10:00-20:00, 'thu': 10:00-20:00, 'fri': 10:00-20:00, 'sat': 10:00-16:00, 'sun': выходной",55.777105,37.523716,"4,5",['8 (800) 555-55-50Показать телефон'],"['https://ok.ru/sberbank', 'https://t.me/sber_students_bot', 'https://vk.com/sberbank']",79,58,69,,87,,,,,2024-10-03 11:47:03
120,sberbank/1295053201,СберБанк,"Москва, Юго-Восточный административный округ, район Кузьминки, Волжский Бульвар квартал 113А, к1",www.sberbank.com,"'mon': 09:30-19:30, 'tue': 09:30-19:30, 'wed': 09:30-19:30, 'thu': 09:30-19:30, 'fri': 09:30-19:30, 'sat': 10:00-16:00, 'sun': выходной",55.700035,37.752355,"4,6",['8 (800) 555-55-50Показать телефон'],"['https://ok.ru/sberbank', 'https://vk.com/sberbank']",78,49,50,,89,,,,,2024-10-03 11:47:03
121,sberbank/169702077535,СберБанк,"Планерная ул., 12, корп. 1, Москва",www.sberbank.com,"'mon': 09:00-20:00, 'tue': 09:00-20:00, 'wed': 09:00-20:00, 'thu': 09:00-20:00, 'fri': 09:00-20:00, 'sat': 09:00-17:00, 'sun': выходной",55.862146,37.436633,"4,6",['8 (800) 555-55-50Показать телефон'],"['http://vk.com/sberbank', 'https://ok.ru/sber/', 'https://t.me/sberbank']",77,70,93,,94,90,,,,2024-10-03 11:47:03
122,sberbank/1088489127,СберБанк,"Марксистская ул., 9, Москва",www.sberbank.com,"'mon': 09:00-19:00, 'tue': 09:00-19:00, 'wed': 09:00-19:00, 'thu': 09:00-19:00, 'fri': 09:00-19:00, 'sat': 10:00-16:00, 'sun': выходной",55.735031,37.667672,"4,4",['8 (800) 555-55-50Показать телефон'],"['https://ok.ru/sber/', 'https://t.me/sberbank', 'https://vk.com/sberbank']",80,77,79,,100,75,,94,93,2024-10-03 11:47:03
123,sberbank/65275270244,СберБанк,"Берёзовая ул., 17, д. Сосенки",www.sberbank.com,"'mon': 10:00-19:00, 'tue': 10:00-19:00, 'wed': 10:00-19:00, 'thu': 10:00-19:00, 'fri': 10:00-19:00, 'sat': выходной, 'sun': выходной",55.850914,37.617537,"4,7",['8 (800) 555-55-50Показать телефон'],"['http://ok.ru/sberbank', 'https://vk.com/sberbank']",73,58,49,,77,19,,,,2024-10-03 11:47:03
124,sberbank/1261532735,СберБанк,"Загородное ш., 15, корп. 1, Москва",www.sberbank.com,"'mon': 09:00-19:00, 'tue': 09:00-19:00, 'wed': 09:00-19:00, 'thu': 09:00-19:00, 'fri': 09:00-19:00, 'sat': выходной, 'sun': выходной",55.691679,37.603065,"4,6",['8 (800) 555-55-50Показать телефон'],"['http://ok.ru/sberbank', 'https://t.me/sberbank', 'https://vk.com/sberbank']",85,76,74,94,100,75,,,,2024-10-03 11:47:03
125,sberbank/1009126495,СберБанк,"Можайское ш., 4, корп. 1, Москва",www.sberbank.com,"'mon': 10:00-19:00, 'tue': 10:00-19:00, 'wed': 10:00-19:00, 'thu': 10:00-19:00, 'fri': 10:00-19:00, 'sat': 10:00-14:00, 'sun': выходной",55.723146,37.443730,"4,4",['8 (800) 555-55-50Показать телефон'],"['http://ok.ru/sberbank', 'https://t.me/sberbank', 'https://vk.com/sberbank']",82,52,39,,93,45,,,,2024-10-03 11:47:03
126,sberbank/1127460744,СберБанк,"Голубинская ул., 24, корп. 1, Москва",www.sberbank.com,"'mon': 08:30-19:00, 'tue': 08:30-19:00, 'wed': 08:30-19:00, 'thu': 08:30-19:00, 'fri': 08:30-19:00, 'sat': выходной, 'sun': выходной",55.596015,37.537388,"4,4",['8 (800) 555-55-50Показать телефон'],"['http://ok.ru/sberbank', 'https://vk.com/sberbank']",81,37,30,,92,25,,,,2024-10-03 11:47:03
127,sberbank/1623855727,СберБанк,"Строгинский бул., 22, Москва",www.sberbank.com,"'mon': 10:00-20:00, 'tue': 10:00-20:00, 'wed': 10:00-20:00, 'thu': 10:00-20:00, 'fri': 10:00-20:00, 'sat': 09:30-17:00, 'sun': выходной",55.802963,37.402938,"4,5",['8 (800) 555-55-50Показать телефон'],"['http://ok.ru/sberbank', 'https://t.me/sberbank', 'https://vk.com/sberbank']",76,54,50,,90,,,,,2024-10-03 11:47:03
128,sberbank/1064888404,СберБанк,"Луговой пр., 12, корп. 1, Москва",www.sberbank.com,"'mon': 10:00-19:00, 'tue': 10:00-19:00, 'wed': 10:00-19:00, 'thu': 10:00-19:00, 'fri': 10:00-19:00, 'sat': выходной, 'sun': выходной",55.646361,37.752454,"4,4",['8 (800) 555-55-50Показать телефон'],"['http://ok.ru/sberbank', 'https://t.me/sberbank', 'https://vk.com/sberbank']",77,71,49,,100,19,,,,2024-10-03 11:47:03
129,sberbank/106674492978,СберБанк,"Октябрьский просп., 9, Люберцы",www.sberbank.com,"'mon': 09:30-19:00, 'tue': 09:30-19:00, 'wed': 09:30-19:00, 'thu': 09:30-19:00, 'fri': 09:30-19:00, 'sat': 10:00-14:00, 'sun': выходной",55.696220,37.861708,"4,5",['8 (800) 555-55-50Показать телефон'],"['https://ok.ru/sberbank', 'https://t.me/sberbank', 'https://vk.com/sberbank']",71,60,60,,91,67,,,,2024-10-03 11:47:03
130,sberbank/1048571428,СберБанк,"Новопеределкинская ул., 7А, Москва",www.sberbank.com,"'mon': 08:30-19:30, 'tue': 08:30-19:30, 'wed': 08:30-19:30, 'thu': 08:30-19:30, 'fri': 08:30-19:30, 'sat': 09:00-15:30, 'sun': выходной",55.639881,37.366992,"4,6",['8 (800) 555-55-50Показать телефон'],"['http://ok.ru/sberbank', 'https://vk.com/sberbank']",81,66,68,,91,69,,,,2024-10-03 11:47:03
131,sberbank/63354115245,СберБанк,"Митинская ул., 47, Москва",www.sberbank.com,"'mon': 09:30-20:00, 'tue': 10:00-19:30, 'wed': 09:30-20:00, 'thu': 09:30-20:00, 'fri': 09:30-20:00, 'sat': выходной, 'sun': выходной",55.850985,37.352655,"4,6",['8 (800) 555-55-50Показать телефон'],"['http://ok.ru/sberbank', 'https://vk.com/sberbank']",88,71,54,,100,,,,,2024-10-03 11:47:03
132,sberbank/1206339373,СберБанк,"ул. имени Зверева, 6А, Красногорск",www.sberbank.com,"'mon': выходной, 'tue': выходной, 'wed': выходной, 'thu': выходной, 'fri': выходной, 'sat': выходной, 'sun': выходной",55.822498,37.364068,"4,8",['8 (800) 555-55-50Показать телефон'],"['https://ok.ru/sberbank', 'https://vk.com/sberbank']",80,64,53,,76,57,,,,2024-10-03 11:47:03
133,sberbank/1376364371,СберБанк,"Большая Тульская ул., 2, Москва",www.sberbank.com,"'mon': 09:00-20:00, 'tue': 09:00-20:00, 'wed': 09:00-20:00, 'thu': 09:00-20:00, 'fri': 09:00-20:00, 'sat': 09:30-17:00, 'sun': выходной",55.709018,37.620770,"4,3",['8 (800) 555-55-50Показать телефон'],"['http://ok.ru/sberbank', 'https://vk.com/sberbank']",68,51,62,,70,,,,,2024-10-03 11:47:03
134,sberbank/1262351001,СберБанк,"Бирюлёвская ул., 55, корп. 1, стр. 2, Москва",www.sberbank.com,"'mon': 09:00-19:30, 'tue': 09:00-19:30, 'wed': 09:00-19:30, 'thu': 09:00-19:30, 'fri': 09:00-19:30, 'sat': 09:30-16:30, 'sun': выходной",55.583363,37.677014,"4,6",['8 (800) 555-55-50Показать телефон'],"['http://ok.ru/sberbank', 'https://vk.com/sberbank']",86,63,71,,93,91,,,,2024-10-03 11:47:03
135,sberbank/1126079394,СберБанк,"Большая Грузинская ул., 37, Москва",www.sberbank.com,"'mon': 09:00-19:30, 'tue': 09:00-19:30, 'wed': 09:00-19:30, 'thu': 09:00-19:30, 'fri': 09:00-19:30, 'sat': 09:30-17:00, 'sun': выходной",55.768815,37.579995,"4,3",['8 (800) 555-55-50Показать телефон'],"['https://ok.ru/sberbank', 'https://vk.com/sberbank']",75,63,71,,,,,,,2024-10-03 11:47:03
136,sberbank/32435375728,СберБанк,"ул. Генерала Белобородова, 11, Москва",www.sberbank.com,"'mon': 09:30-19:30, 'tue': 09:30-19:30, 'wed': 09:30-19:30, 'thu': 09:30-19:30, 'fri': 09:30-19:30, 'sat': 10:00-16:00, 'sun': выходной",55.836230,37.355612,"4,6",['8 (800) 555-55-50Показать телефон'],"['https://ok.ru/sberbank', 'https://vk.com/sberbank']",88,73,86,,100,,,,,2024-10-03 11:47:03
137,sberbank/40158012604,СберБанк,"Спортивная ул., 1, Лыткарино",www.sberbank.com,"'mon': 09:00-19:30, 'tue': 09:00-19:30, 'wed': 09:00-19:30, 'thu': 09:00-19:30, 'fri': 09:00-19:30, 'sat': 09:00-16:30, 'sun': выходной",55.581419,37.910809,"4,3",['8 (800) 555-55-50Показать телефон'],"['http://ok.ru/sberbank', 'https://vk.com/sberbank']",66,66,,,,,,,,2024-10-03 11:47:03
138,sberbank/30547341753,СберБанк,"Щёлковское ш., 75, Москва",www.sberbank.com,"'mon': 10:00-21:00, 'tue': 10:00-21:00, 'wed': 10:00-21:00, 'thu': 10:00-21:00, 'fri': 10:00-21:00, 'sat': 10:00-21:00, 'sun': 11:30-19:00",55.810967,37.801081,"4,6",['8 (800) 555-55-50Показать телефон'],"['http://ok.ru/sberbank', 'https://vk.com/sberbank']",56,41,62,,86,47,,23,,2024-10-03 11:47:03
139,sberbank/118116731844,СберБанк,"ул. Земляной Вал, 41, стр. 1, Москва",www.sberbank.com,"'mon': 09:00-19:30, 'tue': 09:00-19:30, 'wed': 09:00-19:30, 'thu': 09:00-19:30, 'fri': 09:00-19:30, 'sat': 10:00-15:30, 'sun': выходной",55.753889,37.657314,"4,3",['8 (800) 555-55-50Показать телефон'],"['https://ok.ru/sberbank', 'https://vk.com/sberbank']",87,76,65,,100,,,,,2024-10-03 11:47:03
140,sberbank/1289968668,СберБанк,"Новослободская ул., 16, Москва",www.sberbank.com,"'mon': 09:00-20:00, 'tue': 09:00-20:00, 'wed': 09:00-20:00, 'thu': 09:00-20:00, 'fri': 09:00-20:00, 'sat': 09:30-16:30, 'sun': выходной",55.781837,37.599187,"4,4",['8 (800) 555-55-50Показать телефон'],"['https://ok.ru/sberbank', 'https://t.me/sberbank', 'https://vk.com/sberbank']",70,58,67,86,92,26,,43,,2024-10-03 11:47:03
141,sberbank/1088927681,СберБанк,"ул. Павла Корчагина, 11, Москва",www.sberbank.com,"'mon': 09:00-19:00, 'tue': 09:00-19:00, 'wed': 09:00-19:00, 'thu': 09:00-19:00, 'fri': 09:00-19:00, 'sat': 09:30-16:30, 'sun': выходной",55.817158,37.659452,"4,5",['8 (800) 555-55-50Показать телефон'],"['http://ok.ru/sberbank', 'https://vk.com/sberbank']",87,74,77,,96,81,,,,2024-10-03 11:47:03
142,sberbank/1287175300,СберБанк,"Кантемировская ул., 3, корп. 5, стр. 2, Москва",www.sberbank.com,"'mon': 09:00-19:00, 'tue': 09:00-19:00, 'wed': 09:00-19:00, 'thu': выходной, 'fri': выходной, 'sat': выходной, 'sun': выходной",55.636077,37.680948,"4,6",['8 (800) 555-55-50Показать телефон'],"['https://ok.ru/sberbank', 'https://vk.com/sberbank']",81,72,65,80,39,68,,71,74,2024-10-03 11:47:03
143,sberbank/1040950472,СберБанк,"Липецкая ул., 2А, Москва",www.sberbank.com,"'mon': 09:30-19:00, 'tue': 09:30-19:00, 'wed': 09:30-19:00, 'thu': 09:30-19:00, 'fri': 09:30-19:00, 'sat': 09:30-15:30, 'sun': выходной",55.601137,37.669792,"4,3",['8 (800) 555-55-50Показать телефон'],"['http://ok.ru/sberbank', 'https://vk.com/sberbank']",84,70,48,,84,30,,,,2024-10-03 11:47:03
144,sberbank/1065604418,СберБанк,"Сиреневый бул., 53, Москва",www.sberbank.com,"'mon': 08:30-20:00, 'tue': 08:30-20:00, 'wed': 08:30-20:00, 'thu': 08:30-20:00, 'fri': 08:30-20:00, 'sat': 09:30-18:00, 'sun': выходной",55.803631,37.814394,"4,5",['8 (800) 555-55-50Показать телефон'],"['https://ok.ru/sberbank', 'https://t.me/sberbank', 'https://vk.com/sberbank']",76,59,68,62,86,83,,,,2024-10-03 11:47:03
145,sberbank/1094331006,СберБанк,"Краснопрудная ул., 11, Москва",www.sberbank.com,"'mon': 09:00-20:00, 'tue': 09:00-20:00, 'wed': 09:00-20:00, 'thu': 09:00-20:00, 'fri': 09:00-20:00, 'sat': 09:30-17:00, 'sun': выходной",55.779413,37.664950,"4,4",['8 (800) 555-55-50Показать телефон'],"['http://ok.ru/sberbank', 'https://t.me/sberbank', 'https://vk.com/sberbank']",84,70,25,,89,9,,,,2024-10-03 11:47:03
146,sberbank/87177512882,СберБанк,"Ферганский пр., 10Г, стр. 1, Москва",www.sberbank.com,"'mon': 09:30-19:30, 'tue': 09:30-19:30, 'wed': 09:30-19:30, 'thu': 09:30-19:30, 'fri': 09:30-19:30, 'sat': 10:00-15:00, 'sun': выходной",55.696129,37.821427,"4,6",['8 (800) 555-55-50Показать телефон'],"['http://ok.ru/sberbank', 'https://vk.com/sberbank']",83,60,41,,94,52,,,,2024-10-03 11:47:03
147,sberbank/1112158864,СберБанк,"ул. Амундсена, 15, корп. 2, Москва",www.sberbank.com,"'mon': 09:00-20:00, 'tue': 09:00-20:00, 'wed': 09:00-20:00, 'thu': 09:00-20:00, 'fri': 09:00-20:00, 'sat': 09:30-17:00, 'sun': выходной",55.853582,37.654431,"4,4",['8 (800) 555-55-50Показать телефон'],"['http://ok.ru/sberbank', 'https://vk.com/sberbank']",83,76,77,,80,69,,,,2024-10-03 11:47:03
148,sberbank/1084286048,СберБанк,"ул. Арбат, 33, Москва",www.sberbank.com,"'mon': 09:30-19:30, 'tue': 09:30-19:30, 'wed': 09:30-19:30, 'thu': 09:30-19:30, 'fri': 09:30-19:30, 'sat': выходной, 'sun': выходной",55.749532,37.592401,"4,7",['8 (800) 555-55-50Показать телефон'],"['http://ok.ru/sberbank', 'http://vk.com/sberbank', 'https://t.me/sberbank']",74,61,69,,90,69,,,,2024-10-03 11:47:03
149,sberbank/1201846716,СберБанк,"ул. 3-е Почтовое Отделение, 54А, микрорайон Городок Б, Люберцы",www.sberbank.com,"'mon': выходной, 'tue': выходной, 'wed': выходной, 'thu': выходной, 'fri': выходной, 'sat': выходной, 'sun': выходной",55.682659,37.870718,"4,3",['8 (800) 555-55-50Показать телефон'],"['https://ok.ru/sberbank', 'https://vk.com/sberbank']",72,44,14,,80,0,,,,2024-10-03 11:47:03
150,sberbank/1153501877,СберБанк,"Москва, Юго-Восточный административный округ, район Капотня, 5-й квартал, 15, стр. 2",www.sberbank.com,"'mon': 09:00-19:00, 'tue': 09:00-19:00, 'wed': 09:00-19:00, 'thu': 09:00-19:00, 'fri': 09:00-19:00, 'sat': выходной, 'sun': выходной",55.633486,37.798978,"4,4",['8 (800) 555-55-50Показать телефон'],"['http://ok.ru/sberbank', 'https://vk.com/sberbank']",79,40,51,,89,,,,,2024-10-03 11:47:03
151,sberbank/1131493189,СберБанк,"Пронская ул., 2, Москва",www.sberbank.com,"'mon': 10:00-19:00, 'tue': 10:00-19:00, 'wed': 10:00-19:00, 'thu': 10:00-19:00, 'fri': 10:00-19:00, 'sat': 10:00-15:00, 'sun': выходной",55.703287,37.845574,"4,4",['8 (800) 555-55-50Показать телефон'],"['http://ok.ru/sberbank', 'https://vk.com/sberbank']",77,72,42,,92,,,,,2024-10-03 11:47:03
152,sberbank/1059022742,СберБанк,"Кастанаевская ул., 24, Москва",www.sberbank.com,"'mon': 09:30-19:30, 'tue': 09:30-19:30, 'wed': 09:30-19:30, 'thu': 09:30-19:30, 'fri': 09:30-19:30, 'sat': выходной, 'sun': выходной",55.738637,37.490227,"4,5",['8 (800) 555-55-50Показать телефон'],"['https://ok.ru/sberbank', 'https://vk.com/sberbank']",75,65,14,,67,3,,,,2024-10-03 11:47:03
153,sberbank/1025324746,СберБанк,"Борисовский пр., 11, корп. 1, стр. 2, Москва",www.sberbank.com,"'mon': 09:30-18:30, 'tue': 09:30-18:30, 'wed': 09:30-18:30, 'thu': 09:30-18:30, 'fri': 09:30-18:30, 'sat': 10:00-15:00, 'sun': выходной",55.626660,37.721884,"4,3",['8 (800) 555-55-50Показать телефон'],"['http://ok.ru/sberbank', 'https://vk.com/sberbank']",78,52,5,,86,3,,,,2024-10-03 11:47:03
154,sberbank/1203628270,СберБанк,"Криворожская ул., 23, корп. 1, Москва",www.sberbank.com,"'mon': 10:00-18:30, 'tue': 10:00-18:30, 'wed': 10:00-18:30, 'thu': 10:00-18:30, 'fri': 10:00-18:30, 'sat': выходной, 'sun': выходной",55.668219,37.610565,"4,3",['8 (800) 555-55-50Показать телефон'],"['http://ok.ru/sberbank', 'https://t.me/sberbank', 'https://vk.com/sberbank']",79,56,32,100,69,30,,,,2024-10-03 11:47:03
155,sberbank/238115567563,СберБанк,"просп. Мира, 91, корп. 3, Москва",www.sberbank.com,"'mon': 09:00-20:00, 'tue': 09:00-20:00, 'wed': 09:00-20:00, 'thu': 09:00-20:00, 'fri': 09:00-20:00, 'sat': 09:00-17:30, 'sun': выходной",55.806894,37.635592,"4,4",['8 (800) 555-55-50Показать телефон'],"['https://ok.ru/sberbank', 'https://t.me/sberbank', 'https://vk.com/sberbank']",80,66,76,,88,73,,,,2024-10-03 11:47:03
156,sberbank/1202457041,СберБанк,"Каширское ш., 55, корп. 4, Москва",www.sberbank.com,"'mon': 09:00-18:30, 'tue': 09:00-18:30, 'wed': 09:00-18:30, 'thu': 09:00-18:30, 'fri': 09:00-18:30, 'sat': 10:30-14:30, 'sun': выходной",55.638892,37.694845,"4,3",['8 (800) 555-55-50Показать телефон'],"['http://ok.ru/sberbank', 'https://vk.com/sberbank']",74,63,19,,85,10,,,,2024-10-03 11:47:03
157,sberbank/149578228690,СберБанк,"Центральная ул., 6, корп. 2, микрорайон Подрезково, Химки",www.sberbank.com,"'mon': выходной, 'tue': 09:30-19:00, 'wed': 09:30-19:00, 'thu': 09:30-19:00, 'fri': 09:30-19:00, 'sat': 09:30-16:30, 'sun': выходной",55.948997,37.330974,"4,5",['8 (800) 555-55-50Показать телефон'],"['http://ok.ru/sberbank', 'https://vk.com/sberbank']",86,67,51,,,33,,,,2024-10-03 11:47:03
158,sberbank/1120097305,СберБанк,"ул. Яблочкова, 21А, Москва",www.sberbank.com,"'mon': выходной, 'tue': выходной, 'wed': выходной, 'thu': выходной, 'fri': выходной, 'sat': выходной, 'sun': выходной",55.819494,37.578271,"4,5",['8 (800) 555-55-50Показать телефон'],"['https://ok.ru/sberbank', 'https://vk.com/sberbank']",86,78,78,,80,65,,,,2024-10-03 11:47:03
159,sberbank/224640232625,СберБанк,"Шмитовский пр., 16, стр. 1, Москва",www.sberbank.com,"'mon': 09:00-19:00, 'tue': 09:00-19:00, 'wed': 09:00-19:00, 'thu': 09:00-19:00, 'fri': 09:00-19:00, 'sat': 09:30-15:00, 'sun': выходной",55.758443,37.549238,"4,5",['8 (800) 555-55-50Показать телефон'],"['https://ok.ru/sber/', 'https://vk.com/sberbank']",76,60,70,,72,,,,,2024-10-03 11:47:03
160,sberbank/1063933421,СберБанк,"Чертановская ул., 48, корп. 3, Москва",www.sberbank.com,"'mon': 10:00-19:00, 'tue': 10:00-19:00, 'wed': 10:00-19:00, 'thu': 10:00-19:00, 'fri': 10:00-19:00, 'sat': 11:00-15:00, 'sun': выходной",55.606827,37.589536,"4,4",['8 (800) 555-55-50Показать телефон'],"['http://ok.ru/sberbank', 'https://t.me/sberbank', 'https://vk.com/sberbank']",79,75,51,,100,16,,,,2024-10-03 11:47:03
161,sberbank/1043995476,СберБанк,"ул. Гризодубовой, 4, корп. 1, Москва",www.sberbank.com,"'mon': 09:00-19:00, 'tue': 09:00-19:00, 'wed': 09:00-19:00, 'thu': 09:00-19:00, 'fri': 09:00-19:00, 'sat': 09:30-14:30, 'sun': выходной",55.783196,37.528378,"4,5",['8 (800) 555-55-50Показать телефон'],"['https://ok.ru/sberbank', 'https://vk.com/sberbank']",73,69,64,,93,91,,,,2024-10-03 11:47:03
162,sberbank/6193269325,СберБанк,"Дубнинская ул., 16, корп. 1, Москва",www.sberbank.com,"'mon': 08:30-19:30, 'tue': 08:30-19:30, 'wed': 08:30-19:30, 'thu': 08:30-19:30, 'fri': 08:30-19:30, 'sat': 09:00-17:30, 'sun': выходной",55.868834,37.562919,"4,7",['8 (800) 555-55-50Показать телефон'],"['https://ok.ru/sberbank', 'https://vk.com/sberbank']",75,47,49,,89,42,,,,2024-10-03 11:47:03
163,sberbank/76541561557,СберБанк,"Вешняковская ул., 18А, Москва",www.sberbank.com,"'mon': 10:00-19:00, 'tue': 10:00-19:00, 'wed': 10:00-19:00, 'thu': 10:00-19:00, 'fri': 10:00-19:00, 'sat': 10:00-17:00, 'sun': выходной",55.723389,37.825182,"4,6",['8 (800) 555-55-50Показать телефон'],"['http://ok.ru/sberbank', 'https://vk.com/sberbank']",79,75,67,,80,,,,,2024-10-03 11:47:03
164,sberbank/1122211559,СберБанк,"ул. Борисовские Пруды, 26, Москва",www.sberbank.com,"'mon': 08:30-19:30, 'tue': 08:30-19:30, 'wed': 08:30-19:30, 'thu': 08:30-19:30, 'fri': 08:30-19:30, 'sat': 09:00-16:00, 'sun': 10:00-15:00",55.639964,37.758212,"4,7",['8 (800) 555-55-50Показать телефон'],"['https://ok.ru/sberbank', 'https://t.me/sberbank', 'https://vk.com/sberbank']",78,64,87,80,90,55,,,,2024-10-03 11:47:03
165,sberbank/1085479428,СберБанк,"Шипиловская ул., 32, Москва",www.sberbank.com,"'mon': выходной, 'tue': выходной, 'wed': выходной, 'thu': выходной, 'fri': выходной, 'sat': выходной, 'sun': выходной",55.619879,37.719028,"4,7",['8 (800) 555-55-50Показать телефон'],"['http://ok.ru/sberbank', 'https://vk.com/sberbank']",88,79,59,,97,52,,,,2024-10-03 11:47:03
166,sberbank/1032725977,СберБанк,"Юбилейный просп., 41А, Химки",www.sberbank.com,"'mon': 09:00-18:00, 'tue': 09:00-18:00, 'wed': 09:40-18:00, 'thu': 09:00-18:00, 'fri': 09:00-18:00, 'sat': выходной, 'sun': выходной",55.890487,37.410789,"4,6",['8 (800) 555-55-50Показать телефон'],"['http://ok.ru/sberbank', 'https://vk.com/sberbank']",81,61,33,85,,,,,,2024-10-03 11:47:03
167,sberbank/1153685529,СберБанк,"ул. М.К. Тихонравова, 36, микрорайон Юбилейный, Королёв",www.sberbank.com,"'mon': 09:00-18:30, 'tue': 09:00-18:30, 'wed': 09:00-18:30, 'thu': 09:00-18:30, 'fri': 09:00-18:30, 'sat': 10:00-15:00, 'sun': выходной",55.936757,37.846338,"4,8",['8 (800) 555-55-50Показать телефон'],"['http://ok.ru/sberbank', 'https://t.me/sberbank', 'https://vk.com/sberbank']",84,65,42,,87,31,,,,2024-10-03 11:47:03
168,sberbank/37614298216,СберБанк,"Люсиновская ул., 26-28к6, Москва",www.sberbank.com,"'mon': 09:00-19:30, 'tue': 09:00-19:30, 'wed': 09:00-19:30, 'thu': 09:00-19:30, 'fri': 09:00-19:30, 'sat': 09:30-17:30, 'sun': выходной",55.725143,37.621759,"4,4",['8 (800) 555-55-50Показать телефон'],"['http://ok.ru/sberbank', 'https://t.me/sberbank', 'https://vk.com/sberbank']",82,72,74,53,88,70,,,,2024-10-03 11:47:03
169,sberbank/1059775730,СберБанк,"Первомайская ул., 40, Долгопрудный",www.sberbank.com,"'mon': 09:30-18:30, 'tue': 09:30-18:30, 'wed': 09:30-18:30, 'thu': 09:30-18:30, 'fri': 09:30-18:30, 'sat': 09:30-16:00, 'sun': выходной",55.933839,37.520399,"4,7",['8 (800) 555-55-50Показать телефон'],"['https://ok.ru/sberbank', 'https://vk.com/sberbank']",81,65,60,,85,67,,,58,2024-10-03 11:47:03
170,sberbank/1018962139,СберБанк,"3-й Митинский пер., 6, корп. 1, Москва",www.sberbank.com,"'mon': 09:30-19:00, 'tue': 09:30-19:00, 'wed': 09:30-19:00, 'thu': 09:30-19:00, 'fri': 09:30-19:00, 'sat': 09:30-16:30, 'sun': выходной",55.847442,37.352385,"4,7",['8 (800) 555-55-50Показать телефон'],"['http://ok.ru/sberbank', 'https://vk.com/sberbank']",84,66,76,,96,,,,,2024-10-03 11:47:03
171,sberbank/1040859940,СберБанк,"ул. Академика Миллионщикова, 19, Москва",www.sberbank.com,"'mon': 10:00-19:00, 'tue': 10:00-19:00, 'wed': 10:00-19:00, 'thu': 10:00-19:00, 'fri': 10:00-19:00, 'sat': 10:00-16:00, 'sun': выходной",55.668341,37.648609,"4,4",['8 (800) 555-55-50Показать телефон'],"['https://ok.ru/sberbank', 'https://vk.com/sberbank']",88,80,47,,100,20,,,,2024-10-03 11:47:03
172,sberbank/1700496759,СберБанк,"Сиреневый бул., 29/45к3, Москва",www.sberbank.com,"'mon': 09:00-19:30, 'tue': 09:00-19:30, 'wed': 09:00-19:30, 'thu': 09:00-19:30, 'fri': 09:00-19:30, 'sat': 09:30-16:00, 'sun': выходной",55.803459,37.798224,"4,4",['8 (800) 555-55-50Показать телефон'],"['http://ok.ru/sberbank', 'https://t.me/sberbank', 'https://vk.com/bankdruzey']",78,58,51,,87,82,,,,2024-10-03 11:47:03
173,sberbank/1055110223,СберБанк,"Советская ул., 40, микрорайон Первомайский, Королёв",www.sberbank.com,"'mon': выходной, 'tue': 09:00-18:30, 'wed': 09:00-18:30, 'thu': 09:00-18:30, 'fri': 09:00-18:30, 'sat': 09:00-16:00, 'sun': выходной",55.941707,37.867331,"4,7",['8 (800) 555-55-50Показать телефон'],"['http://ok.ru/sberbank', 'https://vk.com/sberbank']",87,75,30,,100,,,,,2024-10-03 11:47:03
174,sberbank/97140927564,СберБанк,"Череповецкая ул., 20, Москва",www.sberbank.com,"'mon': 08:30-20:00, 'tue': 08:30-20:00, 'wed': 08:30-20:00, 'thu': 08:30-20:00, 'fri': 08:30-20:00, 'sat': 09:00-17:00, 'sun': 10:00-15:00",55.897630,37.581047,"4,7",['8 (800) 555-55-50Показать телефон'],"['https://ok.ru/sberbank', 'https://vk.com/sberbank']",78,74,69,90,87,81,,65,77,2024-10-03 11:47:03
175,sberbank/1038114324,СберБанк,"Цветной бул., 1, Москва",www.sberbank.com,"'mon': 09:30-19:30, 'tue': 09:30-19:30, 'wed': 09:30-19:30, 'thu': 09:30-19:30, 'fri': 09:30-19:30, 'sat': 11:00-15:00, 'sun': выходной",55.767762,37.620743,"4,3",['8 (800) 555-55-50Показать телефон'],"['https://ok.ru/sberbank', 'https://t.me/sberbank', 'https://vk.com/sberbank']",81,49,61,,94,,,,,2024-10-03 11:47:03
176,sberbank/1033986670,СберБанк,"Силикатная ул., 39, Мытищи",www.sberbank.com,"'mon': 09:30-18:30, 'tue': 09:30-18:30, 'wed': 09:30-18:30, 'thu': 09:30-18:30, 'fri': 09:30-18:30, 'sat': выходной, 'sun': выходной",55.940296,37.778694,"4,4",['8 (800) 555-55-50Показать телефон'],"['http://ok.ru/sberbank', 'https://vk.com/sberbank']",85,52,28,,,11,,,,2024-10-03 11:47:03
177,sberbank/1076065473,СберБанк,"ул. Лескова, 8, Москва",www.sberbank.com,"'mon': 08:30-20:00, 'tue': 08:30-20:00, 'wed': 08:30-20:00, 'thu': 08:30-20:00, 'fri': 08:30-20:00, 'sat': 09:00-17:30, 'sun': выходной",55.897620,37.596130,"4,4",['8 (800) 555-55-50Показать телефон'],"['http://ok.ru/sberbank', 'https://vk.com/sberbank']",71,49,66,73,97,,,,,2024-10-03 11:47:03
178,sberbank/1082081308,СберБанк,"ул. Народного Ополчения, 39, корп. 1, Москва",www.sberbank.com,"'mon': 09:00-19:30, 'tue': 09:00-19:30, 'wed': 09:00-19:30, 'thu': 09:00-19:30, 'fri': 09:00-19:30, 'sat': 09:30-17:00, 'sun': выходной",55.791061,37.488494,"4,6",['8 (800) 555-55-50Показать телефон'],"['https://ok.ru/sberbank', 'https://t.me/sberbank', 'https://vk.com/sberbank']",89,71,82,,93,83,,,,2024-10-03 11:47:03
179,sberbank/1261868773,СберБанк,"Бескудниковский бул., 40, корп. 3, Москва",www.sberbank.com,"'mon': 09:00-19:00, 'tue': 09:00-19:00, 'wed': 09:00-19:00, 'thu': 09:00-19:00, 'fri': 09:00-19:00, 'sat': выходной, 'sun': выходной",55.874112,37.551222,"4,4",['8 (800) 555-55-50Показать телефон'],"['http://ok.ru/sberbank', 'https://vk.com/sberbank']",82,41,42,,72,47,,,,2024-10-03 11:47:03
180,sberbank/1214262643,СберБанк,"ул. Академика Каргина, 21, Мытищи",www.sberbank.com,"'mon': 09:00-18:00, 'tue': 09:00-18:00, 'wed': 09:00-18:00, 'thu': 09:00-18:00, 'fri': 09:00-18:00, 'sat': выходной, 'sun': выходной",55.916719,37.774445,"4,4",['8 (800) 555-55-50Показать телефон'],"['http://ok.ru/sberbank', 'https://vk.com/sberbank']",74,43,52,,87,17,,,,2024-10-03 11:47:03
181,sberbank/1055613851,СберБанк,"Озёрная ул., 10, Москва",www.sberbank.com,"'mon': 08:30-20:00, 'tue': 09:00-20:00, 'wed': 08:30-20:00, 'thu': 08:30-20:00, 'fri': 08:30-20:00, 'sat': 09:00-16:00, 'sun': выходной",55.681291,37.458579,"4,6",['8 (800) 555-55-50Показать телефон'],"['https://ok.ru/sberbank', 'https://vk.com/sberbank']",75,65,62,62,79,75,,,,2024-10-03 11:47:03
182,sberbank/89186739078,СберБанк,"просп. Вернадского, 97, корп. 1, Москва",www.sberbank.com,"'mon': 10:00-19:30, 'tue': 10:00-19:30, 'wed': 10:00-19:30, 'thu': 10:00-19:30, 'fri': 10:00-19:30, 'sat': выходной, 'sun': выходной",55.667158,37.491386,"4,5",['8 (800) 555-55-50Показать телефон'],"['https://ok.ru/sberbank', 'https://vk.com/sberbank']",92,85,91,,94,,,,,2024-10-03 11:47:03
183,sberbank/1051809560,СберБанк,"Новочеркасский бул., 41, корп. 2, Москва",www.sberbank.com,"'mon': 09:00-19:00, 'tue': 09:00-19:00, 'wed': 09:00-19:00, 'thu': 09:00-19:00, 'fri': 09:00-19:00, 'sat': 09:30-16:00, 'sun': выходной",55.648541,37.735383,"4,4",['8 (800) 555-55-50Показать телефон'],"['https://ok.ru/sber/', 'https://vk.com/sberbank']",84,60,18,,83,13,,,,2024-10-03 11:47:03
184,sberbank/216083337391,СберБанк,"ул. Вавилова, 19, Москва",www.sberbank.com,"'mon': 08:30-19:30, 'tue': 08:30-19:30, 'wed': 08:30-19:30, 'thu': 08:30-19:30, 'fri': 08:30-19:30, 'sat': 09:30-15:00, 'sun': выходной",55.700182,37.580157,"4,9",['8 (800) 555-55-50Показать телефон'],['https://vk.com/sberbank'],78,78,,,,,,,,2024-10-03 11:47:03
185,sberbank/1092960272,СберБанк,"Варшавское ш., 76, корп. 1, Москва",www.sberbank.com,"'mon': 09:00-19:30, 'tue': 09:00-19:30, 'wed': 09:00-19:30, 'thu': 09:00-19:30, 'fri': 09:00-19:30, 'sat': 09:30-16:30, 'sun': выходной",55.654528,37.618731,"4,5",['8 (800) 555-55-50Показать телефон'],"['http://ok.ru/sberbank', 'https://t.me/sberbank', 'https://vk.com/sberbank']",83,73,75,82,95,42,,,,2024-10-03 11:47:03
186,sberbank/145342135950,СберБанк,"Москва, Новомосковский административный округ, район Коммунарка, улица Александры Монаховой, 97, стр. 1",www.sberbank.com,"'mon': 09:30-19:00, 'tue': 09:30-19:00, 'wed': 09:30-19:00, 'thu': 09:30-19:00, 'fri': 09:30-19:00, 'sat': 11:00-16:00, 'sun': выходной",55.540542,37.491098,"4,6",['8 (800) 555-55-50Показать телефон'],"['http://ok.ru/sberbank', 'https://vk.com/sberbank']",74,57,80,,89,33,,,,2024-10-03 11:47:03
187,sberbank/118642499156,СберБанк,"1-я Вольская ул., 22, корп. 1, Москва",www.sberbank.com,"'mon': 09:00-19:00, 'tue': 09:00-19:00, 'wed': 09:00-19:00, 'thu': 09:00-19:00, 'fri': 09:00-19:00, 'sat': 09:00-16:00, 'sun': выходной",55.683123,37.926521,"4,8",['8 (800) 555-55-50Показать телефон'],"['http://ok.ru/sberbank', 'https://t.me/Sber_Business_Live_bot', 'https://vk.com/careersber']",85,80,89,91,92,84,,,,2024-10-03 11:47:03
188,sberbank/1075023786,СберБанк,"Челябинская ул., 15, Москва",www.sberbank.com,"'mon': 09:30-19:30, 'tue': 09:30-19:30, 'wed': 09:30-19:30, 'thu': 09:30-19:30, 'fri': 09:30-19:30, 'sat': 09:30-16:30, 'sun': выходной",55.778791,37.827589,"4,4",['8 (800) 555-55-50Показать телефон'],"['https://ok.ru/sber/', 'https://vk.com/sberbank']",80,66,56,,82,71,,,,2024-10-03 11:47:03
189,sberbank/1109033786,СберБанк,"ул. Алабяна, 13, корп. 1, Москва",www.sberbank.com,"'mon': 09:30-19:00, 'tue': 09:30-19:00, 'wed': 09:30-19:00, 'thu': 09:30-19:00, 'fri': 09:30-19:00, 'sat': 09:30-15:30, 'sun': выходной",55.799887,37.506118,"4,5",['8 (800) 555-55-50Показать телефон'],"['http://ok.ru/sberbank', 'https://vk.com/sberbank']",82,66,77,,91,71,,,,2024-10-03 11:47:03
190,sberbank/1001719578,СберБанк,"Полярная ул., 1, Москва",www.sberbank.com,"'mon': 08:30-20:00, 'tue': 08:30-20:00, 'wed': 08:30-20:00, 'thu': 08:30-20:00, 'fri': 08:30-20:00, 'sat': 09:00-18:00, 'sun': выходной",55.871683,37.637245,"4,5",['8 (800) 555-55-50Показать телефон'],"['https://ok.ru/sberbank', 'https://vk.com/sberbank']",82,59,50,,89,62,,27,,2024-10-03 11:47:03
191,sberbank/1226249539,СберБанк,"Лётная ул., 40, Мытищи",www.sberbank.com,"'mon': 09:00-18:30, 'tue': 09:00-18:30, 'wed': 09:00-18:30, 'thu': 09:00-18:30, 'fri': 09:00-18:30, 'sat': выходной, 'sun': выходной",55.903474,37.711707,"4,6",['8 (800) 555-55-50Показать телефон'],"['http://ok.ru/sberbank', 'https://vk.com/sberbank']",86,59,68,,86,35,,,,2024-10-03 11:47:03
192,sberbank/78687331961,СберБанк,"Зубовский бул., вл13с1, Москва",www.sberbank.com,"'mon': 09:00-18:00, 'tue': 09:00-18:00, 'wed': 09:00-18:00, 'thu': 09:00-18:00, 'fri': 09:00-18:00, 'sat': выходной, 'sun': выходной",55.735703,37.592222,"4,4",['8 (800) 555-55-50Показать телефон'],"['https://ok.ru/sber/', 'https://vk.com/sberbank']",71,57,90,,91,67,,,,2024-10-03 11:47:03
193,sberbank/1011010028,СберБанк,"Тверская ул., 22, Москва",www.sberbank.com,"'mon': 09:30-20:00, 'tue': 09:30-20:00, 'wed': 09:30-20:00, 'thu': 09:30-20:00, 'fri': 09:30-20:00, 'sat': 10:00-16:00, 'sun': выходной",55.767590,37.600945,"4,6",['8 (800) 555-55-50Показать телефон'],"['https://ok.ru/sber/', 'https://t.me/sberbank', 'https://vk.com/sberbank']",81,67,84,,94,62,,73,81,2024-10-03 11:47:03
194,sberbank/1027516913,СберБанк,"Судостроительная ул., 32, Москва",www.sberbank.com,"'mon': 08:30-19:00, 'tue': 08:30-19:00, 'wed': 08:30-19:00, 'thu': 08:30-19:00, 'fri': 08:30-19:00, 'sat': 09:00-16:30, 'sun': выходной",55.683823,37.686239,"4,5",['8 (800) 555-55-50Показать телефон'],"['http://ok.ru/sberbank', 'https://vk.com/sberbank']",84,64,66,,100,42,,,,2024-10-03 11:47:03
195,sberbank/1101057062,СберБанк,"бул. Адмирала Ушакова, 5, Москва",www.sberbank.com,"'mon': 08:30-20:00, 'tue': 08:30-20:00, 'wed': 08:30-20:00, 'thu': 08:30-20:00, 'fri': 08:30-20:00, 'sat': 09:00-17:00, 'sun': 09:00-15:00",55.546914,37.552633,"4,7",['8 (800) 555-55-50Показать телефон'],"['https://ok.ru/sberbank', 'https://vk.com/sberbank']",78,69,87,,98,93,,,,2024-10-03 11:47:03
196,sberbank/1345841588,СберБанк,"просп. Мельникова, 2Б, Химки",www.sberbank.com,"'mon': 09:00-19:00, 'tue': 09:00-19:00, 'wed': 09:00-19:00, 'thu': 09:00-19:00, 'fri': 09:00-19:00, 'sat': 09:00-17:00, 'sun': выходной",55.901183,37.407538,"4,7",['8 (800) 555-55-50Показать телефон'],"['http://ok.ru/sberbank', 'https://vk.com/sberbank']",81,60,54,,84,,,,,2024-10-03 11:47:03
197,sberbank/1022908343,СберБанк,"ул. Плещеева, 4, Москва",www.sberbank.com,"'mon': выходной, 'tue': выходной, 'wed': выходной, 'thu': выходной, 'fri': выходной, 'sat': выходной, 'sun': выходной",55.883742,37.606514,"4,4",['8 (800) 555-55-50Показать телефон'],"['https://ok.ru/sberbank', 'https://vk.com/sberbank']",78,59,63,,91,90,,,,2024-10-03 11:47:03
198,sberbank/138363271928,СберБанк,"ул. Мичуринский Проспект, Олимпийская Деревня, 3, Москва",www.sberbank.com,"'mon': 09:00-19:30, 'tue': 09:00-19:30, 'wed': 09:00-19:30, 'thu': 09:00-19:30, 'fri': 09:00-19:30, 'sat': 09:00-16:30, 'sun': выходной",55.675986,37.466719,"4,4",['8 (800) 555-55-50Показать телефон'],"['http://ok.ru/sberbank', 'https://vk.com/sberbank']",79,61,25,,88,20,,,,2024-10-03 11:47:03
199,sberbank/91013428713,СберБанк,"Щёлковское ш., 6, Москва",www.sberbank.com,"'mon': 09:00-20:00, 'tue': 09:00-20:00, 'wed': 09:00-20:00, 'thu': 09:00-20:00, 'fri': 09:00-20:00, 'sat': 09:30-15:30, 'sun': выходной",55.803854,37.760513,"4,6",['8 (800) 555-55-50Показать телефон'],"['https://ok.ru/sberbank', 'https://vk.com/sberbank']",79,61,70,,77,,,,,2024-10-03 11:47:03
200,sberbank/1236881705,СберБанк,"Живописная ул., 6, корп. 1, Москва",www.sberbank.com,"'mon': 09:30-19:00, 'tue': 09:30-19:00, 'wed': 09:30-19:00, 'thu': 09:30-19:00, 'fri': 09:30-19:00, 'sat': 10:00-16:00, 'sun': выходной",55.781874,37.457043,"4,6",['8 (800) 555-55-50Показать телефон'],"['https://ok.ru/sberbank', 'https://vk.com/sberbank']",84,62,82,,98,67,,,,2024-10-03 11:47:03
201,sberbank/1021508056,СберБанк,"Новомытищинский просп., 82, Мытищи",www.sberbank.com,"'mon': 09:30-18:30, 'tue': выходной, 'wed': 09:30-18:30, 'thu': 09:30-18:30, 'fri': 09:30-18:30, 'sat': выходной, 'sun': выходной",55.902243,37.722667,"4,4",['8 (800) 555-55-50Показать телефон'],"['https://ok.ru/sberbank', 'https://vk.com/sberbank']",78,65,38,,92,0,,,,2024-10-03 11:47:03
202,sberbank/1221636534,СберБанк,"Большая Черкизовская ул., 22, корп. 1, Москва",www.sberbank.com,"'mon': 10:00-18:30, 'tue': 10:00-18:30, 'wed': 10:00-18:30, 'thu': 10:00-18:30, 'fri': 10:00-18:30, 'sat': выходной, 'sun': выходной",55.798617,37.735342,"4,4",['8 (800) 555-55-50Показать телефон'],"['https://ok.ru/sber/', 'https://t.me/sberbank', 'https://vk.com/sberbank']",84,40,20,,83,15,,,,2024-10-03 11:47:03
203,sberbank/1056682434,СберБанк,"Ленинградский просп., 76, корп. 2, Москва",www.sberbank.com,"'mon': 08:30-20:00, 'tue': 08:30-20:00, 'wed': 08:30-20:00, 'thu': 08:30-20:00, 'fri': 08:30-20:00, 'sat': 10:00-16:00, 'sun': выходной",55.806474,37.515290,"4,3",['8 (800) 555-55-50Показать телефон'],"['https://ok.ru/sber/', 'https://vk.com/sberbank']",81,66,48,,76,4,,,,2024-10-03 11:47:03
204,sberbank/1010704601,СберБанк,"посёлок Развилка, 29А",www.sberbank.com,"'mon': 09:30-18:30, 'tue': 09:30-18:30, 'wed': 09:30-18:30, 'thu': 09:30-18:30, 'fri': 09:30-18:30, 'sat': выходной, 'sun': выходной",55.589030,37.754359,"4,2",['8 (800) 555-55-50Показать телефон'],"['https://ok.ru/sberbank', 'https://vk.com/sberbank']",73,42,10,,,10,,,,2024-10-03 11:47:03
205,sberbank/1072443753,СберБанк,"Верхняя Первомайская ул., 59/35к2, Москва",www.sberbank.com,"'mon': 09:30-19:30, 'tue': 09:30-19:30, 'wed': 09:30-19:30, 'thu': 09:30-19:30, 'fri': 09:30-19:30, 'sat': 10:30-17:00, 'sun': выходной",55.799558,37.804225,"4,6",['8 (800) 555-55-50Показать телефон'],"['http://ok.ru/sberbank', 'https://vk.com/sberbank']",86,81,48,100,95,,,,,2024-10-03 11:47:03
206,sberbank/1021171198,СберБанк,"ул. Дубки, 2А, Москва",www.sberbank.com,"'mon': 10:00-19:00, 'tue': 09:00-19:00, 'wed': 10:00-19:00, 'thu': 10:00-19:00, 'fri': 10:00-19:00, 'sat': 10:00-16:00, 'sun': выходной",55.817335,37.569261,"4,4",['8 (800) 555-55-50Показать телефон'],"['https://ok.ru/sberbank', 'https://vk.com/sberbank']",75,68,40,,94,25,,,,2024-10-03 11:47:03
207,sberbank/1042484889,СберБанк,"Барвихинская ул., 8, Москва",www.sberbank.com,"'mon': 09:30-18:30, 'tue': 09:00-19:00, 'wed': 09:30-18:30, 'thu': 09:30-18:30, 'fri': 09:30-18:30, 'sat': выходной, 'sun': выходной",55.716645,37.387632,"4,4",['8 (800) 555-55-50Показать телефон'],"['http://ok.ru/sberbank', 'https://vk.com/sberbank']",86,59,4,,86,3,,,,2024-10-03 11:47:03
208,sberbank/1010228810,СберБанк,"Пятницкое ш., 25, корп. 1, Москва",www.sberbank.com,"'mon': 10:00-20:00, 'tue': 10:00-20:00, 'wed': 10:00-20:00, 'thu': 10:00-20:00, 'fri': 10:00-20:00, 'sat': 09:30-16:00, 'sun': выходной",55.848413,37.364921,"4,4",['8 (800) 555-55-50Показать телефон'],"['http://ok.ru/sberbank', 'https://vk.com/sberbank']",69,50,62,,100,,,,,2024-10-03 11:47:03
209,sberbank/1130950876,СберБанк,"ул. Шолохова, 16, Москва",www.sberbank.com,"'mon': 08:30-19:30, 'tue': 08:30-19:30, 'wed': 08:30-19:30, 'thu': 08:30-19:30, 'fri': 08:30-19:30, 'sat': 09:30-16:30, 'sun': выходной",55.640020,37.351024,"4,5",['8 (800) 555-55-50Показать телефон'],"['https://ok.ru/sberbank', 'https://t.me/sberbank', 'https://vk.com/sberbank']",82,74,63,,95,,,,,2024-10-03 11:47:03
210,sberbank/1080915176,СберБанк,"Новокосинская ул., 23, Москва",www.sberbank.com,"'mon': 09:30-19:30, 'tue': 09:30-19:30, 'wed': 09:30-19:30, 'thu': 09:30-19:30, 'fri': 09:30-19:30, 'sat': 09:30-17:00, 'sun': выходной",55.741303,37.860818,"4,6",['8 (800) 555-55-50Показать телефон'],"['http://ok.ru/sberbank', 'https://vk.com/sberbank']",80,71,67,,100,,,,,2024-10-03 11:47:03
211,sberbank/1014924376,СберБанк,"Профсоюзная ул., 144, Москва",www.sberbank.com,"'mon': 09:00-18:30, 'tue': 09:00-18:30, 'wed': 09:00-18:30, 'thu': 09:00-18:30, 'fri': 09:00-18:30, 'sat': 09:30-16:00, 'sun': выходной",55.624352,37.508292,"4,4",['8 (800) 555-55-50Показать телефон'],"['http://ok.ru/sberbank', 'https://t.me/sberbank', 'https://vk.com/sberbank']",78,65,77,,100,85,,,,2024-10-03 11:47:03
212,sberbank/1141089392,СберБанк,"Никулинская ул., 25, Москва",www.sberbank.com,"'mon': 08:30-20:00, 'tue': 08:30-20:00, 'wed': 08:30-20:00, 'thu': 08:30-20:00, 'fri': 08:30-20:00, 'sat': 10:00-16:00, 'sun': выходной",55.669630,37.453181,"4,6",['8 (800) 555-55-50Показать телефон'],"['https://ok.ru/sberbank', 'https://t.me/sberbank', 'https://vk.com/sberbank']",76,65,81,75,91,74,,67,75,2024-10-03 11:47:03
213,sberbank/1081974962,СберБанк,"Каланчёвская ул., 15, Москва",www.sberbank.com,"'mon': 09:00-19:00, 'tue': 09:00-19:00, 'wed': 09:00-19:00, 'thu': 09:00-19:00, 'fri': 09:00-19:00, 'sat': 09:00-16:00, 'sun': выходной",55.771520,37.651501,"4,3",['8 (800) 555-55-50Показать телефон'],"['https://ok.ru/sberbank', 'https://t.me/sberbank', 'https://vk.com/sberbank']",81,74,70,38,97,,,,,2024-10-03 11:47:03
214,sberbank/151768878561,СберБанк,"пр. Дежнёва, 27, корп. 1, Москва",www.sberbank.com,"'mon': 09:00-19:30, 'tue': 09:00-19:30, 'wed': 09:00-19:30, 'thu': 09:00-19:30, 'fri': выходной, 'sat': 10:00-17:00, 'sun': выходной",55.870072,37.633975,"4,5",['8 (800) 555-55-50Показать телефон'],"['https://ok.ru/sberbank', 'https://t.me/sberbank', 'https://vk.com/sberbank']",78,58,75,,94,,,,,2024-10-03 11:47:03
215,sberbank/1015728560,СберБанк,"Олимпийский просп., 21, Мытищи",www.sberbank.com,"'mon': 09:30-19:00, 'tue': 09:30-19:00, 'wed': 09:30-19:00, 'thu': 09:30-19:00, 'fri': 09:30-19:00, 'sat': 10:00-15:00, 'sun': выходной",55.925107,37.754224,"4,5",['8 (800) 555-55-50Показать телефон'],"['http://ok.ru/sberbank', 'https://t.me/sberbank', 'https://vk.com/sberbank']",73,60,61,,94,,,,,2024-10-03 11:47:03
216,sberbank/1029799640,СберБанк,"Неманский пр., 9, Москва",www.sberbank.com,"'mon': 09:00-18:00, 'tue': 09:00-18:00, 'wed': 09:00-18:00, 'thu': 09:00-18:00, 'fri': 09:00-18:00, 'sat': выходной, 'sun': выходной",55.810678,37.392517,"4,4",['8 (800) 555-55-50Показать телефон'],"['http://ok.ru/sberbank', 'https://vk.com/sberbank']",92,81,71,89,94,57,,,,2024-10-03 11:47:03
217,sberbank/1194899803,СберБанк,"2-й Покровский пр., 2, Котельники",www.sberbank.com,"'mon': 09:00-20:00, 'tue': 09:00-20:00, 'wed': 09:00-20:00, 'thu': 09:00-20:00, 'fri': 09:00-20:00, 'sat': 10:00-14:00, 'sun': выходной",55.659251,37.855941,"4,6",['8 (800) 555-55-50Показать телефон'],"['https://ok.ru/sberbank', 'https://vk.com/sberbank']",74,55,26,,81,58,,,,2024-10-03 11:47:03
218,sberbank/1128554212,СберБанк,"Лубянский пр., 17, Москва",www.sberbank.com,"'mon': 10:30-19:30, 'tue': 10:30-19:30, 'wed': 10:30-19:30, 'thu': 10:30-19:30, 'fri': 10:30-19:30, 'sat': 10:30-15:30, 'sun': выходной",55.756001,37.633266,"4,1",['8 (800) 555-55-50Показать телефон'],"['https://ok.ru/sber/', 'https://t.me/sberbank', 'https://vk.com/sberbank']",43,35,45,,88,56,,12,,2024-10-03 11:47:03
219,sberbank/1020705043,СберБанк,"Тимирязевская ул., 10/12, Москва",www.sberbank.com,"'mon': 09:00-19:00, 'tue': 09:00-19:00, 'wed': 09:00-19:00, 'thu': 09:00-19:00, 'fri': 09:00-19:00, 'sat': 09:00-16:30, 'sun': выходной",55.812110,37.568147,"4,4",['8 (800) 555-55-50Показать телефон'],"['https://ok.ru/sberbank', 'https://vk.com/sberbank']",80,59,55,92,92,,,,,2024-10-03 11:47:03
220,sberbank/1117287165,СберБанк,"бул. Маршала Рокоссовского, 18, Москва",www.sberbank.com,"'mon': 09:00-19:30, 'tue': 09:00-19:30, 'wed': 09:00-19:30, 'thu': 09:00-19:30, 'fri': 09:00-19:30, 'sat': 09:30-17:00, 'sun': выходной",55.813304,37.723268,"4,4",['8 (800) 555-55-50Показать телефон'],"['https://ok.ru/sberbank', 'https://vk.com/sberbank']",80,62,38,,91,25,,,,2024-10-03 11:47:03
221,sberbank/88737904817,СберБанк,"Солнцевский просп., 2, стр. 3Г, Москва",www.sberbank.com,"'mon': 08:30-19:30, 'tue': 08:30-19:30, 'wed': 08:30-19:30, 'thu': 08:30-19:30, 'fri': 08:30-19:30, 'sat': 09:00-17:00, 'sun': выходной",55.652695,37.396784,"4,6",['8 (800) 555-55-50Показать телефон'],"['https://ok.ru/sberbank', 'https://vk.com/sberbank']",88,67,86,80,96,,,,,2024-10-03 11:47:03
222,sberbank/1072367573,СберБанк,"Зеленодольская ул., 22/14, Москва",www.sberbank.com,"'mon': 09:00-19:00, 'tue': 09:00-19:00, 'wed': 09:00-19:00, 'thu': 09:00-19:00, 'fri': 09:00-19:00, 'sat': 10:00-16:00, 'sun': выходной",55.712432,37.777041,"4,5",['8 (800) 555-55-50Показать телефон'],"['http://vk.com/sberbank', 'https://ok.ru/sberbank', 'https://t.me/sberbank']",82,72,63,,93,71,,,,2024-10-03 11:47:03
223,sberbank/1028449462,СберБанк,"Юбилейный просп., 73, Химки",www.sberbank.com,"'mon': 09:00-19:00, 'tue': 09:00-19:00, 'wed': 09:00-19:00, 'thu': 09:00-19:00, 'fri': 09:00-19:00, 'sat': 09:30-15:30, 'sun': выходной",55.897832,37.406954,"4,6",['8 (800) 555-55-50Показать телефон'],"['https://ok.ru/sber/', 'https://vk.com/sberbank']",70,57,60,46,86,,,68,61,2024-10-03 11:47:03
224,sberbank/1120408681,СберБанк,"Вешняковская ул., 24Б, Москва",www.sberbank.com,"'mon': 09:00-19:30, 'tue': 09:00-19:30, 'wed': 09:00-19:30, 'thu': 09:00-19:30, 'fri': 09:00-19:30, 'sat': 09:30-16:30, 'sun': выходной",55.720307,37.817564,"4,5",['8 (800) 555-55-50Показать телефон'],"['http://ok.ru/sberbank', 'https://vk.com/sberbank']",76,67,78,,88,92,,,,2024-10-03 11:47:03
225,sberbank/1054407500,СберБанк,"Филёвский бул., 1, Москва",www.sberbank.com,"'mon': 10:00-19:00, 'tue': 10:00-19:00, 'wed': 10:00-19:00, 'thu': 10:00-19:00, 'fri': 10:00-19:00, 'sat': выходной, 'sun': выходной",55.764648,37.494450,"4,6",['8 (800) 555-55-50Показать телефон'],"['http://ok.ru/sberbank', 'https://t.me/sberbank', 'https://vk.com/sberbank']",97,82,,,84,7,,,,2024-10-03 11:47:03
226,sberbank/1019077304,СберБанк,"Брянская ул., 8, Москва",www.sberbank.com,"'mon': 10:00-19:00, 'tue': 10:00-19:00, 'wed': 10:00-19:00, 'thu': 10:00-19:00, 'fri': 10:00-19:00, 'sat': 09:00-16:30, 'sun': 09:30-14:00",55.744723,37.560942,"4,3",['8 (800) 555-55-50Показать телефон'],"['http://ok.ru/sberbank', 'https://vk.com/sberbank']",74,63,50,,88,67,,,,2024-10-03 11:47:03
227,sberbank/1078463481,СберБанк,"Балашиха, микрорайон Дзержинского, 38",www.sberbank.com,"'mon': 09:30-14:45, 'tue': 09:00-19:00, 'wed': 09:00-19:00, 'thu': 09:00-19:00, 'fri': 09:00-19:00, 'sat': 09:30-14:45, 'sun': выходной",55.776902,37.900173,"4,1",['8 (800) 555-55-50Показать телефон'],"['http://ok.ru/sberbank', 'https://vk.com/sberbank']",76,28,8,,69,8,,,,2024-10-03 11:47:03
228,sberbank/90132908781,СберБанк,"ул. Чурилково, 7А, д. Чурилково",www.sberbank.com,"'mon': выходной, 'tue': выходной, 'wed': 09:00-18:00, 'thu': выходной, 'fri': выходной, 'sat': выходной, 'sun': выходной",55.492579,37.833438,"2,1",['8 (800) 555-55-50Показать телефон'],"['http://ok.ru/sberbank', 'https://vk.com/sberbank']",,,,,,,,,,2024-10-03 11:47:03
229,sberbank/1118688568,СберБанк,"7-я Кожуховская ул., 9, Москва",www.sberbank.com,"'mon': 10:00-19:30, 'tue': 10:00-19:30, 'wed': 10:00-19:30, 'thu': 10:00-19:30, 'fri': 10:00-19:30, 'sat': 10:00-16:00, 'sun': выходной",55.710692,37.675109,"4,5",['8 (800) 555-55-50Показать телефон'],"['https://ok.ru/sberbank', 'https://t.me/sber_students_bot', 'https://vk.com/sberbank']",80,63,41,,94,42,,,,2024-10-03 11:47:03
230,sberbank/1026766377,СберБанк,"Юбилейный просп., 24/7, Реутов",www.sberbank.com,"'mon': 09:00-20:00, 'tue': 09:00-20:00, 'wed': 09:00-20:00, 'thu': 09:00-20:00, 'fri': 09:00-20:00, 'sat': 09:00-16:00, 'sun': выходной",55.749179,37.862949,"4,6",['8 (800) 555-55-50Показать телефон'],"['https://ok.ru/sberbank', 'https://vk.com/sberbank']",76,56,58,,93,62,,,,2024-10-03 11:47:03
231,sberbank/1075320959,СберБанк,"Красноармейская ул., 20, Москва",www.sberbank.com,"'mon': выходной, 'tue': выходной, 'wed': выходной, 'thu': выходной, 'fri': выходной, 'sat': выходной, 'sun': выходной",55.800489,37.543641,"4,5",['8 (800) 555-55-50Показать телефон'],"['https://ok.ru/sberbank', 'https://t.me/sberbank', 'https://vk.com/sberbank']",82,70,57,,96,,,,,2024-10-03 11:47:03
232,sberbank/1212799575,СберБанк,"Ташкентская ул., 9, Москва",www.sberbank.com,"'mon': 09:00-19:00, 'tue': 09:00-19:00, 'wed': 09:00-19:00, 'thu': 09:00-19:00, 'fri': 09:00-19:00, 'sat': 10:00-16:00, 'sun': выходной",55.708227,37.819253,"4,5",['8 (800) 555-55-50Показать телефон'],"['https://ok.ru/sberbank', 'https://vk.com/sberbank']",84,68,72,,90,85,,,,2024-10-03 11:47:03
233,sberbank/1126390811,СберБанк,"Жулебинский бул., 9, Москва",www.sberbank.com,"'mon': 10:00-19:00, 'tue': 10:00-19:00, 'wed': 10:00-19:00, 'thu': 10:00-19:00, 'fri': 10:00-19:00, 'sat': 10:00-14:00, 'sun': выходной",55.697833,37.848502,"4,7",['8 (800) 555-55-50Показать телефон'],"['http://ok.ru/sberbank', 'https://vk.com/sberbank']",83,78,79,,100,,,,,2024-10-03 11:47:03
234,sberbank/1117438875,СберБанк,"Люблинская ул., 175, Москва",www.sberbank.com,"'mon': 09:00-20:00, 'tue': 09:00-20:00, 'wed': 09:00-20:00, 'thu': 09:00-20:00, 'fri': 09:00-20:00, 'sat': 09:00-17:00, 'sun': выходной",55.645914,37.747379,"4,6",['8 (800) 555-55-50Показать телефон'],"['http://ok.ru/sberbank', 'https://t.me/sberbank', 'https://vk.com/sberbank']",80,66,64,90,83,80,,,,2024-10-03 11:47:03
235,sberbank/1058219860,СберБанк,"Петрозаводская ул., 8, Москва",www.sberbank.com,"'mon': 08:30-19:30, 'tue': 08:30-19:30, 'wed': 08:30-19:30, 'thu': 08:30-19:30, 'fri': 08:30-19:30, 'sat': 09:00-17:00, 'sun': выходной",55.863773,37.503630,"4,5",['8 (800) 555-55-50Показать телефон'],"['https://ok.ru/sberbank', 'https://vk.com/sberbank']",73,67,80,77,88,,,,,2024-10-03 11:47:03
236,sberbank/56395602542,СберБанк,"ул. Малыгина, 7, Москва",www.sberbank.com,"'mon': 08:30-20:30, 'tue': 08:30-20:30, 'wed': 08:30-20:30, 'thu': 08:30-20:30, 'fri': 08:30-20:30, 'sat': 10:00-18:00, 'sun': 10:00-15:00",55.880304,37.694747,"4,6",['8 (800) 555-55-50Показать телефон'],"['https://ok.ru/sberbank', 'https://vk.com/sberbank']",85,61,60,83,95,71,,,,2024-10-03 11:47:03
237,sberbank/1131965726,СберБанк,"Сокольническая площадь, 9, Москва",www.sberbank.com,"'mon': выходной, 'tue': выходной, 'wed': выходной, 'thu': выходной, 'fri': выходной, 'sat': выходной, 'sun': выходной",55.790448,37.680517,"4,3",['8 (800) 555-55-50Показать телефон'],"['https://ok.ru/sber/', 'https://vk.com/sberbank']",68,53,44,,83,70,,,,2024-10-03 11:47:03
238,sberbank/1093766360,СберБанк,"ул. Намёткина, 11, Москва",www.sberbank.com,"'mon': 09:00-19:00, 'tue': 09:00-19:00, 'wed': 09:00-19:00, 'thu': 09:00-19:00, 'fri': 09:00-19:00, 'sat': 09:00-15:00, 'sun': выходной",55.663157,37.553649,"4,4",['8 (800) 555-55-50Показать телефон'],"['https://ok.ru/sber/', 'https://t.me/sberbank', 'https://vk.com/sberbank']",84,80,79,,95,,,,,2024-10-03 11:47:03
239,sberbank/1013416078,СберБанк,"Голубинская ул., 7, корп. 2, Москва",www.sberbank.com,"'mon': 09:30-19:00, 'tue': 09:30-19:00, 'wed': 09:30-19:00, 'thu': 09:30-19:00, 'fri': 09:30-19:00, 'sat': выходной, 'sun': выходной",55.605999,37.514805,"4,3",['8 (800) 555-55-50Показать телефон'],"['http://ok.ru/sberbank', 'https://vk.com/sberbank']",78,67,24,,80,11,,,,2024-10-03 11:47:03
240,sberbank/170360915505,СберБанк,"МКАД, 24-й километр, 1, посёлок Совхоза имени Ленина",www.sberbank.com,"'mon': выходной, 'tue': 10:00-17:45, 'wed': 10:00-17:45, 'thu': 10:00-17:45, 'fri': 10:00-17:45, 'sat': 10:00-16:45, 'sun': выходной",55.585327,37.724823,"4,3",['8 (800) 555-55-50Показать телефон'],"['https://ok.ru/sberbank', 'https://vk.com/sberbank']",57,41,46,,,,,,,2024-10-03 11:47:03
241,sberbank/1101504261,СберБанк,"Славянский бул., 3, Москва",www.sberbank.com,"'mon': 08:30-19:30, 'tue': 08:30-19:30, 'wed': 08:30-19:30, 'thu': 08:30-19:30, 'fri': 08:30-19:30, 'sat': 10:00-16:00, 'sun': выходной",55.726989,37.473698,"4,3",['8 (800) 555-55-50Показать телефон'],"['http://ok.ru/sberbank', 'https://vk.com/sberbank']",69,61,50,,81,,,,,2024-10-03 11:47:03
242,sberbank/1254022466,СберБанк,"Дмитровское ш., 29, корп. 1, Москва",www.sberbank.com,"'mon': 10:00-19:30, 'tue': 10:00-19:30, 'wed': 10:00-19:30, 'thu': 10:00-19:30, 'fri': 10:00-19:30, 'sat': 10:00-16:00, 'sun': выходной",55.828051,37.571965,"4,4",['8 (800) 555-55-50Показать телефон'],"['https://ok.ru/sber/', 'https://t.me/sberbank', 'https://vk.com/sberbank']",80,71,65,,96,57,,,,2024-10-03 11:47:03
243,sberbank/1078442909,СберБанк,"ул. Римского-Корсакова, 2, Москва",www.sberbank.com,"'mon': 09:00-20:00, 'tue': 09:00-20:00, 'wed': 09:00-20:00, 'thu': 09:00-20:00, 'fri': 09:00-20:00, 'sat': 09:00-17:30, 'sun': выходной",55.869334,37.591242,"4,7",['8 (800) 555-55-50Показать телефон'],"['http://ok.ru/sberbank', 'https://t.me/sberbank', 'https://vk.com/sberbank']",82,71,85,,96,83,,,,2024-10-03 11:47:03
244,sberbank/1198072572,СберБанк,"Юбилейный просп., 60, Химки",www.sberbank.com,"'mon': 09:30-18:30, 'tue': 09:30-18:30, 'wed': 09:30-18:30, 'thu': 09:30-18:30, 'fri': 09:30-18:30, 'sat': 10:30-15:00, 'sun': выходной",55.889048,37.414247,"4,4",['8 (800) 555-55-50Показать телефон'],"['http://ok.ru/sberbank', 'https://vk.com/sberbank']",65,36,24,82,,0,,,,2024-10-03 11:47:03
245,sberbank/1144749384,СберБанк,"Дмитровское ш., 131, корп. 2, Москва",www.sberbank.com,"'mon': 09:00-20:00, 'tue': 09:00-20:00, 'wed': 09:00-20:00, 'thu': 09:00-20:00, 'fri': 09:00-20:00, 'sat': 09:30-17:30, 'sun': выходной",55.889048,37.540659,"4,4",['8 (800) 555-55-50Показать телефон'],"['http://ok.ru/sberbank', 'https://vk.com/sberbank']",77,42,34,85,96,,,,,2024-10-03 11:47:03
246,sberbank/105644001647,СберБанк,"Комсомольская ул., 15А, Люберцы",www.sberbank.com,"'mon': 09:00-19:00, 'tue': 09:00-19:00, 'wed': 09:00-19:00, 'thu': 09:00-19:00, 'fri': 09:00-19:00, 'sat': 09:30-16:30, 'sun': выходной",55.677118,37.882243,"4,8",['8 (800) 555-55-50Показать телефон'],"['https://ok.ru/sberbank', 'https://t.me/sberbank', 'https://vk.com/sberbank']",79,66,46,80,88,53,,,,2024-10-03 11:47:03
247,sberbank/76042338235,СберБанк,"Ходынский бул., 2, Москва",www.sberbank.com,"'mon': 10:00-19:00, 'tue': 10:00-19:00, 'wed': 10:00-19:00, 'thu': 10:00-19:00, 'fri': 10:00-19:00, 'sat': 12:00-16:00, 'sun': выходной",55.789254,37.538080,"4,4",['8 (800) 555-55-50Показать телефон'],"['http://ok.ru/sberbank', 'https://t.me/sberbank', 'https://vk.com/sberbank']",79,62,,,90,,,,,2024-10-03 11:47:03
248,sberbank/54944782791,СберБанк,"Старокачаловская ул., 5А, Москва",www.sberbank.com,"'mon': 10:00-20:00, 'tue': 10:00-20:00, 'wed': 10:00-20:00, 'thu': 10:00-20:00, 'fri': 10:00-20:00, 'sat': 10:00-18:00, 'sun': 10:00-15:00",55.569851,37.579053,"4,9",['8 (800) 555-55-50Показать телефон'],['https://vk.com/sberbank'],86,68,73,,85,83,,50,,2024-10-03 11:47:03
249,sberbank/1094675240,СберБанк,"Большая Марфинская ул., 6, Москва",www.sberbank.com,"'mon': 09:00-19:30, 'tue': 09:00-19:30, 'wed': 09:00-19:30, 'thu': 09:00-19:30, 'fri': 09:00-19:30, 'sat': 09:30-17:00, 'sun': выходной",55.832081,37.592725,"4,5",['8 (800) 555-55-50Показать телефон'],"['https://ok.ru/sberbank', 'https://vk.com/sberbank']",80,73,62,80,100,70,,,,2024-10-03 11:47:03
250,sberbank/1150331545,СберБанк,"Трёхгорная ул., 4, посёлок Трёхгорка",www.sberbank.com,"'mon': 09:30-18:00, 'tue': 09:30-18:00, 'wed': 09:30-18:00, 'thu': 09:30-18:00, 'fri': 09:30-18:00, 'sat': выходной, 'sun': выходной",55.695961,37.335681,"4,4",['8 (800) 555-55-50Показать телефон'],"['http://ok.ru/sberbank', 'https://vk.com/sberbank']",86,57,31,,82,13,,,,2024-10-03 11:47:03
251,sberbank/1056987568,СберБанк,"ул. Гурьянова, 55, Москва",www.sberbank.com,"'mon': 09:00-19:00, 'tue': 09:00-19:00, 'wed': 09:00-19:00, 'thu': 09:00-19:00, 'fri': 09:00-19:00, 'sat': выходной, 'sun': выходной",55.680423,37.717070,"4,6",['8 (800) 555-55-50Показать телефон'],"['http://ok.ru/sberbank', 'https://vk.com/sberbank']",80,71,62,,95,75,,60,,2024-10-03 11:47:03
252,sberbank/1225493955,СберБанк,"Мичуринский просп., 26, Москва",www.sberbank.com,"'mon': 09:00-19:30, 'tue': 09:00-19:30, 'wed': 09:00-19:30, 'thu': 09:00-19:30, 'fri': 09:00-19:30, 'sat': 09:00-17:00, 'sun': выходной",55.699903,37.500764,"4,4",['8 (800) 555-55-50Показать телефон'],"['https://ok.ru/sberbank', 'https://vk.com/sberbank']",77,58,75,,78,,,,,2024-10-03 11:47:03
253,sberbank/1092767836,СберБанк,"Перовская ул., 8, корп. 1, Москва",www.sberbank.com,"'mon': 10:00-20:00, 'tue': 10:00-20:00, 'wed': 10:00-20:00, 'thu': 10:00-20:00, 'fri': 10:00-20:00, 'sat': 10:00-15:00, 'sun': выходной",55.746897,37.758644,"4,3",['8 (800) 555-55-50Показать телефон'],"['http://ok.ru/sberbank', 'https://vk.com/sberbank']",81,48,16,85,81,10,,,,2024-10-03 11:47:03
254,sberbank/169251836554,СберБанк,"Центральная ул., 22, посёлок Володарского",www.sberbank.com,"'mon': выходной, 'tue': 09:00-18:00, 'wed': 09:00-18:00, 'thu': 09:00-18:00, 'fri': 09:00-18:00, 'sat': 09:30-13:00, 'sun': выходной",55.501825,37.945961,"3,6",['8 (800) 555-55-50Показать телефон'],"['http://ok.ru/sberbank', 'https://vk.com/sberbank']",65,20,0,,,,,,,2024-10-03 11:47:03
255,sberbank/1255887263,СберБанк,"Сельскохозяйственная ул., 9, Москва",www.sberbank.com,"'mon': 09:00-18:00, 'tue': 09:00-18:00, 'wed': 09:00-18:00, 'thu': 09:00-18:00, 'fri': 09:00-18:00, 'sat': выходной, 'sun': выходной",55.834588,37.645599,"4,3",['8 (800) 555-55-50Показать телефон'],"['http://ok.ru/sberbank', 'https://vk.com/sberbank']",79,62,11,,81,17,,,,2024-10-03 11:47:03
