,ID,name,address,website,opening_hours,lat,lon,rating,phone,social,Персонал,Время ожидания,Банкомат,Расположение,Ипотека,Кредит,График работы,Ремонт,load_time
0,sberbank/1351996786,СберБанк,"ул. Кирова, 108, Новосибирск",www.sberbank.com,"'mon': 09:00-18:30, 'tue': 09:00-18:30, 'wed': 09:00-18:30, 'thu': 09:00-18:30, 'fri': 09:00-18:30, 'sat': 10:00-14:00, 'sun': выходной, ",55.012625,82.952392,"4,4",['8 (800) 555-55-50Показать телефон'],"['http://ok.ru/sberbank', 'https://t.me/sberbank', 'https://vk.com/sberbank', 'https://youtube.com/user/Sberbank']",85,56,54,,,,,,2024-07-29 11:56:15
1,sberbank/1167575935,СберБанк,"Большевистская ул., 151, Новосибирск",www.sberbank.com,"'mon': 10:00-19:00, 'tue': 10:00-19:00, 'wed': выходной, 'thu': 10:00-19:00, 'fri': 10:00-19:00, 'sat': выходной, 'sun': выходной, ",54.996857,82.966424,"4,7",['8 (800) 555-55-50Показать телефон'],"['http://ok.ru/sberbank', 'https://vk.com/sberbank']",84,76,67,100,,,,,2024-07-29 11:56:15
2,sberbank/1032126666,СберБанк,"Серебренниковская ул., 20, Новосибирск",www.sberbank.com,"'mon': 09:00-18:00, 'tue': 09:00-18:00, 'wed': 09:00-18:00, 'thu': 09:00-18:00, 'fri': 09:00-18:00, 'sat': 10:00-15:00, 'sun': выходной, ",55.024743,82.926454,"4,5",['8 (800) 555-55-50Показать телефон'],"['https://ok.ru/sber/', 'https://t.me/sberbank', 'https://vk.com/sberbank']",82,66,56,70,,,,,2024-07-29 11:56:15
3,sberbank/1084557511,СберБанк,"ул. Кирова, 76, Новосибирск",www.sberbank.com,"'mon': 09:30-19:00, 'tue': 09:30-19:00, 'wed': 09:30-19:00, 'thu': 09:30-19:00, 'fri': 09:30-19:00, 'sat': 09:30-15:00, 'sun': выходной, ",55.016827,82.943202,"4,4",['8 (800) 555-55-50Показать телефон'],"['http://ok.ru/sberbank', 'https://vk.com/sberbank']",84,73,91,,,,,,2024-07-29 11:56:15
4,sberbank/1182171426,СберБанк,"Красный просп., 46, Новосибирск",www.sberbank.com,"'mon': 09:00-19:00, 'tue': 09:00-19:00, 'wed': 09:00-19:00, 'thu': 09:00-19:00, 'fri': 09:00-19:00, 'sat': выходной, 'sun': выходной, ",55.033470,82.920511,"4,5",['8 (800) 555-55-50Показать телефон'],"['https://ok.ru/sber/', 'https://t.me/sberbank', 'https://vk.com/sber']",81,69,79,77,66,64,,,2024-07-29 11:56:15
5,sberbank/12146230591,СберБанк,"ул. Покрышкина, 1, Новосибирск",www.sberbank.com,"'mon': 09:00-19:00, 'tue': 09:00-19:00, 'wed': 09:00-19:00, 'thu': 09:00-19:00, 'fri': 09:00-19:00, 'sat': 10:00-17:00, 'sun': 10:00-14:00, ",54.979702,82.894109,"4,5",['8 (800) 555-55-50Показать телефон'],"['https://ok.ru/sber/', 'https://t.me/Sber_Business_Live_bot', 'https://vk.com/careersber']",88,78,,,,,,,2024-07-29 11:56:15
6,sberbank/1104091780,СберБанк,"ул. Дуси Ковальчук, 75, Новосибирск",www.sberbank.ru,"'mon': выходной, 'tue': выходной, 'wed': выходной, 'thu': выходной, 'fri': выходной, 'sat': выходной, 'sun': выходной, ",55.052830,82.894064,"4,6",['8 (800) 555-55-50Показать телефон'],"['https://ok.ru/sber/', 'https://t.me/sberbank', 'https://vk.com/sberbank']",88,63,74,94,90,55,80,,2024-07-29 11:56:15
7,sberbank/1143901419,СберБанк,"Комсомольская ул., 10, Кировский район, Северо-Чемской жилмассив, Новосибирск",www.sberbank.com,"'mon': 09:00-19:00, 'tue': 09:00-19:00, 'wed': 09:00-19:00, 'thu': 09:00-19:00, 'fri': 09:00-19:00, 'sat': 09:00-17:00, 'sun': выходной, ",54.957475,82.964537,"4,7",['8 (800) 555-55-50Показать телефон'],"['http://ok.ru/sberbank', 'https://t.me/sberbank', 'https://vk.com/sberbank']",85,67,72,95,,,70,,2024-07-29 11:56:15
8,sberbank/1149412031,СберБанк,"ул. Бориса Богаткова, 208/1, Новосибирск",www.sberbank.com,"'mon': 09:00-19:00, 'tue': 09:00-19:00, 'wed': 09:00-19:00, 'thu': 09:00-19:00, 'fri': 09:00-19:00, 'sat': 10:00-14:00, 'sun': выходной, ",55.035746,82.976170,"4,4",['8 (800) 555-55-50Показать телефон'],"['https://ok.ru/sber/', 'https://t.me/sberbank', 'https://vk.com/sberbank']",83,51,52,100,,,,73,2024-07-29 11:56:15
9,sberbank/1013009171,СберБанк,"просп. Карла Маркса, 14, Новосибирск",www.sberbank.com,"'mon': 09:00-19:00, 'tue': 09:00-19:00, 'wed': 09:00-19:00, 'thu': 09:00-19:00, 'fri': 09:00-19:00, 'sat': 10:00-16:00, 'sun': выходной, ",54.985829,82.901457,"4,3",['8 (800) 555-55-50Показать телефон'],"['http://ok.ru/sberbank', 'https://vk.com/sberbank', 'https://youtube.com/user/Sberbank']",89,80,,,,,,,2024-07-29 11:56:15
10,sberbank/1109698954,СберБанк,"ул. Гоголя, 1, Новосибирск",www.sberbank.com,"'mon': 09:30-19:30, 'tue': 09:30-19:30, 'wed': 09:30-19:30, 'thu': 09:30-19:30, 'fri': 09:30-19:30, 'sat': 10:00-17:00, 'sun': 10:00-14:00, ",55.042257,82.914097,"4,5",['8 (800) 555-55-50Показать телефон'],"['http://ok.ru/sberbank', 'https://t.me/sberbank', 'https://vk.com/sberbank']",88,79,82,91,,,,,2024-07-29 11:56:15
11,sberbank/1586123336,СберБанк,"ул. Петухова, 74, Новосибирск",www.sberbank.com,"'mon': 09:00-19:00, 'tue': 09:00-19:00, 'wed': 09:00-19:00, 'thu': 09:00-19:00, 'fri': 09:00-19:00, 'sat': 10:00-15:00, 'sun': 10:00-15:00, ",54.938560,82.909703,"4,4",['8 (800) 555-55-50Показать телефон'],"['http://ok.ru/sberbank', 'https://t.me/careersber', 'https://vk.com/careersber']",83,60,48,90,,,,,2024-07-29 11:56:15
12,sberbank/145416808499,СберБанк,"просп. Дзержинского, 30/1, Новосибирск",www.sberbank.com,"'mon': 09:00-18:30, 'tue': 09:00-18:30, 'wed': 09:00-18:30, 'thu': 09:00-18:30, 'fri': 09:00-18:30, 'sat': 10:00-15:00, 'sun': выходной, ",55.056223,82.976629,"4,4",['8 (800) 555-55-50Показать телефон'],"['http://ok.ru/sberbank', 'https://vk.com/sber']",86,64,44,75,,,,,2024-07-29 11:56:15
13,sberbank/1328437254,СберБанк,"ул. Кошурникова, 8/1, Новосибирск",www.sberbank.com,"'mon': 09:00-18:30, 'tue': 09:00-18:30, 'wed': 09:00-18:30, 'thu': 09:00-18:30, 'fri': 09:00-18:30, 'sat': выходной, 'sun': выходной, ",55.042896,82.952985,"4,4",['8 (800) 555-55-50Показать телефон'],"['http://ok.ru/sberbank', 'https://t.me/sberbank', 'https://vk.com/sberbank', 'https://youtube.com/user/Sberbank']",95,77,77,95,,,,,2024-07-29 11:56:15
14,sberbank/1113428709,СберБанк,"ул. Титова, 7, Новосибирск",www.sberbank.com,"'mon': 09:30-18:30, 'tue': 09:30-18:30, 'wed': 09:30-18:30, 'thu': 09:30-18:30, 'fri': 09:30-18:30, 'sat': 10:00-16:00, 'sun': выходной, ",54.982192,82.885126,"4,5",['8 (800) 555-55-50Показать телефон'],"['http://ok.ru/sberbank', 'https://vk.com/sberbank']",80,61,38,,,,,,2024-07-29 11:56:15
15,sberbank/1161282114,СберБанк,"Гусинобродское ш., 31/1, Новосибирск",www.sberbank.com,"'mon': 09:00-18:00, 'tue': 09:00-18:00, 'wed': 09:00-18:00, 'thu': 09:00-18:00, 'fri': 09:00-18:00, 'sat': 09:00-13:30, 'sun': выходной, ",55.039048,83.014231,"4,5",['8 (800) 555-55-50Показать телефон'],"['http://ok.ru/sberbank', 'https://vk.com/sberbank']",83,67,71,,,,,,2024-07-29 11:56:15
16,sberbank/209209242957,СберБанк,"ул. Сибиряков-Гвардейцев, 62, Новосибирск",www.sberbank.com,"'mon': 09:30-19:00, 'tue': 09:30-19:00, 'wed': 09:30-19:00, 'thu': 09:30-19:00, 'fri': 09:30-19:00, 'sat': 10:00-14:00, 'sun': выходной, ",54.939254,82.896417,"4,9",['8 (800) 555-55-50Показать телефон'],"['http://ok.ru/sberbank', 'https://vk.com/sberbank']",98,83,91,,,,,,2024-07-29 11:56:15
17,sberbank/173548758603,СберБанк,"Геодезическая ул., 11, Новосибирск",www.sberbank.com,"'mon': 09:30-18:30, 'tue': 09:30-18:30, 'wed': 09:30-18:30, 'thu': 09:30-18:30, 'fri': 09:30-18:30, 'sat': выходной, 'sun': выходной, ",54.988867,82.906632,"4,4",['8 (800) 555-55-50Показать телефон'],"['http://ok.ru/sberbank', 'https://vk.com/sberbank']",77,58,50,,,,,,2024-07-29 11:56:15
18,sberbank/38805053693,СберБанк,"ул. Бориса Богаткова, 206А, Новосибирск",www.sberbank.com,"'mon': 09:30-18:30, 'tue': 09:30-18:30, 'wed': 09:30-18:30, 'thu': 09:30-18:30, 'fri': 09:30-18:30, 'sat': 10:30-14:00, 'sun': выходной, ",55.033042,82.972585,"4,6",['8 (800) 555-55-50Показать телефон'],"['http://ok.ru/sberbank', 'https://t.me/sberbank', 'https://vk.com/sberbank']",91,86,58,,,,,,2024-07-29 11:56:15
19,sberbank/1150199102,СберБанк,"ул. Гоголя, 43/1, Новосибирск",www.sberbank.com,"'mon': 09:30-18:30, 'tue': 09:30-18:30, 'wed': 09:30-18:30, 'thu': 09:30-18:30, 'fri': 09:30-18:30, 'sat': 10:00-14:00, 'sun': выходной, ",55.044361,82.939222,"4,5",['8 (800) 555-55-50Показать телефон'],"['http://ok.ru/sberbank', 'https://t.me/sberbank', 'https://vk.com/sberbank']",90,60,38,90,,,,,2024-07-29 11:56:15
20,sberbank/1079991039,СберБанк,"Оловозаводская ул., 18/1, Кировский район, Северо-Чемской жилмассив, Новосибирск",www.sberbank.com,"'mon': 09:30-19:00, 'tue': 09:30-19:00, 'wed': 09:30-19:00, 'thu': 09:30-19:00, 'fri': 09:30-19:00, 'sat': 10:00-14:00, 'sun': выходной, ",54.963036,82.951269,"4,4",['8 (800) 555-55-50Показать телефон'],"['https://t.me/sber_students_bot', 'https://vk.com/sberbank']",84,75,26,,,,6,,2024-07-29 11:56:15
21,sberbank/1021007845,СберБанк,"ул. Титова, 27, Новосибирск",www.sberbank.com,"'mon': 09:00-18:30, 'tue': 09:00-18:30, 'wed': 09:00-18:30, 'thu': 09:00-18:30, 'fri': 09:00-18:30, 'sat': 09:00-14:00, 'sun': выходной, ",54.981118,82.870411,"4,4",['8 (800) 555-55-50Показать телефон'],"['http://ok.ru/sberbank', 'https://vk.com/sberbank']",85,71,30,82,,,,,2024-07-29 11:56:15
22,sberbank/1249223568,СберБанк,"ул. Ленина, 59, Новосибирск",www.sberbank.com,"'mon': 09:30-19:00, 'tue': 09:30-19:00, 'wed': 09:30-19:00, 'thu': 09:30-19:00, 'fri': 09:30-19:00, 'sat': 10:00-14:30, 'sun': выходной, ",55.034084,82.900613,"4,4",['8 (800) 555-55-50Показать телефон'],"['https://ok.ru/sberbank', 'https://t.me/sberbank', 'https://vk.com/sberbank']",77,70,31,94,,,,,2024-07-29 11:56:15
23,sberbank/1255085211,СберБанк,"Красный просп., 88, Новосибирск",www.sberbank.com,"'mon': 09:30-18:30, 'tue': 09:30-18:30, 'wed': 09:30-18:30, 'thu': 09:30-18:30, 'fri': 09:30-18:30, 'sat': 10:00-14:30, 'sun': выходной, ",55.050674,82.915723,"4,5",['8 (800) 555-55-50Показать телефон'],"['http://ok.ru/sberbank', 'https://vk.com/sber']",87,66,45,94,,,,,2024-07-29 11:56:15
24,sberbank/1052975719,СберБанк,"Лазурная ул., 17, Новосибирск",www.sberbank.com,"'mon': 09:30-18:30, 'tue': 09:30-18:30, 'wed': 09:30-18:30, 'thu': 09:30-18:30, 'fri': 09:30-18:30, 'sat': 10:30-14:30, 'sun': выходной, ",55.032320,83.013073,"4,3",['8 (800) 555-55-50Показать телефон'],"['http://ok.ru/sberbank', 'https://vk.com/sberbank']",75,65,8,92,,,8,,2024-07-29 11:56:15
25,sberbank/1104873754,СберБанк,"Выборная ул., 125/1, Новосибирск",www.sberbank.com,"'mon': 09:30-18:30, 'tue': 09:30-18:30, 'wed': 09:30-18:30, 'thu': 09:30-18:30, 'fri': выходной, 'sat': выходной, 'sun': выходной, ",55.003534,83.021310,"4,4",['8 (800) 555-55-50Показать телефон'],"['https://ok.ru/sberbank', 'https://vk.com/sberbank']",78,50,,,,,,,2024-07-29 11:56:15
26,sberbank/1072558487,СберБанк,"ул. Пархоменко, 26, Новосибирск",www.sberbank.com,"'mon': 09:00-19:00, 'tue': 09:00-19:00, 'wed': 09:00-19:00, 'thu': 09:00-19:00, 'fri': 09:00-19:00, 'sat': 09:00-15:00, 'sun': выходной, ",54.987555,82.860027,"4,4",['8 (800) 555-55-50Показать телефон'],"['http://ok.ru/sberbank', 'https://vk.com/sberbank', 'https://youtube.com/user/Sberbank']",90,79,47,82,,,,,2024-07-29 11:56:15
27,sberbank/97366815367,СберБанк,"ул. Бориса Богаткова, 262, Новосибирск",www.sberbank.com,"'mon': 09:00-18:00, 'tue': 09:00-18:00, 'wed': 09:00-18:00, 'thu': 09:00-18:00, 'fri': 09:00-18:00, 'sat': выходной, 'sun': выходной, ",55.040508,82.982584,"4,5",['8 (800) 555-55-50Показать телефон'],"['http://ok.ru/sberbank', 'https://vk.com/sberbank']",81,62,68,92,,,,,2024-07-29 11:56:15
28,sberbank/1165122654,СберБанк,"ул. Дуси Ковальчук, 394, Новосибирск",www.sberbank.com,"'mon': 09:30-18:30, 'tue': 09:30-18:30, 'wed': 09:30-18:30, 'thu': 09:30-18:30, 'fri': 09:30-18:30, 'sat': 10:00-14:00, 'sun': выходной, ",55.064602,82.926628,"4,3",['8 (800) 555-55-50Показать телефон'],"['http://ok.ru/sberbank', 'https://vk.com/sberbank', 'https://youtube.com/user/Sberbank']",73,71,56,,,,,,2024-07-29 11:56:15
29,sberbank/1125489269,СберБанк,"Учительская ул., 24, Новосибирск",www.sberbank.com,"'mon': выходной, 'tue': выходной, 'wed': выходной, 'thu': выходной, 'fri': выходной, 'sat': выходной, 'sun': выходной, ",55.079014,82.969459,"4,5",['8 (800) 555-55-50Показать телефон'],"['http://ok.ru/sberbank', 'https://t.me/sberbank', 'https://vk.com/sberbank']",94,74,73,92,,,85,,2024-07-29 11:56:15
30,sberbank/43063623347,СберБанк,"Курганская ул., 38/2, Новосибирск",www.sberbank.com,"'mon': 09:00-19:00, 'tue': 09:00-19:00, 'wed': 09:00-19:00, 'thu': 09:00-19:00, 'fri': 09:00-19:00, 'sat': 09:30-15:00, 'sun': выходной, ",54.970510,82.842043,"4,5",['8 (800) 555-55-50Показать телефон'],"['http://ok.ru/sberbank', 'https://vk.com/sberbank']",93,81,63,92,,,,,2024-07-29 11:56:15
31,sberbank/226146025537,СберБанк,"80, рабочий посёлок Краснообск",www.sberbank.com,"'mon': 09:00-18:30, 'tue': 09:00-18:30, 'wed': 09:00-18:30, 'thu': 09:00-18:30, 'fri': 09:00-18:30, 'sat': 10:00-14:00, 'sun': выходной, ",54.921117,82.990723,"4,3",['8 (800) 555-55-50Показать телефон'],"['http://ok.ru/sberbank', 'https://vk.com/sberbank']",82,64,,,,,,,2024-07-29 11:56:15
32,sberbank/71356051432,СберБанк,"ул. Крылова, 29, Новосибирск",www.sberbank.com,"'mon': 10:00-19:00, 'tue': 10:00-19:00, 'wed': 10:00-19:00, 'thu': 10:00-19:00, 'fri': 10:00-19:00, 'sat': выходной, 'sun': выходной, ",55.041792,82.928470,"4,4",['8 (800) 555-55-50Показать телефон'],"['http://ok.ru/sberbank', 'https://vk.com/sberbank']",84,72,60,,,,,,2024-07-29 11:56:15
33,sberbank/1372581952,СберБанк,"ул. Гребенщикова, 8, Калининский район, микрорайон Родники, Новосибирск",www.sberbank.com,"'mon': 09:00-18:30, 'tue': 09:00-18:30, 'wed': 09:00-18:30, 'thu': 09:00-18:30, 'fri': 09:00-18:30, 'sat': 09:00-18:30, 'sun': выходной, ",55.110239,82.941037,"4,7",['8 (800) 555-55-50Показать телефон'],"['http://ok.ru/sberbank', 'https://t.me/sber_students_bot', 'https://vk.com/sberbank']",82,67,53,82,,,,,2024-07-29 11:56:15
34,sberbank/1171670447,СберБанк,"ул. Зорге, 269, Кировский район, Затулинский жилмассив, Новосибирск",www.sberbank.com,"'mon': 09:30-18:30, 'tue': 09:30-18:30, 'wed': 09:30-18:30, 'thu': 09:30-18:30, 'fri': 09:30-18:30, 'sat': выходной, 'sun': выходной, ",54.933993,82.923134,"4,2",['8 (800) 555-55-50Показать телефон'],"['http://ok.ru/sberbank', 'https://vk.com/sberbank', 'https://youtube.com/user/Sberbank']",81,47,8,,,,,,2024-07-29 11:56:15
35,sberbank/1003224874,СберБанк,"ул. Станиславского, 28, Новосибирск",www.sberbank.com,"'mon': 09:00-19:00, 'tue': 09:00-19:00, 'wed': 09:00-19:00, 'thu': 09:00-19:00, 'fri': 09:00-19:00, 'sat': 10:00-16:00, 'sun': выходной, ",54.975502,82.872190,"4,4",['8 (800) 555-55-50Показать телефон'],"['http://ok.ru/sberbank', 'https://vk.com/sberbank', 'https://youtube.com/user/Sberbank']",86,65,,80,,,,,2024-07-29 11:56:15
36,sberbank/1030832507,СберБанк,"ул. Сибиряков-Гвардейцев, 50, Новосибирск",www.sberbank.com,"'mon': 10:00-18:30, 'tue': 10:00-18:30, 'wed': 10:00-18:30, 'thu': 10:00-18:30, 'fri': 10:00-18:30, 'sat': выходной, 'sun': выходной, ",54.963305,82.900550,"4,3",['8 (800) 555-55-50Показать телефон'],"['http://ok.ru/sberbank', 'https://vk.com/sberbank']",77,67,58,80,,,,,2024-07-29 11:56:15
37,sberbank/1152039759,СберБанк,"ул. Челюскинцев, 30/1, Новосибирск",www.sberbank.com,"'mon': 09:00-18:00, 'tue': 09:00-18:00, 'wed': 09:00-18:00, 'thu': 09:00-18:00, 'fri': 09:00-18:00, 'sat': 10:00-14:00, 'sun': выходной, ",55.039378,82.906749,"4,4",['8 (800) 555-55-50Показать телефон'],"['http://ok.ru/sberbank', 'https://vk.com/sberbank']",86,72,43,,,,,,2024-07-29 11:56:15
38,sberbank/1210856395,СберБанк,"ул. Шмидта, 12, Новосибирск",www.sberbank.com,"'mon': 09:00-19:30, 'tue': 09:00-19:30, 'wed': 09:00-19:30, 'thu': 09:00-19:30, 'fri': 09:00-19:30, 'sat': 10:00-16:00, 'sun': выходной, ",54.975037,83.080653,"4,3",['8 (800) 555-55-50Показать телефон'],"['http://ok.ru/sberbank', 'https://t.me/Sber_Business_Live_bot', 'https://vk.com/sberbank']",84,38,6,,,,,,2024-07-29 11:56:15
39,sberbank/1010710037,СберБанк,"ул. Станиславского, 3, Новосибирск",www.sberbank.com,"'mon': 09:30-18:30, 'tue': 09:30-18:30, 'wed': 09:30-18:30, 'thu': 09:30-18:30, 'fri': 09:30-18:30, 'sat': 10:00-14:00, 'sun': выходной, ",54.990225,82.871076,"4,4",['8 (800) 555-55-50Показать телефон'],"['http://ok.ru/sberbank', 'https://vk.com/sberbank']",98,92,0,,,,,,2024-07-29 11:56:15
40,sberbank/135370174874,СберБанк,"Колхидская ул., 2, Новосибирск",www.sberbank.com,"'mon': 09:00-18:30, 'tue': 09:00-18:30, 'wed': 09:00-18:30, 'thu': 09:00-18:30, 'fri': 09:00-18:30, 'sat': 09:00-18:30, 'sun': выходной, ",54.988619,82.815417,"4,7",['8 (800) 555-55-50Показать телефон'],"['http://ok.ru/sberbank', 'https://t.me/sberbank', 'https://vk.com/sberbank']",87,71,71,95,,,,,2024-07-29 11:56:15
41,sberbank/1247793391,СберБанк,"ул. Мичурина, 23, Новосибирск",www.sberbank.com,"'mon': 09:30-18:30, 'tue': 09:30-18:30, 'wed': 09:30-18:30, 'thu': 09:30-18:30, 'fri': 09:30-18:30, 'sat': выходной, 'sun': выходной, ",55.041349,82.921049,"4,3",['8 (800) 555-55-50Показать телефон'],"['http://ok.ru/sberbank', 'https://t.me/sberbank', 'https://vk.com/sberbank']",67,79,,,,,,,2024-07-29 11:56:15
42,sberbank/1133545194,СберБанк,"ул. Кропоткина, 118, Новосибирск",www.sberbank.com,"'mon': 09:30-18:00, 'tue': 09:30-18:00, 'wed': 09:30-18:00, 'thu': 09:30-18:00, 'fri': 09:30-18:00, 'sat': 10:00-14:00, 'sun': выходной, ",55.054738,82.928478,"4,4",['8 (800) 555-55-50Показать телефон'],"['https://ok.ru/sber/', 'https://t.me/Sber_Business_Live_bot', 'https://vk.com/careersber']",80,52,39,,,,,,2024-07-29 11:56:15
43,sberbank/1175023726,СберБанк,"ул. Дмитрия Донского, 33, Новосибирск",www.sberbank.com,"'mon': 09:30-18:30, 'tue': 09:30-18:30, 'wed': 09:30-18:30, 'thu': 09:30-18:30, 'fri': 09:30-18:30, 'sat': выходной, 'sun': выходной, ",55.063220,82.897585,"4,4",['8 (800) 555-55-50Показать телефон'],"['http://ok.ru/sberbank', 'https://t.me/sberbank', 'https://vk.com/sberbank']",91,83,57,,,,,,2024-07-29 11:56:15
44,sberbank/1053679532,СберБанк,"ул. Героев Революции, 10, Новосибирск",,"'mon': выходной, 'tue': выходной, 'wed': выходной, 'thu': выходной, 'fri': выходной, 'sat': выходной, 'sun': выходной, ",54.973549,83.098476,"4,7",['8 (800) 555-55-50Показать телефон'],"['http://ok.ru/sberbank', 'https://vk.com/sberbank']",86,73,80,100,,,60,,2024-07-29 11:56:15
45,sberbank/6773522089,СберБанк,"Новосибирская ул., 28, Новосибирск",www.sberbank.com,"'mon': 09:00-19:00, 'tue': 09:00-19:00, 'wed': 09:00-19:00, 'thu': 09:00-19:00, 'fri': 09:00-19:00, 'sat': 10:00-15:00, 'sun': выходной, ",54.986966,82.843399,"4,4",['8 (800) 555-55-50Показать телефон'],"['http://ok.ru/sberbank', 'https://vk.com/sberbank']",80,56,46,93,,,,,2024-07-29 11:56:15
46,sberbank/1284564377,СберБанк,"ул. Лыкова, 7, Советский район, микрорайон Академгородок, Новосибирск",www.sberbank.com,"'mon': 09:00-19:00, 'tue': 09:00-19:00, 'wed': 09:00-19:00, 'thu': 09:00-19:00, 'fri': 09:00-19:00, 'sat': 10:00-15:00, 'sun': выходной, ",54.860913,83.084141,"4,5",['8 (800) 555-55-50Показать телефон'],"['https://ok.ru/sber', 'https://t.me/sberbank', 'https://vk.com/sberbank']",84,65,75,69,,,,,2024-07-29 11:56:15
47,sberbank/1133953871,СберБанк,"ул. Макаренко, 22, Калининский район, микрорайон Юбилейный, Новосибирск",www.sberbank.com,"'mon': 09:00-18:30, 'tue': 09:00-18:30, 'wed': 09:00-18:30, 'thu': 09:00-18:30, 'fri': 09:00-18:30, 'sat': выходной, 'sun': выходной, ",55.099073,82.967178,"4,7",['8 (800) 555-55-50Показать телефон'],"['http://ok.ru/sberbank', 'https://vk.com/sberbank']",76,67,58,92,,,,,2024-07-29 11:56:15
48,sberbank/1260352057,СберБанк,"Рассветная ул., 10, Калининский район, микрорайон Снегири, Новосибирск",www.sberbank.com,"'mon': 09:00-19:00, 'tue': 09:00-19:00, 'wed': 09:00-19:00, 'thu': 09:00-19:00, 'fri': 09:00-19:00, 'sat': выходной, 'sun': выходной, ",55.109616,82.975963,"4,4",['8 (800) 555-55-50Показать телефон'],"['http://ok.ru/sberbank', 'https://vk.com/sberbank', 'https://youtube.com/user/Sberbank']",89,66,60,,,,,,2024-07-29 11:56:15
49,sberbank/209452132890,СберБанк,"ул. Богдана Хмельницкого, 11, Новосибирск",www.sberbank.com,"'mon': 09:00-19:00, 'tue': 09:00-19:00, 'wed': 09:00-19:00, 'thu': 09:00-19:00, 'fri': 09:00-19:00, 'sat': 10:00-16:00, 'sun': выходной, ",55.068499,82.939114,"4,6",['8 (800) 555-55-50Показать телефон'],"['http://ok.ru/sberbank', 'https://t.me/sberbank', 'https://vk.com/sberbank']",93,85,,,,,,,2024-07-29 11:56:15
50,sberbank/1114048734,СберБанк,"ул. 40 лет Комсомола, 5, Новосибирск",www.sberbank.com,"'mon': 09:00-19:00, 'tue': 09:00-19:00, 'wed': 09:00-19:00, 'thu': 09:00-19:00, 'fri': 09:00-19:00, 'sat': 10:00-14:00, 'sun': выходной, ",54.859046,82.980536,"4,4",['8 (800) 555-55-50Показать телефон'],"['http://ok.ru/sberbank', 'https://vk.com/sberbank']",83,61,35,,,,,,2024-07-29 11:56:15
51,sberbank/1014888614,СберБанк,"Ученическая ул., 2/1, Новосибирск",www.sberbank.com,"'mon': 09:00-18:30, 'tue': 09:00-18:30, 'wed': 09:00-18:30, 'thu': 09:00-18:30, 'fri': 09:00-18:30, 'sat': выходной, 'sun': выходной, ",54.942258,83.128380,"4,3",['8 (800) 555-55-50Показать телефон'],"['http://ok.ru/sberbank', 'https://vk.com/sberbank']",91,63,69,,,,,,2024-07-29 11:56:15
52,sberbank/164281973051,СберБанк,,www.sberbank.com,"'mon': 09:00-18:00, 'tue': 09:00-18:00, 'wed': 09:00-18:00, 'thu': 09:00-18:00, 'fri': 09:00-16:45, 'sat': выходной, 'sun': выходной, ",55.001979,82.842312,"4,7",['8 (800) 555-55-50Показать телефон'],['https://vk.com/sberbank'],80,86,,,,,,,2024-07-29 11:56:15
53,sberbank/1251769807,СберБанк,"Кубовая ул., 108, Новосибирск",www.sberbank.com,"'mon': выходной, 'tue': 09:00-19:00, 'wed': 09:00-19:00, 'thu': 09:00-19:00, 'fri': 09:00-19:00, 'sat': 09:00-15:00, 'sun': выходной, ",55.130019,82.892986,"4,2",['8 (800) 555-55-50Показать телефон'],"['http://ok.ru/sberbank', 'https://vk.com/sberbank']",79,40,18,,,,,,2024-07-29 11:56:15
54,sberbank/1093768325,СберБанк,"ул. Демакова, 20, Советский район, микрорайон Академгородок, Новосибирск",www.sberbank.com,"'mon': 09:00-19:00, 'tue': 09:00-19:00, 'wed': 09:00-19:00, 'thu': 09:00-19:00, 'fri': 09:00-19:00, 'sat': выходной, 'sun': выходной, ",54.863228,83.109301,"4,3",['8 (800) 555-55-50Показать телефон'],"['http://ok.ru/sberbank', 'https://vk.com/sberbank']",75,64,60,,,,9,,2024-07-29 11:56:15
55,sberbank/1077764958,СберБанк,"Морской просп., 18, Новосибирск",www.sberbank.com,"'mon': 09:00-19:00, 'tue': 09:00-19:00, 'wed': 09:00-19:00, 'thu': 09:00-19:00, 'fri': 09:00-19:00, 'sat': выходной, 'sun': выходной, ",54.839681,83.107369,"4,3",['8 (800) 555-55-50Показать телефон'],"['http://ok.ru/sberbank', 'https://vk.com/sberbank']",82,52,53,,,,,,2024-07-29 11:56:15
56,sberbank/1081452327,СберБанк,"ул. Гидростроителей, 7, Советский район, микрорайон Шлюз, Новосибирск",www.sberbank.com,"'mon': 09:00-18:00, 'tue': 09:00-18:00, 'wed': 09:00-18:00, 'thu': 09:00-18:00, 'fri': 09:00-18:00, 'sat': выходной, 'sun': выходной, ",54.848338,83.045161,"4,4",['8 (800) 555-55-50Показать телефон'],"['http://ok.ru/sberbank', 'https://vk.com/sberbank']",94,86,,,,,,,2024-07-29 11:56:15
57,sberbank/1149177512,СберБанк,"Магистральная ул., 7, Калининский район, микрорайон Пашино, Новосибирск",www.sberbank.com,"'mon': 09:00-18:00, 'tue': 09:00-18:00, 'wed': 09:00-18:00, 'thu': 09:00-18:00, 'fri': 09:00-18:00, 'sat': выходной, 'sun': выходной, ",55.162155,82.979871,"4,4",['8 (800) 555-55-50Показать телефон'],"['http://ok.ru/sberbank', 'https://vk.com/sberbank']",93,63,11,,,,,,2024-07-29 11:56:15
58,sberbank/1131294954,СберБанк,"Советская ул., 1, село Верх-Тула",www.sberbank.com,"'mon': выходной, 'tue': 09:30-16:45, 'wed': 09:30-16:45, 'thu': 09:30-16:45, 'fri': 09:30-16:45, 'sat': выходной, 'sun': выходной, ",54.887010,82.781272,"2,2",['8 (800) 555-55-50Показать телефон'],"['http://ok.ru/sberbank', 'https://vk.com/sberbank']",,,,,,,,,2024-07-29 11:56:15
59,sberbank/1170977516,СберБанк,"ул. Лейтенанта Амосова, 77, Новосибирск",www.sberbank.com,"'mon': 09:15-18:00, 'tue': 09:15-18:00, 'wed': 09:15-18:00, 'thu': 09:15-18:00, 'fri': 09:15-18:00, 'sat': выходной, 'sun': выходной, ",55.160386,82.958348,"3,6",['8 (800) 555-55-50Показать телефон'],"['http://ok.ru/sberbank', 'https://vk.com/sberbank']",,,,,,,,,2024-07-29 11:56:15
60,sberbank/12016000070,СберБанк,"Октябрьская ул., 2А, дачный посёлок Кудряшовский",www.sberbank.com,"'mon': выходной, 'tue': 08:45-17:15, 'wed': 08:45-17:15, 'thu': 08:45-17:15, 'fri': 08:45-17:15, 'sat': 08:45-13:30, 'sun': выходной, ",55.098418,82.771426,"3,8",['8 (800) 555-55-50Показать телефон'],"['http://ok.ru/sberbank', 'https://vk.com/sberbank']",,,,,,,,,2024-07-29 11:56:15
61,sberbank/1021313220,СберБанк,"Линейная ул., 68, станция Мочище",www.sberbank.com,"'mon': выходной, 'tue': 09:00-17:00, 'wed': 09:00-17:00, 'thu': 09:00-17:00, 'fri': выходной, 'sat': выходной, 'sun': выходной, ",55.156960,83.117538,"2,2",['8 (800) 555-55-50Показать телефон'],"['http://ok.ru/sberbank', 'https://vk.com/sberbank']",,,,,,,,,2024-07-29 11:56:15
62,sberbank/1003974662,СберБанк,"Школьная ул., 10, село Ленинское",www.sberbank.ru,"'mon': выходной, 'tue': выходной, 'wed': 09:00-15:45, 'thu': выходной, 'fri': 09:00-15:45, 'sat': выходной, 'sun': выходной, ",54.817739,82.851331,,['8 (800) 555-55-50Показать телефон'],"['http://ok.ru/sberbank', 'https://vk.com/sberbank']",,,,,,,,,2024-07-29 11:56:15
