,ID,name,address,website,opening_hours,lat,lon,rating,phone,social,Персонал,Время ожидания,load_time
0,sberbank/155396487164,СберБанк,"бул. Луначарского, 17А, Озерск",www.sberbank.com,"'mon': 09:00-18:00, 'tue': 09:00-18:00, 'wed': 09:00-18:00, 'thu': 09:00-18:00, 'fri': 09:00-18:00, 'sat': выходной, 'sun': выходной, ",55.755078,60.691401,"4,3",['8 (800) 555-55-50Показать телефон'],"['http://ok.ru/sberbank', 'https://vk.com/sberbank']",67,67,2024-07-30 10:38:05
1,sberbank/1064906941,СберБанк,"Строительная ул., 56, Озерск",www.sberbank.com,"'mon': 09:30-18:30, 'tue': 09:30-18:30, 'wed': 09:30-18:30, 'thu': 09:30-18:30, 'fri': 09:30-18:30, 'sat': выходной, 'sun': выходной, ",55.767048,60.719511,"4,5",['8 (800) 555-55-50Показать телефон'],"['http://ok.ru/sberbank', 'https://vk.com/sberbank']",78,54,2024-07-30 10:38:05
2,sberbank/1186567229,СберБанк,"ул. Республики, 8, Кыштым",www.sberbank.com,"'mon': 09:00-18:00, 'tue': 09:00-18:00, 'wed': 09:00-18:00, 'thu': 09:00-18:00, 'fri': 09:00-18:00, 'sat': выходной, 'sun': выходной, ",55.711032,60.540216,"4,3",['8 (800) 555-55-50Показать телефон'],"['http://ok.ru/sberbank', 'https://vk.com/sberbank']",,,2024-07-30 10:38:05
3,sberbank/1036308728,СберБанк,"просп. Карла Маркса, 4В, Озерск",www.sberbank.ru,"'mon': выходной, 'tue': выходной, 'wed': выходной, 'thu': выходной, 'fri': выходной, 'sat': выходной, 'sun': выходной, ",55.752479,60.684225,"3,7",['8 (800) 555-55-50Показать телефон'],"['http://ok.ru/sberbank', 'https://vk.com/sberbank']",,,2024-07-30 10:38:05
4,sberbank/1178115769,СберБанк,"Октябрьская ул., 15А, посёлок Новогорный",www.sberbank.com,"'mon': выходной, 'tue': выходной, 'wed': выходной, 'thu': 08:30-16:45, 'fri': выходной, 'sat': выходной, 'sun': выходной, ",55.627036,60.787064,"2,9",['8 (800) 555-55-50Показать телефон'],"['http://ok.ru/sberbank', 'https://vk.com/sberbank']",,,2024-07-30 10:38:05
5,sberbank/215745545131,СберБанк,"ул. Карла Либкнехта, 137, Кыштым",www.sberbank.com,"'mon': 09:00-18:00, 'tue': 09:00-18:00, 'wed': 09:00-18:00, 'thu': 09:00-18:00, 'fri': 09:00-18:00, 'sat': выходной, 'sun': выходной, ",55.696920,60.555649,"4,5",['8 (800) 555-55-50Показать телефон'],"['http://ok.ru/sberbank', 'https://vk.com/sberbank']",91,75,2024-07-30 10:38:05
6,sberbank/1186200204,СберБанк,"ул. Возмездия, 39, Кыштым",www.sberbank.com,"'mon': 09:00-17:45, 'tue': 09:00-18:00, 'wed': 09:00-17:45, 'thu': 09:00-17:45, 'fri': выходной, 'sat': выходной, 'sun': выходной, ",55.734329,60.571783,"3,7",['8 (800) 555-55-50Показать телефон'],"['http://ok.ru/sberbank', 'https://vk.com/sberbank']",,,2024-07-30 10:38:05
7,sberbank/80830113033,СберБанк,"просп. Победы, 16, Озерск",,"'mon': выходной, 'tue': выходной, 'wed': выходной, 'thu': выходной, 'fri': выходной, 'sat': выходной, 'sun': выходной, ",55.769474,60.702353,"4,2",['8 (800) 555-55-50Показать телефон'],"['http://ok.ru/sberbank', 'https://vk.com/sberbank']",,,2024-07-30 10:38:05
