,ID,name,address,website,opening_hours,lat,lon,rating,phone,social,Обслуживание,Персонал,Отношение к клиентам,Время ожидания,Банкомат,load_time
0,1035726810,СберБанк,"Привокзальная ул., 12, Новочеркасск",www.sberbank.ru,"'mon': 09:00-18:00, 'tue': 09:00-18:00, 'wed': 09:00-18:00, 'thu': 09:00-18:00, 'fri': 09:00-18:00, 'sat': выходной, 'sun': выходной",47.478179,40.069470,"4,4",['8 (800) 555-55-50Показать телефон'],"['http://ok.ru/sberbank', 'https://vk.com/sberbank']",85,88,90,71,,2024-06-23 04:49:09
1,1009452847,СберБанк,"Советская ул., 41, слобода Красюковская",www.sberbank.ru,"'mon': выходной, 'tue': 08:00-12:00,13:00-16:15, 'wed': 08:00-12:00,13:00-16:15, 'thu': 08:00-12:00,13:00-16:15, 'fri': 08:00-12:00,13:00-16:15, 'sat': 08:00-13:15, 'sun': выходной",47.527662,40.089331,"4,5",['8 (800) 555-55-50Показать телефон'],"['http://ok.ru/sberbank', 'https://vk.com/sberbank']",,,,,,2024-06-23 04:49:09
2,1025765377,СберБанк,"Ровная ул., 1, Новочеркасск",www.sberbank.ru,"'mon': 09:00-18:00, 'tue': 09:00-18:00, 'wed': 09:00-18:00, 'thu': 09:00-18:00, 'fri': 09:00-18:00, 'sat': выходной, 'sun': выходной",47.489907,40.095521,"4,7",['8 (800) 555-55-50Показать телефон'],"['http://ok.ru/sberbank', 'https://vk.com/sberbank']",83,86,84,60,68,2024-06-23 04:49:09
3,1032503413,СберБанк,"ул. Мира, 19, посёлок Персиановский",www.sberbank.ru,"'mon': выходной, 'tue': 08:00-11:30,12:30-16:45, 'wed': 08:00-11:30,12:30-16:45, 'thu': 08:00-11:30,12:30-16:45, 'fri': 08:00-11:30,12:30-16:45, 'sat': 08:00-13:00, 'sun': выходной",47.517006,40.110172,"4,2",['8 (800) 555-55-50Показать телефон'],"['http://ok.ru/sberbank', 'https://vk.com/sberbank']",61,67,64,,,2024-06-23 04:49:09
4,1139689407,СберБанк,"Российская ул., 7, посёлок Казачьи Лагери",www.sberbank.ru,"'mon': выходной, 'tue': 08:00-12:00,13:00-16:30, 'wed': 08:00-12:00,13:00-16:30, 'thu': 08:00-12:00,13:00-16:30, 'fri': 08:00-12:00,13:00-16:30, 'sat': 08:00-14:00, 'sun': выходной",47.555113,40.120243,"4,2",['8 (800) 555-55-50Показать телефон'],"['http://ok.ru/sberbank', 'https://vk.com/sberbank']",,,,,,2024-06-23 04:49:09
5,1085902162,СберБанк,"ул. Визирова, 9/2, Новочеркасск",www.sberbank.ru,"'mon': 08:30-17:30, 'tue': 08:30-17:30, 'wed': 08:30-17:30, 'thu': 08:30-17:30, 'fri': 08:30-17:30, 'sat': выходной, 'sun': выходной",47.484701,40.061690,"4,2",['8 (800) 555-55-50Показать телефон'],"['http://ok.ru/sberbank', 'https://vk.com/sberbank']",73,74,71,67,7,2024-06-23 04:49:09
