,ID,name,address,website,opening_hours,lat,lon,rating,phone,social,Персонал,Время ожидания,Банкомат,Расположение,load_time
0,sberbank/1035726810,СберБанк,"Привокзальная ул., 12, Новочеркасск",www.sberbank.com,"'mon': 09:00-18:00, 'tue': 09:00-18:00, 'wed': 09:00-18:00, 'thu': 09:00-18:00, 'fri': 09:00-18:00, 'sat': выходной, 'sun': выходной, ",47.478179,40.069470,"4,4",['8 (800) 555-55-50Показать телефон'],"['http://ok.ru/sberbank', 'https://vk.com/sberbank']",88,71,,,2024-07-30 09:54:53
1,sberbank/1009452847,СберБанк,"Советская ул., 41, слобода Красюковская",www.sberbank.com,"'mon': выходной, 'tue': 08:00-16:15, 'wed': 08:00-16:15, 'thu': 08:00-16:15, 'fri': выходной, 'sat': выходной, 'sun': выходной, ",47.527662,40.089331,"4,5",['8 (800) 555-55-50Показать телефон'],"['http://ok.ru/sberbank', 'https://vk.com/sberbank']",,,,,2024-07-30 09:54:53
2,sberbank/1025765377,СберБанк,"Ровная ул., 1, Новочеркасск",www.sberbank.com,"'mon': 09:00-18:00, 'tue': 09:00-18:00, 'wed': 09:00-18:00, 'thu': 09:00-18:00, 'fri': 09:00-18:00, 'sat': выходной, 'sun': выходной, ",47.489907,40.095521,"4,7",['8 (800) 555-55-50Показать телефон'],"['http://ok.ru/sberbank', 'https://vk.com/sberbank']",85,57,68,70,2024-07-30 09:54:53
3,sberbank/1032503413,СберБанк,"ул. Мира, 19, посёлок Персиановский",www.sberbank.com,"'mon': выходной, 'tue': 08:00-16:45, 'wed': 08:00-16:45, 'thu': 08:00-16:45, 'fri': 08:00-16:45, 'sat': 08:00-13:00, 'sun': выходной, ",47.517007,40.110172,"4,2",['8 (800) 555-55-50Показать телефон'],"['http://ok.ru/sberbank', 'https://vk.com/sberbank']",,,,,2024-07-30 09:54:53
4,sberbank/1139689407,СберБанк,"Российская ул., 7, посёлок Казачьи Лагери",www.sberbank.com,"'mon': выходной, 'tue': 08:00-16:30, 'wed': 08:00-16:30, 'thu': 08:00-16:30, 'fri': 08:00-16:30, 'sat': 08:00-14:00, 'sun': выходной, ",47.555113,40.120243,"4,2",['8 (800) 555-55-50Показать телефон'],"['http://ok.ru/sberbank', 'https://vk.com/sberbank']",,,,,2024-07-30 09:54:53
5,sberbank/1085902162,СберБанк,"ул. Визирова, 9/2, Новочеркасск",www.sberbank.com,"'mon': 08:30-17:30, 'tue': 08:30-17:30, 'wed': 08:30-17:30, 'thu': 08:30-17:30, 'fri': 08:30-17:30, 'sat': выходной, 'sun': выходной, ",47.484701,40.061690,"4,2",['8 (800) 555-55-50Показать телефон'],"['http://ok.ru/sberbank', 'https://vk.com/sberbank']",74,67,7,,2024-07-30 09:54:53
