,ID,name,address,website,opening_hours,lat,lon,rating,phone,social,Обслуживание,Отношение к клиентам,Персонал,Время ожидания,График работы,Банкомат,Расположение,Ипотека,load_time
0,1030011867,СберБанк,"ул. Ленина, 9, посёлок Большевик",www.sberbank.ru,"'mon': выходной, 'tue': 09:00-13:00,13:30-16:30, 'wed': 09:00-13:00,13:30-16:30, 'thu': 09:00-13:00,13:30-16:30, 'fri': 09:00-13:00,13:30-16:30, 'sat': 09:00-13:00, 'sun': выходной",54.901497,37.358983,"4,3",['8 (800) 555-55-50Показать телефон'],"['http://ok.ru/sberbank', 'https://vk.com/sberbank']",,,,,,,,,2024-06-25 09:26:55
1,1106119347,СберБанк,"Новая ул., 23, Серпухов",www.sberbank.ru,"'mon': выходной, 'tue': 09:00-13:00,13:30-17:30, 'wed': 09:00-13:00,13:30-17:30, 'thu': 09:00-13:00,13:30-17:30, 'fri': 09:00-13:00,13:30-17:30, 'sat': 09:00-14:30, 'sun': выходной",54.936352,37.400108,"4,2",['8 (800) 555-55-50Показать телефон'],"['http://ok.ru/sberbank', 'https://vk.com/sberbank']",58,56,60,33,0,10,,,2024-06-25 09:26:55
2,1168978594,СберБанк,"Рыночный пр., 9, Протвино",www.sberbank.ru,"'mon': выходной, 'tue': выходной, 'wed': выходной, 'thu': выходной, 'fri': выходной, 'sat': выходной, 'sun': выходной",54.872941,37.222111,"4,6",['8 (800) 555-55-50Показать телефон'],"['http://ok.ru/sberbank', 'https://vk.com/sberbank']",73,76,82,58,,,,,2024-06-25 09:26:55
3,56475363501,СберБанк,"ул. Ленина, 2, Кремёнки",www.sberbank.ru,"'mon': 09:00-18:00, 'tue': 09:00-18:00, 'wed': 09:00-18:00, 'thu': 09:00-18:00, 'fri': 09:00-18:00, 'sat': выходной, 'sun': выходной",54.884053,37.122152,"3,3",['8 (800) 555-55-50Показать телефон'],"['http://ok.ru/sberbank', 'https://vk.com/sberbank']",,,,,,,,,2024-06-25 09:26:55
4,1051372083,СберБанк,"ул. Чернышевского, 31, Серпухов",www.sberbank.ru,"'mon': 09:00-18:30, 'tue': 09:00-18:30, 'wed': 09:00-18:30, 'thu': 09:00-18:30, 'fri': 09:00-18:30, 'sat': 09:00-15:00, 'sun': выходной",54.909789,37.387676,"4,6",['8 (800) 555-55-50Показать телефон'],"['http://ok.ru/sberbank', 'https://vk.com/sberbank']",79,79,80,66,,76,92,,2024-06-25 09:26:55
5,1113657828,СберБанк,"просп. Биологов, 1, посёлок Оболенск",www.sberbank.ru,"'mon': выходной, 'tue': 09:00-13:00,14:00-18:00, 'wed': 09:00-13:00,14:00-18:00, 'thu': 09:00-13:00,14:00-18:00, 'fri': 09:00-13:00,14:00-18:00, 'sat': 09:00-14:30, 'sun': выходной",54.972980,37.270274,"4,2",['8 (800) 555-55-50Показать телефон'],"['http://ok.ru/sberbank', 'https://vk.com/sberbank']",80,82,88,8,,,,,2024-06-25 09:26:55
6,1152549549,СберБанк,"площадь 178 авиаполка, 1, село Липицы",www.sberbank.ru,"'mon': выходной, 'tue': выходной, 'wed': 09:00-13:00,13:30-16:15, 'thu': выходной, 'fri': выходной, 'sat': выходной, 'sun': выходной",54.847913,37.484037,"3,1",['8 (800) 555-55-50Показать телефон'],"['http://ok.ru/sberbank', 'https://vk.com/sberbank']",,,,,,,,,2024-06-25 09:26:55
7,1022232861,СберБанк,"ул. Луначарского, 33А, Серпухов",www.sberbank.ru,"'mon': 09:00-18:00, 'tue': 09:00-18:00, 'wed': 09:00-18:00, 'thu': 09:00-18:00, 'fri': 09:00-18:00, 'sat': 09:00-13:00, 'sun': выходной",54.922567,37.413662,"4,6",['8 (800) 555-55-50Показать телефон'],"['http://ok.ru/sberbank', 'https://vk.com/sberbank']",77,77,85,62,36,,69,92,2024-06-25 09:26:55
