,ID,name,address,website,opening_hours,lat,lon,rating,phone,social,Обслуживание,Отношение к клиентам,Персонал,Время ожидания,Банкомат,Расположение,График работы,Ипотека,Кредит,Ремонт,load_time
0,1084908866,СберБанк,"Московская ул., 152, Саратов",www.sberbank.ru,"'mon': 09:00-18:00, 'tue': 09:00-18:00, 'wed': 09:00-18:00, 'thu': 09:00-18:00, 'fri': 09:00-18:00, 'sat': 10:00-15:00, 'sun': выходной",51.538298,46.015670,"4,6",['8 (800) 555-55-50Показать телефон'],"['http://ok.ru/sberbank', 'https://vk.com/sberbank']",85,85,87,61,66,88,55,70,,,2024-06-22 12:16:35
1,1088636507,СберБанк,"Аткарская ул., 66А, Саратов",www.sberbank.ru,"'mon': 08:30-17:30, 'tue': 08:30-17:30, 'wed': 08:30-17:30, 'thu': 08:30-17:30, 'fri': 08:30-17:30, 'sat': выходной, 'sun': выходной",51.540782,46.001133,"4,4",['8 (800) 555-55-50Показать телефон'],"['https://ok.ru/sberbank', 'https://vk.com/sberbank']",88,89,88,76,57,94,,,,,2024-06-22 12:16:35
2,1064202705,СберБанк,"ул. имени Е.И. Пугачёва, 169, Саратов",www.sberbank.ru,"'mon': выходной, 'tue': выходной, 'wed': выходной, 'thu': выходной, 'fri': выходной, 'sat': выходной, 'sun': выходной",51.543864,46.017501,"4,7",['8 (800) 555-55-50Показать телефон'],"['http://ok.ru/sberbank', 'https://vk.com/sberbank']",86,86,87,72,74,95,,,,,2024-06-22 12:16:35
3,36077115938,СберБанк,"ул. имени А.М. Горького, 43, Саратов",www.sberbank.ru,"'mon': 09:00-18:00, 'tue': 09:00-18:00, 'wed': 09:00-18:00, 'thu': 09:00-18:00, 'fri': 09:00-18:00, 'sat': 09:00-14:00, 'sun': выходной",51.533142,46.030925,"4,6",['8 (800) 555-55-50Показать телефон'],"['https://ok.ru/sberbank', 'https://vk.com/sberbank']",78,75,80,61,38,79,70,89,50,,2024-06-22 12:16:35
4,1623650106,СберБанк,"ул. имени Н.И. Вавилова, 1/7, Саратов",www.sberbank.ru,"'mon': 09:00-18:00, 'tue': 09:00-18:00, 'wed': 09:00-18:00, 'thu': 09:00-18:00, 'fri': 09:00-18:00, 'sat': 09:00-14:30, 'sun': выходной",51.533350,46.015775,"4,7",['8 (800) 555-55-50Показать телефон'],"['https://ok.ru/sberbank', 'https://vk.com/sberbank']",76,80,81,70,63,100,,,,,2024-06-22 12:16:35
5,1026124151,СберБанк,"ул. имени В.И. Чапаева, 19/27, Саратов",www.sberbank.ru,"'mon': 09:00-18:00, 'tue': 09:00-18:00, 'wed': 09:00-18:00, 'thu': 09:00-18:00, 'fri': 09:00-18:00, 'sat': 09:30-14:30, 'sun': выходной",51.524668,46.016075,"4,6",['8 (800) 555-55-50Показать телефон'],"['http://ok.ru/sberbank', 'https://vk.com/sberbank']",81,79,85,80,76,94,,,,,2024-06-22 12:16:35
6,93809395572,СберБанк,"Большая Горная ул., 245/265, Саратов",www.sberbank.ru,"'mon': 09:00-18:00, 'tue': 09:00-18:00, 'wed': 09:00-18:00, 'thu': 09:00-18:00, 'fri': 09:00-18:00, 'sat': 09:00-13:00, 'sun': выходной",51.542939,46.026808,"4,7",['8 (800) 555-55-50Показать телефон'],"['http://ok.ru/sberbank', 'https://vk.com/sberbank']",87,88,93,73,69,95,,,,,2024-06-22 12:16:35
7,1089517189,СберБанк,"Большая Садовая ул., 94, Саратов",www.sberbank.ru,"'mon': 08:30-17:30, 'tue': 08:30-17:30, 'wed': 08:30-17:30, 'thu': 08:30-17:30, 'fri': 08:30-17:30, 'sat': 09:00-14:00, 'sun': выходной",51.528413,45.982999,"4,6",['8 (800) 555-55-50Показать телефон'],"['http://ok.ru/sberbank', 'https://vk.com/sberbank']",85,85,84,66,81,88,62,,,,2024-06-22 12:16:35
8,1031016506,СберБанк,"2-я Садовая ул., 23А, Саратов",www.sberbank.ru,"'mon': 09:00-18:00, 'tue': 09:00-18:00, 'wed': 09:00-18:00, 'thu': 09:00-18:00, 'fri': 09:00-18:00, 'sat': 09:00-15:00, 'sun': выходной",51.520585,46.002157,"4,4",['8 (800) 555-55-50Показать телефон'],"['http://ok.ru/sberbank', 'https://vk.com/sberbank']",70,68,77,60,86,92,,,,,2024-06-22 12:16:35
9,1132924533,СберБанк,"просп. имени 50 лет Октября, 58, Саратов",www.sberbank.ru,"'mon': 08:30-17:30, 'tue': 08:30-17:30, 'wed': 08:30-17:30, 'thu': 08:30-17:30, 'fri': 08:30-17:30, 'sat': выходной, 'sun': выходной",51.560657,45.995707,"4,7",['8 (800) 555-55-50Показать телефон'],"['http://ok.ru/sberbank', 'https://vk.com/sberbank']",86,87,90,77,57,97,,,,,2024-06-22 12:16:35
10,1103331312,СберБанк,"просп. имени 50 лет Октября, 116Б, Саратов",www.sberbank.ru,"'mon': 09:00-18:00, 'tue': 09:00-18:00, 'wed': 09:00-18:00, 'thu': 09:00-18:00, 'fri': 09:00-18:00, 'sat': 09:00-14:00, 'sun': выходной",51.577872,45.974899,"4,7",['8 (800) 555-55-50Показать телефон'],['https://vk.com/sberbank'],75,73,74,67,67,64,,74,,,2024-06-22 12:16:35
11,1170603788,СберБанк,"ул. имени Академика С.Г. Навашина, 8, Саратов",www.sberbank.ru,"'mon': 09:00-17:30, 'tue': 09:00-17:30, 'wed': 09:00-17:30, 'thu': 09:00-17:30, 'fri': 09:00-17:30, 'sat': 09:00-14:00, 'sun': выходной",51.565644,46.016469,"4,6",['8 (800) 555-55-50Показать телефон'],['https://vk.com/sberbank'],85,87,89,66,58,100,,,,,2024-06-22 12:16:35
12,1022761070,СберБанк,"ул. имени Н.Г. Чернышевского, 19, Саратов",www.sberbank.ru,"'mon': 09:00-17:30, 'tue': 09:00-17:30, 'wed': 09:00-17:30, 'thu': 09:00-17:30, 'fri': 09:00-17:30, 'sat': выходной, 'sun': выходной",51.510631,45.984939,"4,6",['8 (800) 555-55-50Показать телефон'],"['https://ok.ru/sberbank', 'https://vk.com/sberbank']",82,83,86,63,35,100,50,,,83,2024-06-22 12:16:35
13,1151917778,СберБанк,"просп. имени 50 лет Октября, 75А, Саратов",www.sberbank.ru,"'mon': 09:00-18:00, 'tue': 09:00-18:00, 'wed': 09:00-18:00, 'thu': 09:00-18:00, 'fri': 09:00-18:00, 'sat': выходной, 'sun': выходной",51.569259,45.982971,"4,5",['8 (800) 555-55-50Показать телефон'],"['http://ok.ru/sberbank', 'https://vk.com/sberbank']",85,86,87,55,25,95,,,,,2024-06-22 12:16:35
14,1071057350,СберБанк,"Международная ул., 4, Саратов",www.sberbank.ru,"'mon': 09:00-18:00, 'tue': 09:00-18:00, 'wed': 09:00-18:00, 'thu': 09:00-18:00, 'fri': 09:00-18:00, 'sat': 09:00-14:00, 'sun': выходной",51.581598,45.967199,"4,7",['8 (800) 555-55-50Показать телефон'],"['http://ok.ru/sberbank', 'https://vk.com/sberbank']",85,87,88,72,84,94,,,,,2024-06-22 12:16:35
15,1064332937,СберБанк,"Усть-Курдюмская ул., 3, Саратов",www.sberbank.ru,"'mon': 09:00-18:00, 'tue': 09:00-18:00, 'wed': 09:00-18:00, 'thu': 09:00-18:00, 'fri': 09:00-18:00, 'sat': 09:00-14:30, 'sun': выходной",51.570543,46.067080,"4,7",['8 (800) 555-55-50Показать телефон'],"['http://ok.ru/sberbank', 'https://vk.com/sberbank']",75,75,82,56,64,90,,,,,2024-06-22 12:16:35
16,1232477855,СберБанк,"ул. имени Н.Г. Чернышевского, 190/198, Саратов",www.sberbank.ru,"'mon': выходной, 'tue': выходной, 'wed': выходной, 'thu': выходной, 'fri': выходной, 'sat': выходной, 'sun': выходной",51.529714,46.054563,"4,4",['8 (800) 555-55-50Показать телефон'],"['http://ok.ru/sberbank', 'https://vk.com/sberbank']",78,79,83,55,68,100,62,,,,2024-06-22 12:16:35
17,1041979867,СберБанк,"Шелковичная ул., 168, Саратов",www.sberbank.ru,"'mon': 08:30-17:30, 'tue': 08:30-17:30, 'wed': 08:30-17:30, 'thu': 08:30-17:30, 'fri': 08:30-17:30, 'sat': выходной, 'sun': выходной",51.539261,45.978332,"4,4",['8 (800) 555-55-50Показать телефон'],"['http://ok.ru/sberbank', 'https://vk.com/sberbank']",80,77,75,69,33,81,9,,,,2024-06-22 12:16:35
18,1095006243,СберБанк,"ул. имени А.П. Чехова, 2, Саратов",www.sberbank.ru,"'mon': 09:00-18:00, 'tue': 09:00-18:00, 'wed': 09:00-18:00, 'thu': 09:00-18:00, 'fri': 09:00-18:00, 'sat': 09:00-14:30, 'sun': выходной",51.602182,46.003837,"4,7",['8 (800) 555-55-50Показать телефон'],"['http://ok.ru/sberbank', 'https://vk.com/sberbank']",87,87,90,54,60,100,80,,,89,2024-06-22 12:16:35
19,1110042046,СберБанк,"просп. Строителей, 21, Саратов",www.sberbank.ru,"'mon': 09:00-17:30, 'tue': 09:00-17:30, 'wed': 09:00-17:30, 'thu': 09:00-17:30, 'fri': 09:00-17:30, 'sat': 09:00-14:30, 'sun': выходной",51.598382,45.968003,"4,7",['8 (800) 555-55-50Показать телефон'],"['http://ok.ru/sberbank', 'https://vk.com/sberbank']",87,87,90,40,37,87,20,,,75,2024-06-22 12:16:35
20,1247574041,СберБанк,"ул. имени Г.К. Орджоникидзе, 13, Саратов",www.sberbank.ru,"'mon': 09:00-18:00, 'tue': 09:00-18:00, 'wed': 09:00-18:00, 'thu': 09:00-18:00, 'fri': 09:00-18:00, 'sat': выходной, 'sun': выходной",51.502664,45.955171,"4,6",['8 (800) 555-55-50Показать телефон'],"['http://ok.ru/sberbank', 'https://vk.com/sberbank']",87,88,89,82,55,87,,90,,,2024-06-22 12:16:35
21,1017497223,СберБанк,"Соколовая ул., 44/62, Саратов",www.sberbank.ru,"'mon': 09:50-18:00, 'tue': 09:00-18:00, 'wed': 09:00-18:00, 'thu': 09:00-18:00, 'fri': 09:00-18:00, 'sat': выходной, 'sun': выходной",51.533282,46.060315,"4,7",['8 (800) 555-55-50Показать телефон'],"['http://ok.ru/sberbank', 'https://vk.com/sberbank']",81,78,83,90,70,,,,,,2024-06-22 12:16:35
22,164285233717,СберБанк,"ул. имени Н.И. Вавилова, 1/7, Саратов",www.sberbank.ru,"'mon': 09:00-18:00, 'tue': 09:00-18:00, 'wed': 09:00-18:00, 'thu': 09:00-18:00, 'fri': 09:00-18:00, 'sat': выходной, 'sun': выходной",51.533140,46.015668,"4,7",['8 (800) 555-55-50Показать телефон'],"['http://ok.ru/sberbank', 'https://vk.com/sberbank']",93,87,95,83,,,,,,,2024-06-22 12:16:35
23,1096834990,СберБанк,"Пензенская ул., 41, Саратов",www.sberbank.ru,"'mon': 09:00-18:00, 'tue': 09:00-18:00, 'wed': 09:00-18:00, 'thu': 09:00-18:00, 'fri': 09:00-18:00, 'sat': 09:00-14:00, 'sun': выходной",51.499959,45.940333,"4,7",['8 (800) 555-55-50Показать телефон'],"['http://ok.ru/sberbank', 'https://vk.com/sberbank']",79,79,82,60,69,95,,,,,2024-06-22 12:16:35
24,1036730310,СберБанк,"Гвардейская ул., 4, Саратов",www.sberbank.ru,"'mon': 08:30-17:00, 'tue': 08:30-17:00, 'wed': 08:30-17:00, 'thu': 08:30-17:00, 'fri': 08:30-17:00, 'sat': 08:30-14:00, 'sun': выходной",51.586662,45.940264,"4,6",['8 (800) 555-55-50Показать телефон'],"['http://ok.ru/sberbank', 'https://vk.com/sberbank']",84,87,86,61,63,74,,,,,2024-06-22 12:16:35
25,1050448676,СберБанк,"просп. Строителей, 20, Саратов",www.sberbank.ru,"'mon': 09:00-17:30, 'tue': 09:00-17:30, 'wed': 09:00-17:30, 'thu': 09:00-17:30, 'fri': 09:00-17:30, 'sat': выходной, 'sun': выходной",51.591705,45.968520,"4,7",['8 (800) 555-55-50Показать телефон'],"['http://ok.ru/sberbank', 'https://vk.com/sberbank']",80,80,84,77,79,93,,,,,2024-06-22 12:16:35
26,1133538663,СберБанк,"просп. Энтузиастов, 52, Саратов",www.sberbank.ru,"'mon': 08:30-17:30, 'tue': 08:30-17:30, 'wed': 08:30-17:30, 'thu': 08:30-17:30, 'fri': 08:30-17:30, 'sat': 09:00-14:00, 'sun': выходной",51.496553,45.932637,"4,7",['8 (800) 555-55-50Показать телефон'],"['http://ok.ru/sberbank', 'https://vk.com/sberbank']",88,90,90,62,70,97,,,,,2024-06-22 12:16:35
27,1002065259,СберБанк,"Огородная ул., 36/42, Саратов",www.sberbank.ru,"'mon': 09:00-18:00, 'tue': 09:00-18:00, 'wed': 09:00-18:00, 'thu': 09:00-18:00, 'fri': 09:00-18:00, 'sat': выходной, 'sun': выходной",51.513562,45.960399,"4,5",['8 (800) 555-55-50Показать телефон'],"['http://ok.ru/sberbank', 'https://vk.com/sberbank']",82,80,83,81,52,86,,,,,2024-06-22 12:16:35
28,1104525707,СберБанк,"просп. Энтузиастов, 57, Саратов",www.sberbank.ru,"'mon': 09:00-18:00, 'tue': 09:00-18:00, 'wed': 09:00-18:00, 'thu': 09:00-18:00, 'fri': 09:00-18:00, 'sat': 09:00-14:00, 'sun': выходной",51.486421,45.930748,"4,6",['8 (800) 555-55-50Показать телефон'],"['http://ok.ru/sberbank', 'https://vk.com/sber']",85,82,86,88,64,93,,,,,2024-06-22 12:16:35
29,1119245533,СберБанк,"Буровая ул., 11, Саратов",www.sberbank.ru,"'mon': выходной, 'tue': выходной, 'wed': выходной, 'thu': выходной, 'fri': выходной, 'sat': выходной, 'sun': выходной",51.601478,45.905470,"4,7",['8 (800) 555-55-50Показать телефон'],"['http://ok.ru/sberbank', 'https://vk.com/sberbank']",91,89,92,69,48,88,,,,,2024-06-22 12:16:35
30,12005878765,СберБанк,"Огородная ул., 225В, Саратов",www.sberbank.ru,"'mon': 09:00-18:00, 'tue': 09:00-18:00, 'wed': 09:00-18:00, 'thu': 09:00-18:00, 'fri': 09:00-18:00, 'sat': выходной, 'sun': выходной",51.498096,45.916671,"4,7",['8 (800) 555-55-50Показать телефон'],"['http://ok.ru/sberbank', 'https://vk.com/sberbank']",80,85,78,59,50,93,77,,,,2024-06-22 12:16:35
31,1022194215,СберБанк,"ул. имени В.И. Чемодурова, 8А, Саратов",www.sberbank.ru,"'mon': 09:00-18:00, 'tue': 09:00-18:00, 'wed': 09:00-18:00, 'thu': 09:00-18:00, 'fri': 09:00-18:00, 'sat': выходной, 'sun': выходной",51.607632,45.974347,"4,7",['8 (800) 555-55-50Показать телефон'],"['http://ok.ru/sberbank', 'https://vk.com/sberbank']",86,84,87,64,44,95,50,,,,2024-06-22 12:16:35
32,1161017577,СберБанк,"ул. Тельмана, 26, Энгельс",www.sberbank.ru,"'mon': выходной, 'tue': выходной, 'wed': выходной, 'thu': выходной, 'fri': выходной, 'sat': выходной, 'sun': выходной",51.488523,46.122344,"4,6",['8 (800) 555-55-50Показать телефон'],"['https://ok.ru/sberbank', 'https://vk.com/sberbank']",77,77,80,64,77,93,,,,,2024-06-22 12:16:35
33,1117440216,СберБанк,"площадь Свободы, 14, Энгельс",www.sberbank.ru,"'mon': 09:00-18:00, 'tue': 09:00-18:00, 'wed': 09:00-18:00, 'thu': 09:00-18:00, 'fri': 09:00-18:00, 'sat': 09:00-14:00, 'sun': выходной",51.497862,46.124327,"4,7",['8 (800) 555-55-50Показать телефон'],"['http://ok.ru/sberbank', 'https://vk.com/sberbank']",81,80,85,80,83,100,,,,,2024-06-22 12:16:35
34,1085204776,СберБанк,"просп. Фридриха Энгельса, 11А, Энгельс",www.sberbank.ru,"'mon': 09:00-18:00, 'tue': 09:00-18:00, 'wed': 09:00-18:00, 'thu': 09:00-18:00, 'fri': 09:00-18:00, 'sat': выходной, 'sun': выходной",51.482910,46.132542,"4,7",['8 (800) 555-55-50Показать телефон'],"['http://ok.ru/sberbank', 'https://vk.com/sberbank']",81,81,86,69,71,86,,80,67,,2024-06-22 12:16:35
35,1098842144,СберБанк,"Тульская ул., 1, Саратов",www.sberbank.ru,"'mon': 09:00-18:00, 'tue': 09:00-18:00, 'wed': 09:00-18:00, 'thu': 09:00-18:00, 'fri': 09:00-18:00, 'sat': выходной, 'sun': выходной",51.474627,45.905214,"4,6",['8 (800) 555-55-50Показать телефон'],"['http://ok.ru/sberbank', 'https://vk.com/sberbank']",86,86,89,75,83,94,,,,,2024-06-22 12:16:35
36,1013531796,СберБанк,"просп. Строителей, 12, Энгельс",www.sberbank.ru,"'mon': 08:30-17:30, 'tue': 08:30-17:30, 'wed': 08:30-17:30, 'thu': 08:30-17:30, 'fri': 08:30-17:30, 'sat': 08:30-13:00, 'sun': выходной",51.476749,46.129959,"4,4",['8 (800) 555-55-50Показать телефон'],"['http://ok.ru/sberbank', 'https://vk.com/sberbank']",74,72,77,41,33,94,,,,,2024-06-22 12:16:35
37,235315080520,Сбербанк,"ул. имени А.М. Горького, 43, Саратов",www.sberbank.ru,"'mon': 00:00-23:59, 'tue': 00:00-23:59, 'wed': 00:00-23:59, 'thu': 00:00-23:59, 'fri': 00:00-23:59, 'sat': 00:00-23:59, 'sun': 00:00-23:59",51.533175,46.030905,,['8 (800) 555-55-50Показать телефон'],['https://vk.com/sberbank'],,,,,,,,,,,2024-06-22 12:16:35
38,1246081141,СберБанк,"ул. Ломоносова, 21, Энгельс",www.sberbank.ru,"'mon': 08:30-17:30, 'tue': 08:30-17:30, 'wed': 08:30-17:30, 'thu': 08:30-17:30, 'fri': 08:30-17:30, 'sat': 09:00-14:00, 'sun': выходной",51.471613,46.143714,"4,7",['8 (800) 555-55-50Показать телефон'],"['http://ok.ru/sberbank', 'https://vk.com/sberbank']",89,85,88,81,48,90,,,,,2024-06-22 12:16:35
39,1266781516,СберБанк,"ул. Марины Расковой, 12, Энгельс",www.sberbank.ru,"'mon': 08:30-17:30, 'tue': 08:30-17:30, 'wed': 08:30-17:30, 'thu': 08:30-17:30, 'fri': 08:30-17:30, 'sat': выходной, 'sun': выходной",51.479451,46.149469,"4,6",['8 (800) 555-55-50Показать телефон'],"['http://ok.ru/sberbank', 'https://vk.com/sberbank']",78,74,75,83,90,58,,,,,2024-06-22 12:16:35
40,150423214147,СберБанк,"9, микрорайон Энгельс-19, 3-й квартал, рабочий посёлок Приволжский",www.sberbank.ru,"'mon': 08:30-18:00, 'tue': 08:30-18:00, 'wed': 08:30-18:00, 'thu': 08:30-18:00, 'fri': 08:30-18:00, 'sat': 08:30-13:30, 'sun': выходной",51.407107,46.045630,"4,5",['8 (800) 555-55-50Показать телефон'],"['http://ok.ru/sberbank', 'https://vk.com/sberbank']",83,82,93,50,,,,,,,2024-06-22 12:16:35
41,1032554321,СберБанк,"ул. Рахова, 22, посёлок Дубки",www.sberbank.ru,"'mon': выходной, 'tue': 08:00-13:00,14:00-16:12, 'wed': 08:00-13:00,14:00-16:12, 'thu': 08:00-13:00,14:00-16:12, 'fri': 08:00-13:00,14:00-16:12, 'sat': 08:00-13:00,14:00-15:00, 'sun': выходной",51.663132,46.066857,"4,0",['8 (800) 555-55-50Показать телефон'],"['http://ok.ru/sberbank', 'https://vk.com/sberbank']",67,,,,0,,,,,,2024-06-22 12:16:35
42,1117801375,СберБанк,"ул. Ленина, 3, посёлок Расково",www.sberbank.ru,"'mon': выходной, 'tue': выходной, 'wed': выходной, 'thu': выходной, 'fri': выходной, 'sat': выходной, 'sun': выходной",51.623235,46.033944,"2,6",['8 (800) 555-55-50Показать телефон'],['https://vk.com/sberbank'],,,,,,,,,,,2024-06-22 12:16:35
43,1005919884,СберБанк,"17, микрорайон ДОС, рабочий посёлок Соколовый",www.sberbank.ru,"'mon': 08:00-13:00,14:00-16:45, 'tue': 08:00-13:00,14:00-16:45, 'wed': 08:00-13:00,14:00-16:45, 'thu': 08:00-13:00,14:00-16:45, 'fri': 08:00-13:00,14:00-16:45, 'sat': выходной, 'sun': выходной",51.570121,45.825434,"3,5",['8 (800) 555-55-50Показать телефон'],"['http://ok.ru/sberbank', 'https://vk.com/sberbank']",,,,,,,,,,,2024-06-22 12:16:35
