,ID,name,address,website,opening_hours,lat,lon,rating,phone,social,Обслуживание,Отношение к клиентам,Персонал,Время ожидания,load_time
0,1034998365,СберБанк,"ул. Азина, 33, Сарапул",www.sberbank.ru,"'mon': выходной, 'tue': выходной, 'wed': выходной, 'thu': выходной, 'fri': выходной, 'sat': выходной, 'sun': выходной",56.473262,53.806162,"4,2",['8 (800) 555-55-50Показать телефон'],"['http://ok.ru/sberbank', 'https://vk.com/sberbank']",78,76,94,,2024-06-22 12:13:08
1,202929033370,СберБанк,"ул. Ленина, 1, Сарапул",www.sberbank.ru,"'mon': 09:00-18:00, 'tue': 09:00-18:00, 'wed': 09:00-18:00, 'thu': 09:00-18:00, 'fri': 09:00-18:00, 'sat': 09:00-13:00, 'sun': выходной",56.460183,53.802861,"4,5",['8 (800) 555-55-50Показать телефон'],"['http://ok.ru/sberbank', 'https://vk.com/sberbank']",87,86,100,,2024-06-22 12:13:08
2,1047372766,СберБанк,"ул. Раскольникова, 152Б, Сарапул",www.sberbank.ru,"'mon': 09:00-18:00, 'tue': 09:00-18:00, 'wed': 09:00-18:00, 'thu': 09:00-18:00, 'fri': 09:00-18:00, 'sat': 09:00-13:00, 'sun': выходной",56.474325,53.816678,"4,4",['8 (800) 555-55-50Показать телефон'],"['http://ok.ru/sberbank', 'https://vk.com/sberbank']",87,78,81,85,2024-06-22 12:13:08
3,117454854086,СберБанк,"ул. 20 лет Победы, 1А, Сарапул",www.sberbank.ru,"'mon': 09:00-18:00, 'tue': 09:00-18:00, 'wed': 09:00-18:00, 'thu': 09:00-18:00, 'fri': 09:00-18:00, 'sat': выходной, 'sun': выходной",56.443707,53.746841,"4,4",['8 (800) 555-55-50Показать телефон'],"['http://ok.ru/sberbank', 'https://vk.com/sberbank']",61,63,73,,2024-06-22 12:13:08
4,1130458455,СберБанк,"Электрозаводская ул., 1, Сарапул",www.sberbank.ru,"'mon': 08:45-18:00, 'tue': 09:00-18:00, 'wed': 09:00-18:00, 'thu': 09:00-18:00, 'fri': 09:00-18:00, 'sat': выходной, 'sun': выходной",56.446300,53.772490,"4,4",['8 (800) 555-55-50Показать телефон'],"['http://ok.ru/sberbank', 'https://vk.com/sberbank']",88,89,95,,2024-06-22 12:13:08
5,1038167149,СберБанк,"Нагорная ул., 8А, село Северный",www.sberbank.ru,"'mon': выходной, 'tue': 08:30-13:00,13:45-18:00, 'wed': выходной, 'thu': 08:30-13:09, 'fri': выходной, 'sat': выходной, 'sun': выходной",56.464998,53.736744,"3,7",['8 (800) 555-55-50Показать телефон'],"['http://ok.ru/sberbank', 'https://vk.com/sberbank']",,,,,2024-06-22 12:13:08
6,66716817575,СберБанк,"Советская ул., 71, село Сигаево",www.sberbank.ru,"'mon': 08:30-16:45, 'tue': 08:30-16:45, 'wed': 08:30-16:45, 'thu': 08:30-16:45, 'fri': 08:30-16:45, 'sat': выходной, 'sun': выходной",56.424173,53.782235,"4,5",['8 (800) 555-55-50Показать телефон'],"['http://ok.ru/sberbank', 'https://vk.com/sberbank']",,,,,2024-06-22 12:13:08
