,ID,name,address,website,opening_hours,lat,lon,rating,phone,social,Обслуживание,Отношение к клиентам,Персонал,Время ожидания,Банкомат,Расположение,График работы,Ремонт,Ипотека,Кредит,Доступность,load_time
0,1150771757,СберБанк,"16-я линия Васильевского острова, 15/57, Санкт-Петербург",www.sberbank.ru,"'mon': 10:00-19:00, 'tue': 10:00-19:00, 'wed': 10:00-19:00, 'thu': 10:00-19:00, 'fri': 10:00-19:00, 'sat': выходной, 'sun': выходной",59.936148,30.270141,"4,4",['8 (800) 555-55-50Показать телефон'],"['https://ok.ru/sber/', 'https://vk.com/sberbank']",67,61,62,58,44,100,,,,,,2024-06-22 11:22:11
1,1059154360,СберБанк,"площадь Александра Невского, 2, Санкт-Петербург",www.sberbank.ru,"'mon': 10:00-19:00, 'tue': 10:00-19:00, 'wed': 10:00-19:00, 'thu': 10:00-19:00, 'fri': 10:00-19:00, 'sat': выходной, 'sun': выходной",59.925073,30.387590,"4,2",['8 (800) 555-55-50Показать телефон'],"['http://ok.ru/sberbank', 'https://vk.com/sberbank']",76,78,82,64,,,,,,,,2024-06-22 11:22:11
2,1025636426,СберБанк,"Суворовский просп., 20, Санкт-Петербург",www.sberbank.ru,"'mon': 10:00-19:00, 'tue': 10:00-19:00, 'wed': 10:00-19:00, 'thu': 10:00-19:00, 'fri': 10:00-19:00, 'sat': выходной, 'sun': выходной",59.935978,30.371862,"4,3",['8 (800) 555-55-50Показать телефон'],"['http://ok.ru/sberbank', 'https://t.me/sberbank', 'https://vk.com/sberbank']",71,72,77,37,42,87,,,,,,2024-06-22 11:22:11
3,181432090343,СберБанк,"Московский просп., 172, Санкт-Петербург",www.sberbank.ru,"'mon': 10:00-19:00, 'tue': 10:00-19:00, 'wed': 10:00-19:00, 'thu': 10:00-19:00, 'fri': 10:00-19:00, 'sat': выходной, 'sun': выходной",59.877701,30.320775,"4,3",['8 (800) 555-55-50Показать телефон'],"['https://ok.ru/sberbank', 'https://t.me/sberbank', 'https://vk.com/sberbank']",73,84,79,55,71,83,,,,,,2024-06-22 11:22:11
4,158571732804,СберБанк,"Троицкий просп., 7, Санкт-Петербург",www.sberbank.ru,"'mon': 10:00-19:00, 'tue': 10:00-19:00, 'wed': 10:00-19:00, 'thu': 10:00-19:00, 'fri': 10:00-19:00, 'sat': выходной, 'sun': выходной",59.916041,30.297999,"4,4",['8 (800) 555-55-50Показать телефон'],"['http://ok.ru/sberbank', 'https://t.me/sberbank', 'https://vk.com/sberbank']",69,66,77,46,59,92,,,,,,2024-06-22 11:22:11
5,1087111979,СберБанк,"Гражданский просп., 105, корп. 1, Санкт-Петербург",www.sberbank.ru,"'mon': 10:00-19:00, 'tue': 10:00-19:00, 'wed': 10:00-19:00, 'thu': 10:00-19:00, 'fri': 10:00-19:00, 'sat': выходной, 'sun': выходной",60.027958,30.413824,"4,4",['8 (800) 555-55-50Показать телефон'],"['https://ok.ru/sberbank', 'https://vk.com/sberbank']",84,86,86,77,44,93,,,,,,2024-06-22 11:22:11
6,1068241367,СберБанк,"ул. Савушкина, 3, Санкт-Петербург",www.sberbank.ru,"'mon': 10:00-19:30, 'tue': 10:00-19:30, 'wed': 10:00-19:30, 'thu': 09:45-19:30, 'fri': 09:45-19:30, 'sat': 10:30-16:00, 'sun': 10:30-16:00",59.986712,30.299264,"4,3",['8 (800) 555-55-50Показать телефон'],"['http://ok.ru/sberbank', 'https://vk.com/sberbank']",74,74,76,49,56,95,82,,,,,2024-06-22 11:22:11
7,1004532609,СберБанк,"просп. Космонавтов, 63, корп. 1, Санкт-Петербург",www.sberbank.ru,"'mon': 10:00-19:00, 'tue': 10:00-19:00, 'wed': 10:00-19:00, 'thu': 10:00-19:00, 'fri': 10:00-19:00, 'sat': выходной, 'sun': выходной",59.838949,30.357169,"4,5",['8 (800) 555-55-50Показать телефон'],"['http://ok.ru/sberbank', 'https://vk.com/sberbank']",75,79,83,46,56,91,24,,,,,2024-06-22 11:22:11
8,1059732877,СберБанк,"просп. Косыгина, 28, корп. 1, Санкт-Петербург",www.sberbank.ru,"'mon': 09:30-19:30, 'tue': 09:30-19:30, 'wed': 09:30-19:30, 'thu': 09:30-19:30, 'fri': 09:30-19:30, 'sat': 10:30-17:00, 'sun': 10:30-18:00",59.945766,30.495625,"4,4",['8 (800) 555-55-50Показать телефон'],"['http://ok.ru/sberbank', 'https://vk.com/sberbank']",76,76,80,61,45,,,,,,,2024-06-22 11:22:11
9,1140857575,СберБанк,"Светлановский просп., 40, корп. 1, Санкт-Петербург",www.sberbank.ru,"'mon': 10:00-19:30, 'tue': 10:00-19:30, 'wed': 10:00-19:30, 'thu': 09:45-19:30, 'fri': 09:45-19:30, 'sat': 10:00-16:30, 'sun': выходной",60.023200,30.376792,"4,5",['8 (800) 555-55-50Показать телефон'],"['https://ok.ru/sberbank', 'https://vk.com/sber']",86,88,91,70,61,100,,,,,,2024-06-22 11:22:11
10,1126509971,СберБанк,"Бухарестская ул., 49/43, Санкт-Петербург",www.sberbank.ru,"'mon': выходной, 'tue': выходной, 'wed': выходной, 'thu': выходной, 'fri': выходной, 'sat': выходной, 'sun': выходной",59.858098,30.392503,"4,4",['8 (800) 555-55-50Показать телефон'],"['http://ok.ru/sberbank', 'https://vk.com/sberbank']",71,69,70,63,55,94,,,,,,2024-06-22 11:22:11
11,61936429444,СберБанк,"Привокзальная площадь, 1А, корп. 1, Мурино",www.sberbank.ru,"'mon': 10:00-20:00, 'tue': 10:00-20:00, 'wed': 10:00-20:00, 'thu': 10:00-20:00, 'fri': 10:00-20:00, 'sat': 10:30-16:30, 'sun': выходной",60.050707,30.446057,"4,5",['8 (800) 555-55-50Показать телефон'],"['https://ok.ru/sberbank', 'https://vk.com/sberbank']",78,75,79,60,70,96,56,,,,,2024-06-22 11:22:11
12,1020469673,СберБанк,"Яхтенная ул., 10, корп. 1, Санкт-Петербург",www.sberbank.ru,"'mon': 09:30-18:30, 'tue': 09:30-18:30, 'wed': 09:30-18:30, 'thu': 09:30-18:30, 'fri': 09:30-18:30, 'sat': 10:00-16:00, 'sun': выходной",59.989229,30.215571,"4,3",['8 (800) 555-55-50Показать телефон'],"['http://ok.ru/sberbank', 'https://vk.com/sberbank']",74,70,82,64,76,100,36,,,,,2024-06-22 11:22:11
13,1081543849,СберБанк,"просп. Энгельса, 128, Санкт-Петербург",www.sberbank.ru,"'mon': 10:00-19:00, 'tue': 10:00-19:00, 'wed': 10:00-19:00, 'thu': 09:45-19:00, 'fri': 09:45-19:00, 'sat': 10:00-18:00, 'sun': выходной",60.042733,30.326279,"4,4",['8 (800) 555-55-50Показать телефон'],"['http://ok.ru/sberbank', 'https://t.me/sberbank', 'https://vk.com/sberbank']",69,68,69,57,56,,,,,,,2024-06-22 11:22:11
14,47641268692,СберБанк,"ул. Шувалова, 22, корп. 1, Мурино",www.sberbank.ru,"'mon': 10:00-20:00, 'tue': 10:00-20:00, 'wed': 10:00-20:00, 'thu': 10:00-20:00, 'fri': 10:00-20:00, 'sat': 10:00-19:00, 'sun': 11:00-19:00",60.060289,30.431881,"4,7",['8 (800) 555-55-50Показать телефон'],['https://vk.com/sberbank'],69,70,72,47,11,87,17,,,,,2024-06-22 11:22:11
15,1013546553,СберБанк,"просп. КИМа, 4Б, Санкт-Петербург",www.sberbank.ru,"'mon': выходной, 'tue': выходной, 'wed': выходной, 'thu': выходной, 'fri': выходной, 'sat': выходной, 'sun': выходной",59.949532,30.244676,"4,3",['8 (800) 555-55-50Показать телефон'],"['http://ok.ru/sberbank', 'https://vk.com/sberbank']",68,68,75,48,65,92,,,,,,2024-06-22 11:22:11
16,89068644446,СберБанк,"Красносельское ш., 54, корп. 3, территория Горелово, Санкт-Петербург",www.sberbank.ru,"'mon': 09:30-18:30, 'tue': 09:30-18:30, 'wed': 09:30-18:30, 'thu': 09:30-18:30, 'fri': 09:30-18:30, 'sat': 09:45-16:00, 'sun': выходной",59.792029,30.148800,"4,5",['8 (800) 555-55-50Показать телефон'],"['http://ok.ru/sberbank', 'https://vk.com/sberbank']",74,74,76,64,38,,10,,,,,2024-06-22 11:22:11
17,1056208411,СберБанк,"бул. Новаторов, 98, Санкт-Петербург",www.sberbank.ru,"'mon': 10:00-19:00, 'tue': 10:00-19:00, 'wed': 10:00-19:00, 'thu': 09:45-19:00, 'fri': 10:00-19:00, 'sat': 10:30-16:30, 'sun': 10:30-15:00",59.841166,30.253757,"4,4",['8 (800) 555-55-50Показать телефон'],"['http://ok.ru/sberbank', 'https://vk.com/sberbank']",82,81,85,58,49,95,,,,,,2024-06-22 11:22:11
18,1263754551,СберБанк,"Гражданский просп., 92, корп. 1, Санкт-Петербург",www.sberbank.ru,"'mon': 10:00-19:00, 'tue': 10:00-19:00, 'wed': 10:00-19:00, 'thu': 10:00-19:00, 'fri': 10:00-19:00, 'sat': выходной, 'sun': выходной",60.020265,30.403996,"4,2",['8 (800) 555-55-50Показать телефон'],['https://vk.com/sberbank'],60,59,63,27,7,,0,,,,,2024-06-22 11:22:11
19,1096338817,СберБанк,"просп. Большевиков, 2, Санкт-Петербург",www.sberbank.ru,"'mon': 10:00-19:30, 'tue': 10:00-19:30, 'wed': 10:00-19:30, 'thu': 10:00-19:30, 'fri': 09:45-19:30, 'sat': 09:45-18:00, 'sun': 10:30-16:00",59.917890,30.473396,"4,4",['8 (800) 555-55-50Показать телефон'],"['http://ok.ru/sberbank', 'https://vk.com/sberbank']",72,70,75,56,65,100,,,,,,2024-06-22 11:22:11
20,1045547626,СберБанк,"Комендантский просп., 30, корп. 1, Санкт-Петербург",www.sberbank.ru,"'mon': 09:00-18:00, 'tue': 09:00-18:00, 'wed': 09:00-18:00, 'thu': 09:00-18:00, 'fri': 09:00-18:00, 'sat': 10:30-18:00, 'sun': выходной",60.015280,30.249511,"4,4",['8 (800) 555-55-50Показать телефон'],"['http://ok.ru/sberbank', 'https://vk.com/sberbank']",69,65,68,61,94,90,25,,,,,2024-06-22 11:22:11
21,1049511586,СберБанк,"Гражданский просп., 19, корп. 1, Санкт-Петербург",www.sberbank.ru,"'mon': 09:30-19:00, 'tue': 09:30-19:00, 'wed': 09:30-19:00, 'thu': 09:30-19:00, 'fri': 09:30-19:00, 'sat': 10:00-16:30, 'sun': выходной",60.004039,30.389572,"4,3",['8 (800) 555-55-50Показать телефон'],"['https://ok.ru/sberbank', 'https://t.me/sberbank', 'https://vk.com/sberbank']",77,74,84,58,72,88,,,,,,2024-06-22 11:22:11
22,1106442682,СберБанк,"просп. Елизарова, 11, Санкт-Петербург",www.sberbank.ru,"'mon': 09:30-20:00, 'tue': 09:30-20:00, 'wed': 09:30-20:00, 'thu': 09:30-20:00, 'fri': 09:30-20:00, 'sat': 09:45-16:00, 'sun': выходной",59.896793,30.424356,"4,4",['8 (800) 555-55-50Показать телефон'],"['http://ok.ru/sberbank', 'https://vk.com/sberbank']",75,77,81,41,35,95,29,,,,,2024-06-22 11:22:11
23,1122930001,СберБанк,"просп. Испытателей, 31, корп. 1, Санкт-Петербург",www.sberbank.ru,"'mon': 10:00-19:00, 'tue': 10:00-19:00, 'wed': 10:00-19:00, 'thu': 10:00-19:00, 'fri': 10:00-19:00, 'sat': 10:00-19:00, 'sun': выходной",60.007343,30.270554,"4,3",['8 (800) 555-55-50Показать телефон'],"['http://ok.ru/sberbank', 'https://vk.com/sberbank']",80,81,90,61,73,100,,,,,,2024-06-22 11:22:11
24,1125605053,СберБанк,"Озёрная ул., 4, д. Новое Девяткино",www.sberbank.ru,"'mon': 10:00-19:30, 'tue': 10:00-19:30, 'wed': 10:00-19:30, 'thu': 10:00-19:30, 'fri': 10:00-19:30, 'sat': 10:00-16:00, 'sun': выходной",60.056952,30.476770,"4,6",['8 (800) 555-55-50Показать телефон'],"['http://ok.ru/sberbank', 'https://t.me/sberbank', 'https://vk.com/sberbank']",91,91,92,65,71,80,,,,,,2024-06-22 11:22:11
25,1044162053,СберБанк,"ул. Севастьянова, 7, Санкт-Петербург",www.sberbank.ru,"'mon': 09:00-19:00, 'tue': 09:00-19:00, 'wed': 09:00-19:00, 'thu': 09:00-19:00, 'fri': 09:00-19:00, 'sat': выходной, 'sun': выходной",59.874618,30.328710,"4,4",['8 (800) 555-55-50Показать телефон'],"['http://ok.ru/sberbank', 'https://vk.com/sberbank']",68,64,70,58,86,88,64,,,,,2024-06-22 11:22:11
26,1103647756,СберБанк,"Невский просп., 82, Санкт-Петербург",www.sberbank.ru,"'mon': 10:00-19:00, 'tue': 10:00-19:00, 'wed': 10:00-19:00, 'thu': 10:00-19:00, 'fri': 10:00-19:00, 'sat': 10:00-19:00, 'sun': выходной",59.932685,30.349486,"4,2",['8 (800) 555-55-50Показать телефон'],"['http://ok.ru/sberbank', 'https://vk.com/sberbank']",68,67,72,56,50,94,,,,,,2024-06-22 11:22:11
27,1090671758,СберБанк,"Долгоозёрная ул., 16, корп. 1, Санкт-Петербург",www.sberbank.ru,"'mon': 10:00-19:00, 'tue': 10:00-19:00, 'wed': 10:00-19:00, 'thu': 09:45-19:00, 'fri': 09:45-19:00, 'sat': 10:00-17:00, 'sun': выходной",60.018620,30.250728,"4,3",['8 (800) 555-55-50Показать телефон'],"['http://ok.ru/sberbank', 'https://vk.com/sberbank']",73,76,81,61,71,100,17,,,,,2024-06-22 11:22:11
28,1102567483,СберБанк,"просп. Авиаконструкторов, 21, корп. 1, Санкт-Петербург",www.sberbank.ru,"'mon': 10:30-19:30, 'tue': 10:30-19:30, 'wed': 10:30-19:30, 'thu': 10:30-19:30, 'fri': 10:30-19:30, 'sat': 10:30-19:30, 'sun': выходной",60.017680,30.238407,"4,4",['8 (800) 555-55-50Показать телефон'],"['http://ok.ru/sberbank', 'https://vk.com/sberbank']",73,70,78,52,50,100,50,,,,,2024-06-22 11:22:11
29,1023523463,СберБанк,"просп. Луначарского, 64А, Санкт-Петербург",www.sberbank.ru,"'mon': 10:00-21:00, 'tue': 10:00-21:00, 'wed': 10:00-21:00, 'thu': 09:45-21:00, 'fri': 09:45-21:00, 'sat': 10:00-19:00, 'sun': 10:00-19:00",60.040071,30.347883,"4,4",['8 (800) 555-55-50Показать телефон'],"['http://ok.ru/sberbank', 'https://vk.com/sberbank']",77,78,81,50,40,100,69,93,,,,2024-06-22 11:22:11
30,1642123270,СберБанк,"просп. Просвещения, 53, корп. 1, Санкт-Петербург",www.sberbank.ru,"'mon': 09:00-19:00, 'tue': 09:00-19:00, 'wed': 09:00-19:00, 'thu': 09:00-19:00, 'fri': 09:00-19:00, 'sat': 09:00-19:00, 'sun': выходной",60.042999,30.380855,"4,3",['8 (800) 555-55-50Показать телефон'],"['http://ok.ru/sberbank', 'https://t.me/sberbank', 'https://vk.com/sberbank']",70,68,74,46,60,89,,,,,,2024-06-22 11:22:11
31,1027204699,СберБанк,"Большая Зеленина ул., 14/18А, Санкт-Петербург",www.sberbank.ru,"'mon': 10:00-20:00, 'tue': 10:00-20:00, 'wed': 10:00-20:00, 'thu': 09:45-20:00, 'fri': 10:00-20:00, 'sat': 10:30-16:30, 'sun': выходной",59.961615,30.291078,"4,3",['8 (800) 555-55-50Показать телефон'],"['http://ok.ru/sberbank', 'https://vk.com/sberbank']",72,68,73,54,54,92,,,,,,2024-06-22 11:22:11
32,30556296404,СберБанк,"Балканская площадь, 5АД, Санкт-Петербург",www.sberbank.ru,"'mon': 10:00-19:30, 'tue': 10:00-19:30, 'wed': 10:00-19:30, 'thu': 10:00-19:30, 'fri': 09:45-19:30, 'sat': 09:00-18:30, 'sun': выходной",59.828632,30.380257,"4,3",['8 (800) 555-55-50Показать телефон'],"['http://ok.ru/sberbank', 'https://vk.com/sberbank']",76,78,84,77,73,100,,,,,,2024-06-22 11:22:11
33,1092282104,СберБанк,"Будапештская ул., 92, Санкт-Петербург",www.sberbank.ru,"'mon': 10:00-19:30, 'tue': 10:00-19:30, 'wed': 10:00-19:30, 'thu': 10:00-19:30, 'fri': 10:00-19:30, 'sat': 10:00-16:30, 'sun': выходной",59.839600,30.396479,"4,6",['8 (800) 555-55-50Показать телефон'],"['http://ok.ru/sberbank', 'https://vk.com/sberbank']",84,80,89,75,57,94,,,,,,2024-06-22 11:22:11
34,1030930390,СберБанк,"Политехническая ул., 17, корп. 1, Санкт-Петербург",www.sberbank.ru,"'mon': 09:00-19:00, 'tue': 09:00-19:00, 'wed': 09:00-19:00, 'thu': 09:00-19:00, 'fri': 09:00-19:00, 'sat': 09:00-19:00, 'sun': выходной",60.000231,30.366558,"4,3",['8 (800) 555-55-50Показать телефон'],"['http://ok.ru/sberbank', 'https://t.me/sberbank', 'https://vk.com/sberbank']",69,68,76,61,77,100,33,36,,,,2024-06-22 11:22:11
35,28304591277,СберБанк,"Ленинградская ул., 3, Кудрово",www.sberbank.ru,"'mon': 10:00-19:30, 'tue': 10:00-19:30, 'wed': 10:00-19:30, 'thu': 10:10-20:00, 'fri': 10:00-20:00, 'sat': 10:00-19:00, 'sun': выходной",59.912825,30.506193,"4,4",['8 (800) 555-55-50Показать телефон'],"['https://ok.ru/sberbank', 'https://t.me/sberbank', 'https://vk.com/sberbank']",76,77,81,61,73,93,,,73,55,,2024-06-22 11:22:11
36,1053687046,СберБанк,"ул. Димитрова, 12, корп. 1, Санкт-Петербург",www.sberbank.ru,"'mon': 10:00-21:00, 'tue': 10:00-21:00, 'wed': 10:00-21:00, 'thu': 10:00-21:00, 'fri': 09:45-21:00, 'sat': 09:45-19:00, 'sun': 10:00-19:00",59.847562,30.382022,"4,5",['8 (800) 555-55-50Показать телефон'],"['http://ok.ru/sberbank', 'https://vk.com/sberbank']",61,68,67,43,52,88,48,67,,,,2024-06-22 11:22:11
37,1286042498,СберБанк,"просп. Просвещения, 32, корп. 1, Санкт-Петербург",www.sberbank.ru,"'mon': 10:00-20:00, 'tue': 10:00-20:00, 'wed': 10:00-20:00, 'thu': 09:45-20:00, 'fri': 09:45-20:00, 'sat': 10:30-18:00, 'sun': 10:30-16:00",60.054092,30.331368,"4,4",['8 (800) 555-55-50Показать телефон'],"['https://ok.ru/sberbank', 'https://vk.com/sberbank']",72,73,77,55,56,95,,,,,,2024-06-22 11:22:11
38,186139030206,СберБанк,"просп. Авиаторов Балтики, 7, Мурино",www.sberbank.ru,"'mon': 10:00-20:00, 'tue': 10:00-20:00, 'wed': 10:00-20:00, 'thu': 10:00-20:00, 'fri': 10:00-20:00, 'sat': 10:30-17:00, 'sun': 11:00-16:00",60.052470,30.438872,"4,5",['8 (800) 555-55-50Показать телефон'],"['http://ok.ru/sberbank', 'https://vk.com/sberbank']",68,68,70,61,71,89,60,,81,47,,2024-06-22 11:22:11
39,1120109931,СберБанк,"Московский просп., 220, лит.А, Санкт-Петербург",www.sberbank.ru,"'mon': 10:00-20:30, 'tue': 10:00-20:30, 'wed': 10:00-20:30, 'thu': 09:45-20:30, 'fri': 10:00-20:30, 'sat': 10:00-19:00, 'sun': 10:00-19:00",59.846839,30.322510,"4,4",['8 (800) 555-55-50Показать телефон'],"['https://ok.ru/sberbank', 'https://vk.com/bankdruzey']",65,64,71,44,52,91,80,,66,43,,2024-06-22 11:22:11
40,1191888272,СберБанк,"Ленинский просп., 95, корп. 1, Санкт-Петербург",www.sberbank.ru,"'mon': 09:30-19:00, 'tue': 09:30-19:00, 'wed': 09:30-19:00, 'thu': 09:30-19:00, 'fri': 09:30-19:00, 'sat': 09:30-18:00, 'sun': выходной",59.852861,30.214636,"4,5",['8 (800) 555-55-50Показать телефон'],"['http://ok.ru/sberbank', 'https://t.me/sberbank', 'https://vk.com/sberbank']",75,75,73,64,83,91,60,,,,,2024-06-22 11:22:11
41,1017130951,СберБанк,"ул. Ярослава Гашека, 9, корп. 1, Санкт-Петербург",www.sberbank.ru,"'mon': 09:30-19:30, 'tue': 09:30-19:30, 'wed': 09:30-19:30, 'thu': 09:30-19:30, 'fri': 09:30-19:30, 'sat': 09:45-18:00, 'sun': выходной",59.831570,30.389044,"4,4",['8 (800) 555-55-50Показать телефон'],"['http://ok.ru/sberbank', 'https://vk.com/sberbank']",68,65,69,57,65,100,,,,,,2024-06-22 11:22:11
42,213043250041,СберБанк,"ул. Пограничника Гарькавого, 33, Санкт-Петербург",www.sberbank.ru,"'mon': 09:30-18:30, 'tue': 09:30-18:30, 'wed': 09:30-18:30, 'thu': 09:30-18:30, 'fri': 09:30-18:30, 'sat': 09:45-17:30, 'sun': выходной",59.833662,30.146335,"4,4",['8 (800) 555-55-50Показать телефон'],"['http://ok.ru/sberbank', 'https://t.me/sberbank', 'https://vk.com/sberbank']",81,81,85,51,49,83,44,77,,,,2024-06-22 11:22:11
43,147513585970,СберБанк,"Народная ул., 2, Санкт-Петербург",www.sberbank.ru,"'mon': выходной, 'tue': выходной, 'wed': выходной, 'thu': выходной, 'fri': выходной, 'sat': выходной, 'sun': выходной",59.880016,30.456985,"4,4",['8 (800) 555-55-50Показать телефон'],"['http://ok.ru/sberbank', 'https://vk.com/sberbank']",78,77,81,69,92,82,75,,,,,2024-06-22 11:22:11
44,1197015470,СберБанк,"просп. Авиаконструкторов, 47, Санкт-Петербург",www.sberbank.ru,"'mon': 10:30-19:30, 'tue': 10:30-19:30, 'wed': выходной, 'thu': 10:30-19:30, 'fri': 10:30-19:30, 'sat': выходной, 'sun': выходной",60.027158,30.225005,"4,4",['8 (800) 555-55-50Показать телефон'],"['http://ok.ru/sberbank', 'https://vk.com/sberbank']",82,81,81,71,73,92,33,,,,,2024-06-22 11:22:11
45,196519209121,СберБанк,"просп. Косыгина, 27, корп. 1, Санкт-Петербург",www.sberbank.ru,"'mon': 10:00-20:00, 'tue': 10:00-20:00, 'wed': 10:00-20:00, 'thu': 09:45-20:00, 'fri': 09:45-20:00, 'sat': 10:00-17:00, 'sun': выходной",59.944809,30.494413,"4,4",['8 (800) 555-55-50Показать телефон'],"['http://ok.ru/sberbank', 'https://vk.com/sberbank']",70,72,73,63,,,,,,,,2024-06-22 11:22:11
46,1086054702,СберБанк,"просп. Культуры, 22, корп. 1, Санкт-Петербург",www.sberbank.ru,"'mon': 10:00-19:00, 'tue': 10:00-19:00, 'wed': 10:00-19:00, 'thu': 10:00-19:00, 'fri': 10:00-19:00, 'sat': выходной, 'sun': выходной",60.046110,30.373657,"4,4",['8 (800) 555-55-50Показать телефон'],"['http://ok.ru/sberbank', 'https://t.me/sberbank', 'https://vk.com/sberbank']",84,84,86,69,63,100,,,,,,2024-06-22 11:22:11
47,211764039930,СберБанк,"ул. Тельмана, 48, корп. 1, Санкт-Петербург",www.sberbank.ru,"'mon': 10:00-19:00, 'tue': 10:00-19:00, 'wed': 10:00-19:00, 'thu': 10:00-19:00, 'fri': 10:00-19:00, 'sat': выходной, 'sun': выходной",59.893065,30.483510,"4,8",['8 (800) 555-55-50Показать телефон'],"['http://ok.ru/sberbank', 'https://vk.com/sberbank']",88,91,97,84,82,100,,,,,,2024-06-22 11:22:11
48,1062530703,СберБанк,"Земский пер., 11, корп. 1, Санкт-Петербург",www.sberbank.ru,"'mon': 10:00-19:00, 'tue': 10:00-19:00, 'wed': 10:00-19:00, 'thu': 09:45-19:00, 'fri': 09:45-19:00, 'sat': 10:00-16:30, 'sun': выходной",60.025751,30.290498,"4,4",['8 (800) 555-55-50Показать телефон'],"['http://ok.ru/sberbank', 'https://vk.com/sberbank']",74,76,79,54,54,94,,,,,,2024-06-22 11:22:11
49,127660127497,СберБанк,"ул. Бабушкина, 111, Санкт-Петербург",www.sberbank.ru,"'mon': 10:00-19:00, 'tue': 10:00-19:00, 'wed': 10:00-19:00, 'thu': 10:00-19:00, 'fri': 10:00-19:00, 'sat': выходной, 'sun': выходной",59.865487,30.452895,"4,4",['8 (800) 555-55-50Показать телефон'],"['http://ok.ru/sberbank', 'https://vk.com/sberbank']",82,82,87,56,4,100,4,,,,,2024-06-22 11:22:11
50,64641555572,СберБанк,"просп. Большевиков, 9, корп. 1, Санкт-Петербург",www.sberbank.ru,"'mon': 10:00-19:00, 'tue': 10:00-19:00, 'wed': 10:00-19:00, 'thu': 10:00-19:00, 'fri': 10:00-19:00, 'sat': 11:00-16:00, 'sun': выходной",59.914160,30.474540,"4,4",['8 (800) 555-55-50Показать телефон'],"['http://ok.ru/sberbank', 'https://vk.com/sberbank']",82,82,81,77,,100,,,,,,2024-06-22 11:22:11
51,1089025337,СберБанк,"Ленинский просп., 129, Санкт-Петербург",www.sberbank.ru,"'mon': 10:00-20:00, 'tue': 10:00-20:00, 'wed': 10:00-20:00, 'thu': 10:00-20:00, 'fri': 10:00-20:00, 'sat': 10:30-19:00, 'sun': 10:30-18:00",59.851381,30.270045,"4,4",['8 (800) 555-55-50Показать телефон'],"['http://ok.ru/sberbank', 'https://t.me/sberbank', 'https://vk.com/sberbank']",70,68,72,55,50,87,63,,69,68,,2024-06-22 11:22:11
52,1061840370,СберБанк,"Лиговский просп., 30, Санкт-Петербург",www.sberbank.ru,"'mon': 10:00-21:00, 'tue': 10:00-21:00, 'wed': 10:00-21:00, 'thu': 10:00-21:00, 'fri': 10:00-21:00, 'sat': 10:00-21:00, 'sun': 10:00-21:00",59.926961,30.359187,"4,3",['8 (800) 555-55-50Показать телефон'],"['http://ok.ru/sberbank', 'https://vk.com/sberbank']",61,64,67,43,74,95,83,,,,,2024-06-22 11:22:11
53,1165450400,СберБанк,"Прибрежная ул., 8, корп. 1, Санкт-Петербург",www.sberbank.ru,"'mon': 09:30-19:00, 'tue': 09:30-19:00, 'wed': 09:30-19:00, 'thu': 09:30-19:00, 'fri': 09:30-19:00, 'sat': 10:00-17:30, 'sun': 11:00-16:00",59.834717,30.508569,"4,6",['8 (800) 555-55-50Показать телефон'],"['http://ok.ru/sberbank', 'https://vk.com/sberbank']",79,78,81,66,92,85,75,70,,,,2024-06-22 11:22:11
54,110265406586,СберБанк,"Муринская дорога, 53, Санкт-Петербург",www.sberbank.ru,"'mon': 10:00-19:30, 'tue': 10:00-19:30, 'wed': 10:00-19:30, 'thu': 09:45-19:30, 'fri': 09:45-19:30, 'sat': 11:00-17:00, 'sun': выходной",60.032330,30.458442,"4,7",['8 (800) 555-55-50Показать телефон'],"['http://ok.ru/sberbank', 'https://vk.com/sberbank']",81,80,86,61,68,96,,,,,,2024-06-22 11:22:11
55,112730742514,СберБанк,"ш. Революции, 37, корп. 1, Санкт-Петербург",www.sberbank.ru,"'mon': 09:30-18:30, 'tue': 09:30-18:30, 'wed': 09:30-18:30, 'thu': 09:30-18:30, 'fri': 09:30-18:30, 'sat': 09:30-18:30, 'sun': выходной",59.959645,30.433057,"4,4",['8 (800) 555-55-50Показать телефон'],"['http://ok.ru/sber', 'https://t.me/s/sberbank', 'https://vk.com/sber']",64,68,73,48,65,100,31,,,,,2024-06-22 11:22:11
56,191740778488,СберБанк,"Торфяная дорога, 7, лит.А, Санкт-Петербург",www.sberbank.ru,"'mon': 10:00-20:00, 'tue': 10:00-20:00, 'wed': 10:00-20:00, 'thu': 09:45-20:00, 'fri': 09:45-20:00, 'sat': 10:30-16:00, 'sun': выходной",59.989365,30.256788,"4,3",['8 (800) 555-55-50Показать телефон'],"['http://ok.ru/sberbank', 'https://vk.com/sberbank']",82,80,88,64,88,87,,,,,,2024-06-22 11:22:11
57,117710918662,СберБанк,"Бухарестская ул., 23, корп. 1, Санкт-Петербург",www.sberbank.ru,"'mon': выходной, 'tue': выходной, 'wed': выходной, 'thu': выходной, 'fri': выходной, 'sat': выходной, 'sun': выходной",59.873568,30.376631,"4,4",['8 (800) 555-55-50Показать телефон'],"['http://ok.ru/sberbank', 'https://t.me/sberbank', 'https://vk.com/sberbank']",72,70,76,62,74,87,65,,,,,2024-06-22 11:22:11
58,123111799894,СберБанк,"Нарвский просп., 24, Санкт-Петербург",www.sberbank.ru,"'mon': 10:00-19:00, 'tue': 10:00-19:00, 'wed': 09:45-19:00, 'thu': 09:45-19:00, 'fri': 10:00-19:00, 'sat': 10:00-17:30, 'sun': 11:00-15:30",59.902067,30.273708,"4,5",['8 (800) 555-55-50Показать телефон'],"['http://ok.ru/sberbank', 'https://vk.com/sberbank']",76,79,83,51,73,100,92,,,,,2024-06-22 11:22:11
59,1109422897,СберБанк,"Лесной просп., 75, Санкт-Петербург",www.sberbank.ru,"'mon': 10:00-20:00, 'tue': 10:00-20:00, 'wed': 10:00-20:00, 'thu': 10:00-20:00, 'fri': 10:00-20:00, 'sat': 10:00-20:00, 'sun': выходной",59.988156,30.341199,"4,2",['8 (800) 555-55-50Показать телефон'],"['https://ok.ru/sberbank', 'https://t.me/sberbank', 'https://vk.com/sberbank']",78,74,79,71,77,96,,,,,,2024-06-22 11:22:11
60,10483204357,СберБанк,"Полюстровский просп., 84, Санкт-Петербург",www.sberbank.ru,"'mon': 10:30-20:00, 'tue': 10:30-20:00, 'wed': 10:30-20:00, 'thu': 10:30-20:00, 'fri': 10:30-20:00, 'sat': 10:00-19:30, 'sun': 10:00-17:30",59.987897,30.354177,"4,3",['8 (800) 555-55-50Показать телефон'],"['http://ok.ru/sberbank', 'https://vk.com/sberbank']",69,68,71,57,,,,,,,,2024-06-22 11:22:11
61,1103900390,СберБанк,"Большой просп. Петроградской стороны, 18, Санкт-Петербург",www.sberbank.ru,"'mon': 10:00-19:00, 'tue': 10:00-19:00, 'wed': 10:00-19:00, 'thu': 10:00-19:00, 'fri': 10:00-19:00, 'sat': выходной, 'sun': выходной",59.955404,30.294642,"4,4",['8 (800) 555-55-50Показать телефон'],"['https://ok.ru/sber', 'https://vk.com/sberbank']",76,74,78,67,79,92,,,,,,2024-06-22 11:22:11
62,1131662050,СберБанк,"аллея Поликарпова, 6, корп. 1, Санкт-Петербург",www.sberbank.ru,"'mon': 10:00-19:30, 'tue': 10:00-19:30, 'wed': 10:00-19:30, 'thu': 10:00-19:30, 'fri': 10:00-19:30, 'sat': 10:00-19:30, 'sun': выходной",60.006656,30.291280,"4,4",['8 (800) 555-55-50Показать телефон'],"['https://ok.ru/sberbank', 'https://t.me/sberbank', 'https://vk.com/sberbank']",78,79,77,72,69,96,38,,,,,2024-06-22 11:22:11
63,1138174520,СберБанк,"Петергофское ш., 45, Санкт-Петербург",www.sberbank.ru,"'mon': 10:30-19:30, 'tue': 10:30-19:30, 'wed': 10:30-19:30, 'thu': 10:30-19:30, 'fri': 10:30-19:30, 'sat': 10:30-19:30, 'sun': выходной",59.847914,30.151870,"4,4",['8 (800) 555-55-50Показать телефон'],"['http://ok.ru/sberbank', 'https://vk.com/sberbank']",71,74,78,57,59,86,18,,,,,2024-06-22 11:22:11
64,1047216814,СберБанк,"просп. Ветеранов, 130, Санкт-Петербург",www.sberbank.ru,"'mon': 10:00-19:30, 'tue': 10:00-19:30, 'wed': 10:00-19:30, 'thu': 10:00-19:30, 'fri': 09:45-19:30, 'sat': 09:45-18:00, 'sun': выходной",59.832593,30.173840,"4,7",['8 (800) 555-55-50Показать телефон'],"['http://ok.ru/sberbank', 'https://vk.com/sberbank']",78,78,85,52,74,100,,82,,,,2024-06-22 11:22:11
65,1119467791,СберБанк,"просп. Римского-Корсакова, 71, Санкт-Петербург",www.sberbank.ru,"'mon': 10:00-19:00, 'tue': 10:00-19:00, 'wed': 10:00-19:00, 'thu': 10:00-19:00, 'fri': 10:00-19:00, 'sat': выходной, 'sun': выходной",59.921169,30.287357,"4,4",['8 (800) 555-55-50Показать телефон'],"['https://ok.ru/sber/', 'https://t.me/sberbank', 'https://vk.com/sberbank']",78,76,80,70,75,100,58,,,,,2024-06-22 11:22:11
66,76288578650,СберБанк,"просп. Ветеранов, 43, Санкт-Петербург",www.sberbank.ru,"'mon': 10:00-19:30, 'tue': 10:00-19:30, 'wed': 09:45-19:30, 'thu': 09:45-19:30, 'fri': 10:00-19:30, 'sat': 10:00-17:30, 'sun': выходной",59.842114,30.241972,"4,4",['8 (800) 555-55-50Показать телефон'],"['http://ok.ru/sberbank', 'https://vk.com/sberbank']",77,78,83,48,62,87,,,,,,2024-06-22 11:22:11
67,1012229326,СберБанк,"Вознесенский просп., 37/6, Санкт-Петербург",www.sberbank.ru,"'mon': 09:00-19:00, 'tue': 09:00-19:00, 'wed': 09:00-19:00, 'thu': 09:00-19:00, 'fri': 09:00-19:00, 'sat': выходной, 'sun': выходной",59.924323,30.307316,"4,3",['8 (800) 555-55-50Показать телефон'],"['https://ok.ru/sber', 'https://vk.com/sber']",66,68,75,52,55,,50,,,,,2024-06-22 11:22:11
68,35735063908,СберБанк,"просп. Энгельса, 124, корп. 1, Санкт-Петербург",www.sberbank.ru,"'mon': 09:30-19:30, 'tue': 09:30-19:30, 'wed': 09:30-19:30, 'thu': 09:30-19:30, 'fri': 09:30-19:30, 'sat': 10:00-19:00, 'sun': выходной",60.039055,30.323414,"4,4",['8 (800) 555-55-50Показать телефон'],"['https://ok.ru/sber/', 'https://t.me/sberbank', 'https://vk.com/sberbank']",68,66,73,48,,93,,,57,47,,2024-06-22 11:22:11
69,1086991727,СберБанк,"просп. Энгельса, 55, Санкт-Петербург",www.sberbank.ru,"'mon': 09:30-19:00, 'tue': 09:30-19:00, 'wed': 09:30-19:00, 'thu': 09:30-19:00, 'fri': 09:30-19:00, 'sat': 10:00-18:00, 'sun': выходной",60.016009,30.323180,"4,3",['8 (800) 555-55-50Показать телефон'],"['http://ok.ru/sberbank', 'https://vk.com/sberbank']",63,66,73,44,43,100,,,,,,2024-06-22 11:22:11
70,1101905412,СберБанк,"Комендантский просп., 13, корп. 1, Санкт-Петербург",www.sberbank.ru,"'mon': 10:00-20:00, 'tue': 10:00-20:00, 'wed': 10:00-20:00, 'thu': 09:45-20:00, 'fri': 09:45-20:00, 'sat': 10:30-17:00, 'sun': 10:30-17:00",60.008869,30.259782,"4,4",['8 (800) 555-55-50Показать телефон'],"['http://ok.ru/sberbank', 'https://vk.com/sberbank']",72,72,79,48,66,96,92,,,20,,2024-06-22 11:22:11
71,1125094023,СберБанк,"просп. Энгельса, 21, Санкт-Петербург",www.sberbank.ru,"'mon': 10:00-19:30, 'tue': 10:00-19:30, 'wed': 10:00-19:30, 'thu': 09:45-19:30, 'fri': 09:45-19:30, 'sat': 10:00-17:00, 'sun': выходной",60.003034,30.328971,"4,4",['8 (800) 555-55-50Показать телефон'],"['http://ok.ru/sberbank', 'https://vk.com/sberbank']",70,61,66,65,69,100,,,,,,2024-06-22 11:22:11
72,1305443920,СберБанк,"ул. Маршала Захарова, 23, Санкт-Петербург",www.sberbank.ru,"'mon': 09:30-19:00, 'tue': 09:30-19:00, 'wed': 09:30-19:00, 'thu': 09:30-19:00, 'fri': 09:30-19:00, 'sat': 09:30-18:30, 'sun': 11:00-16:30",59.853015,30.194866,"4,4",['8 (800) 555-55-50Показать телефон'],"['http://ok.ru/sberbank', 'https://vk.com/sberbank']",79,80,82,60,66,93,71,90,,,,2024-06-22 11:22:11
73,1184578702,СберБанк,"Суворовский просп., 56, Санкт-Петербург",www.sberbank.ru,"'mon': 10:00-19:00, 'tue': 10:00-19:00, 'wed': 10:00-19:00, 'thu': 10:00-19:00, 'fri': 09:45-19:00, 'sat': 10:15-16:30, 'sun': выходной",59.944628,30.386259,"4,4",['8 (800) 555-55-50Показать телефон'],"['https://ok.ru/sberbank', 'https://vk.com/sberbank']",75,75,80,48,81,96,,,,,,2024-06-22 11:22:11
74,60601310937,СберБанк,"Индустриальный просп., 10, корп. 1Б, Санкт-Петербург",www.sberbank.ru,"'mon': 10:00-19:00, 'tue': 10:00-19:00, 'wed': 10:00-19:00, 'thu': 10:00-19:00, 'fri': 10:00-19:00, 'sat': выходной, 'sun': выходной",59.940033,30.475742,"4,4",['8 (800) 555-55-50Показать телефон'],"['https://ok.ru/sberbank', 'https://vk.com/sberbank']",81,81,84,69,49,100,13,,,,,2024-06-22 11:22:11
75,1075806221,СберБанк,"ул. Савушкина, 128, корп. 1Б, Санкт-Петербург",www.sberbank.ru,"'mon': 10:00-19:00, 'tue': 10:00-19:00, 'wed': 10:00-19:00, 'thu': 10:00-19:00, 'fri': 10:00-19:00, 'sat': 10:00-19:00, 'sun': выходной",59.988798,30.199832,"4,2",['8 (800) 555-55-50Показать телефон'],"['http://ok.ru/sberbank', 'https://vk.com/sberbank']",68,70,78,49,56,91,,,,,,2024-06-22 11:22:11
76,1037354056,СберБанк,"ул. Олеко Дундича, 17, корп. 1, Санкт-Петербург",www.sberbank.ru,"'mon': 10:00-21:00, 'tue': 10:00-21:00, 'wed': 10:00-21:00, 'thu': 10:00-21:00, 'fri': 09:45-21:00, 'sat': 09:45-21:00, 'sun': 10:00-19:00",59.827593,30.399039,"4,5",['8 (800) 555-55-50Показать телефон'],"['http://ok.ru/sberbank', 'https://t.me/sberbank', 'https://vk.com/sberbank']",63,58,64,51,28,100,25,49,,,,2024-06-22 11:22:11
77,1078735287,СберБанк,"просп. Большевиков, 27, Санкт-Петербург",www.sberbank.ru,"'mon': 10:00-19:30, 'tue': 10:00-19:30, 'wed': 10:00-19:30, 'thu': 10:00-19:30, 'fri': 09:45-19:30, 'sat': 09:45-17:30, 'sun': выходной",59.900691,30.486441,"4,3",['8 (800) 555-55-50Показать телефон'],"['http://ok.ru/sberbank', 'https://vk.com/sberbank']",59,59,68,38,68,100,18,,,,,2024-06-22 11:22:11
78,169659558416,СберБанк,"Лиговский просп., 37, Санкт-Петербург",www.sberbank.ru,"'mon': 10:00-19:00, 'tue': 10:00-19:00, 'wed': 10:00-19:00, 'thu': 10:00-19:00, 'fri': 09:45-19:00, 'sat': 10:15-15:30, 'sun': выходной",59.932408,30.361385,"4,3",['8 (800) 555-55-50Показать телефон'],"['https://ok.ru/sberbank', 'https://t.me/sberbank', 'https://vk.com/sberbank']",68,69,69,53,46,97,,,,,,2024-06-22 11:22:11
79,1211824619,СберБанк,"ул. Марата, 65/20, Санкт-Петербург",www.sberbank.ru,"'mon': 10:00-19:00, 'tue': 10:00-19:00, 'wed': 10:00-19:00, 'thu': 10:00-19:00, 'fri': 10:00-19:00, 'sat': выходной, 'sun': выходной",59.921481,30.344906,"4,3",['8 (800) 555-55-50Показать телефон'],"['https://ok.ru/sber/', 'https://t.me/sberbank', 'https://vk.com/sberbank']",80,79,85,57,24,,7,,,,,2024-06-22 11:22:11
80,1134094994,СберБанк,"Сенная площадь, 5, Санкт-Петербург",www.sberbank.ru,"'mon': 10:00-21:00, 'tue': 10:00-21:00, 'wed': 10:00-21:00, 'thu': 09:45-21:00, 'fri': 09:45-21:00, 'sat': 10:00-20:00, 'sun': 11:00-19:00",59.927648,30.318253,"4,4",['8 (800) 555-55-50Показать телефон'],"['https://ok.ru/sberbank', 'https://t.me/sberbank', 'https://vk.com/sberbank']",56,57,68,35,50,92,50,,,,,2024-06-22 11:22:11
81,1016599665,СберБанк,"просп. Сизова, 30, корп. 1, Санкт-Петербург",www.sberbank.ru,"'mon': 09:30-18:30, 'tue': 09:30-18:30, 'wed': 09:30-18:30, 'thu': 09:30-18:30, 'fri': 09:30-18:30, 'sat': 10:00-15:30, 'sun': выходной",60.013556,30.275605,"4,3",['8 (800) 555-55-50Показать телефон'],"['http://ok.ru/sberbank', 'https://t.me/sberbank', 'https://vk.com/sberbank']",70,67,70,55,43,100,,,,,0,2024-06-22 11:22:11
82,1017016480,СберБанк,"Петергофское ш., 17, корп. 1, Санкт-Петербург",www.sberbank.ru,"'mon': 10:00-19:30, 'tue': 10:00-19:30, 'wed': 10:00-19:30, 'thu': 10:00-19:30, 'fri': 09:45-19:30, 'sat': 10:15-16:30, 'sun': выходной",59.847604,30.186802,"4,7",['8 (800) 555-55-50Показать телефон'],"['http://ok.ru/sberbank', 'https://vk.com/sberbank']",82,80,87,79,36,94,,,,,,2024-06-22 11:22:11
83,1367561860,СберБанк,"просп. Ветеранов, 114, корп. 1, Санкт-Петербург",www.sberbank.ru,"'mon': выходной, 'tue': выходной, 'wed': выходной, 'thu': выходной, 'fri': выходной, 'sat': выходной, 'sun': выходной",59.832587,30.196689,"4,7",['8 (800) 555-55-50Показать телефон'],"['http://ok.ru/sberbank', 'https://vk.com/sberbank']",75,70,74,63,,,,,,,,2024-06-22 11:22:11
84,1057425000,СберБанк,"Бассейная ул., 17, Санкт-Петербург",www.sberbank.ru,"'mon': 10:00-18:30, 'tue': 10:00-18:30, 'wed': 09:45-18:30, 'thu': 09:45-18:30, 'fri': 10:00-18:30, 'sat': 10:00-17:00, 'sun': выходной",59.864338,30.306248,"4,4",['8 (800) 555-55-50Показать телефон'],"['http://ok.ru/sberbank', 'https://vk.com/sberbank']",75,76,75,61,51,95,7,73,,,,2024-06-22 11:22:11
85,1082776551,СберБанк,"Думская ул., 1-3, Санкт-Петербург",www.sberbank.ru,"'mon': 09:30-20:30, 'tue': 09:30-20:30, 'wed': 09:30-20:30, 'thu': 09:30-20:30, 'fri': 09:30-20:30, 'sat': 10:30-19:00, 'sun': 11:00-16:30",59.934236,30.329202,"4,7",['8 (800) 555-55-50Показать телефон'],"['https://ok.ru/sber/', 'https://t.me/sberbank', 'https://vk.com/sberbank']",73,69,78,67,67,89,63,88,74,51,,2024-06-22 11:22:11
86,1258980554,СберБанк,"ул. Белы Куна, 1, корп. 3, Санкт-Петербург",www.sberbank.ru,"'mon': 10:00-20:00, 'tue': 10:00-20:00, 'wed': 10:00-20:00, 'thu': 10:00-20:00, 'fri': 10:00-20:00, 'sat': 10:00-17:00, 'sun': выходной",59.869647,30.377856,"4,3",['8 (800) 555-55-50Показать телефон'],"['http://ok.ru/sberbank', 'https://t.me/sberbank', 'https://vk.com/sberbank']",67,67,68,56,42,76,,,,,,2024-06-22 11:22:11
87,1108389444,СберБанк,"просп. Просвещения, 36/141, Санкт-Петербург",www.sberbank.ru,"'mon': 10:00-19:30, 'tue': 10:00-19:30, 'wed': 10:00-19:30, 'thu': 10:00-19:30, 'fri': 10:00-19:30, 'sat': 10:00-19:30, 'sun': 11:00-17:00",60.053262,30.336440,"4,1",['8 (800) 555-55-50Показать телефон'],"['http://ok.ru/sberbank', 'https://vk.com/sberbank']",57,58,63,50,50,100,,,,,,2024-06-22 11:22:11
88,71996418594,СберБанк,"Народная ул., 68, корп. 1, Санкт-Петербург",www.sberbank.ru,"'mon': 10:00-18:30, 'tue': 10:00-18:30, 'wed': 10:00-18:30, 'thu': 10:00-19:00, 'fri': 09:45-19:00, 'sat': 10:45-16:00, 'sun': выходной",59.884384,30.479164,"4,4",['8 (800) 555-55-50Показать телефон'],"['http://ok.ru/sberbank', 'https://vk.com/sberbank']",75,76,83,43,38,92,25,,,,,2024-06-22 11:22:11
89,1053014705,СберБанк,"Замшина ул., 27, корп. 1, Санкт-Петербург",www.sberbank.ru,"'mon': 10:00-19:00, 'tue': 10:00-19:00, 'wed': 10:00-19:00, 'thu': 10:00-19:00, 'fri': 10:00-19:00, 'sat': выходной, 'sun': выходной",59.978728,30.405391,"4,3",['8 (800) 555-55-50Показать телефон'],"['http://ok.ru/sberbank', 'https://t.me/sberbank', 'https://vk.com/sberbank']",66,69,71,40,40,,13,,,,,2024-06-22 11:22:11
90,1037619851,СберБанк,"просп. Просвещения, 33, корп. 1, Санкт-Петербург",www.sberbank.ru,"'mon': 10:00-19:00, 'tue': 10:00-19:00, 'wed': 10:00-19:00, 'thu': 10:00-19:00, 'fri': 10:00-19:00, 'sat': выходной, 'sun': выходной",60.050215,30.345439,"4,4",['8 (800) 555-55-50Показать телефон'],"['http://ok.ru/sberbank', 'https://vk.com/sberbank']",80,80,85,71,58,100,50,,,,,2024-06-22 11:22:11
91,1021806751,СберБанк,"ул. Типанова, 27/39, Санкт-Петербург",www.sberbank.ru,"'mon': 10:00-19:30, 'tue': 10:00-19:30, 'wed': 10:00-19:30, 'thu': 10:00-19:30, 'fri': 10:00-19:30, 'sat': 10:00-18:00, 'sun': 11:00-15:30",59.853592,30.351023,"4,6",['8 (800) 555-55-50Показать телефон'],"['http://ok.ru/sberbank', 'https://vk.com/sberbank']",83,81,86,63,89,93,,,,,,2024-06-22 11:22:11
92,1174947281,СберБанк,"Бассейная ул., 41, Санкт-Петербург",www.sberbank.ru,"'mon': 10:30-19:30, 'tue': 10:30-19:30, 'wed': 10:15-19:30, 'thu': 10:15-19:30, 'fri': 10:30-19:30, 'sat': 10:30-17:00, 'sun': 11:00-16:00",59.864706,30.321650,"4,3",['8 (800) 555-55-50Показать телефон'],"['http://ok.ru/sberbank', 'https://vk.com/sberbank']",58,57,64,46,73,94,82,,,,,2024-06-22 11:22:11
93,82810455718,СберБанк,"Суворовский просп., 35, Санкт-Петербург",www.sberbank.ru,"'mon': 09:30-19:00, 'tue': 09:30-19:00, 'wed': 09:30-19:00, 'thu': 09:30-19:00, 'fri': 09:30-19:00, 'sat': 09:30-19:00, 'sun': выходной",59.938757,30.376023,"4,4",['8 (800) 555-55-50Показать телефон'],"['http://ok.ru/sberbank', 'https://vk.com/sberbank']",70,64,66,62,,,,,,,,2024-06-22 11:22:11
94,83989054587,СберБанк,"просп. Энтузиастов, 38, Санкт-Петербург",www.sberbank.ru,"'mon': 10:00-19:00, 'tue': 10:00-19:00, 'wed': 10:00-19:00, 'thu': 10:00-19:00, 'fri': 10:00-19:00, 'sat': выходной, 'sun': выходной",59.950044,30.483406,"4,4",['8 (800) 555-55-50Показать телефон'],"['http://ok.ru/sberbank', 'https://vk.com/sberbank']",80,80,84,62,67,90,,,,,,2024-06-22 11:22:11
95,1012565699,СберБанк,"просп. Науки, 30, корп. 1, Санкт-Петербург",www.sberbank.ru,"'mon': 10:00-19:30, 'tue': 10:00-19:30, 'wed': 10:00-19:30, 'thu': 09:45-19:30, 'fri': 09:45-19:30, 'sat': 10:00-17:00, 'sun': выходной",60.008349,30.418102,"4,4",['8 (800) 555-55-50Показать телефон'],"['http://ok.ru/sberbank', 'https://vk.com/sberbank']",84,84,82,59,27,90,,90,,,,2024-06-22 11:22:11
96,1320555722,СберБанк,"просп. Ветеранов, 141, корп. 1, Санкт-Петербург",www.sberbank.ru,"'mon': 09:30-19:30, 'tue': 09:30-19:30, 'wed': 09:30-19:30, 'thu': 09:30-19:30, 'fri': 09:30-19:30, 'sat': 09:45-17:00, 'sun': 11:00-17:00",59.835831,30.145125,"4,4",['8 (800) 555-55-50Показать телефон'],"['http://ok.ru/sberbank', 'https://vk.com/sberbank']",75,78,81,44,48,83,54,,,,,2024-06-22 11:22:11
97,1241453738,СберБанк,"ул. Фёдора Абрамова, 4, посёлок Парголово",www.sberbank.ru,"'mon': 10:00-20:00, 'tue': 10:00-20:00, 'wed': 10:00-20:00, 'thu': 09:45-20:00, 'fri': 09:45-20:00, 'sat': 10:30-17:30, 'sun': выходной",60.070214,30.335797,"4,7",['8 (800) 555-55-50Показать телефон'],"['http://ok.ru/sberbank', 'https://vk.com/sberbank']",80,84,85,59,61,90,63,,,,,2024-06-22 11:22:11
98,1773591450,СберБанк,"просп. Просвещения, 87, корп. 1, Санкт-Петербург",www.sberbank.ru,"'mon': 10:00-20:00, 'tue': 10:00-20:00, 'wed': 10:00-20:00, 'thu': 09:45-20:00, 'fri': 09:45-20:00, 'sat': 10:00-18:00, 'sun': 11:00-17:00",60.036481,30.413329,"4,4",['8 (800) 555-55-50Показать телефон'],"['https://ok.ru/sberbank', 'https://vk.com/sberbank']",64,62,66,48,59,100,,,,,,2024-06-22 11:22:11
99,1129699396,СберБанк,"Литейный просп., 35, Санкт-Петербург",www.sberbank.ru,"'mon': 10:30-19:30, 'tue': 10:30-19:30, 'wed': 10:30-19:30, 'thu': 10:30-19:30, 'fri': 10:30-19:30, 'sat': выходной, 'sun': выходной",59.940827,30.348149,"4,3",['8 (800) 555-55-50Показать телефон'],"['http://ok.ru/sberbank', 'https://t.me/sberbank', 'https://vk.com/sberbank']",71,75,75,44,67,83,,,,,,2024-06-22 11:22:11
100,1243069887,СберБанк,"Малый просп. Васильевского острова, 23, Санкт-Петербург",www.sberbank.ru,"'mon': 10:30-19:30, 'tue': 10:30-19:30, 'wed': 10:30-19:30, 'thu': 10:30-19:30, 'fri': 10:30-19:30, 'sat': выходной, 'sun': выходной",59.946389,30.271708,"4,2",['8 (800) 555-55-50Показать телефон'],"['https://ok.ru/sber/', 'https://t.me/s/sberbank', 'https://vk.com/sberbank']",69,68,72,54,74,80,,,,,,2024-06-22 11:22:11
101,1130416816,СберБанк,"просп. Большевиков, 17, Санкт-Петербург",www.sberbank.ru,"'mon': 09:30-20:00, 'tue': 09:30-20:00, 'wed': 09:30-20:00, 'thu': 09:30-20:00, 'fri': 09:30-20:00, 'sat': 09:30-20:00, 'sun': 11:00-16:00",59.908150,30.480245,"4,4",['8 (800) 555-55-50Показать телефон'],"['https://ok.ru/sberbank', 'https://vk.com/bankdruzey']",73,72,78,54,84,90,,,,,,2024-06-22 11:22:11
102,1105663355,СберБанк,"Морская наб., 17В, Санкт-Петербург",www.sberbank.ru,"'mon': 10:00-19:00, 'tue': 10:00-19:00, 'wed': 10:00-19:00, 'thu': 10:00-19:00, 'fri': 10:00-19:00, 'sat': выходной, 'sun': выходной",59.943189,30.207529,"4,4",['8 (800) 555-55-50Показать телефон'],['https://vk.com/sberbank'],74,78,79,56,39,86,20,,,,,2024-06-22 11:22:11
103,1001706397,СберБанк,"Богатырский просп., 43, корп. 1, Санкт-Петербург",www.sberbank.ru,"'mon': 10:00-19:00, 'tue': 10:00-19:00, 'wed': 10:00-19:00, 'thu': 10:00-19:00, 'fri': 10:00-19:00, 'sat': выходной, 'sun': выходной",60.004209,30.236851,"4,4",['8 (800) 555-55-50Показать телефон'],"['http://ok.ru/sberbank', 'https://vk.com/sberbank']",75,72,76,67,53,87,,,,,,2024-06-22 11:22:11
104,33555111316,СберБанк,"Невский просп., 114-116, Санкт-Петербург",www.sberbank.ru,"'mon': 10:00-22:00, 'tue': 10:00-22:00, 'wed': 10:00-22:00, 'thu': 10:00-22:00, 'fri': 10:00-22:00, 'sat': 10:00-22:00, 'sun': 10:00-22:00",59.932072,30.359058,"4,3",['8 (800) 555-55-50Показать телефон'],"['http://ok.ru/sberbank', 'https://t.me/sberbank', 'https://vk.com/sberbank']",49,49,55,61,54,,,,,,,2024-06-22 11:22:11
105,213530041447,СберБанк,"ул. Меркурьева, 5, посёлок Парголово",www.sberbank.ru,"'mon': 10:00-19:30, 'tue': 10:00-19:30, 'wed': 10:00-19:30, 'thu': 10:00-19:30, 'fri': 10:00-19:30, 'sat': выходной, 'sun': выходной",60.072950,30.343489,"4,4",['8 (800) 555-55-50Показать телефон'],"['http://ok.ru/sberbank', 'https://vk.com/sberbank']",58,59,67,33,,,,,,,,2024-06-22 11:22:11
106,1342944880,СберБанк,"просп. Энгельса, 134, корп. 3, Санкт-Петербург",www.sberbank.ru,"'mon': 10:00-19:00, 'tue': 10:00-19:00, 'wed': 10:00-19:00, 'thu': 09:45-19:00, 'fri': 09:45-19:00, 'sat': 10:30-16:30, 'sun': выходной",60.049014,30.331119,"4,4",['8 (800) 555-55-50Показать телефон'],"['http://ok.ru/sberbank', 'https://t.me/sberbank', 'https://vk.com/sberbank']",80,82,85,67,75,92,20,,,,,2024-06-22 11:22:11
107,1109503640,СберБанк,"просп. Ветеранов, 95, корп. 1, Санкт-Петербург",www.sberbank.ru,"'mon': 10:30-19:00, 'tue': 10:30-19:00, 'wed': 10:15-19:00, 'thu': 10:15-19:00, 'fri': 10:30-19:00, 'sat': 09:30-16:30, 'sun': выходной",59.833597,30.207565,"4,5",['8 (800) 555-55-50Показать телефон'],['https://vk.com/sberbank'],75,76,78,69,59,90,,,,,,2024-06-22 11:22:11
108,161970409606,СберБанк,"ул. Коллонтай, 10, Санкт-Петербург",www.sberbank.ru,"'mon': 10:00-20:00, 'tue': 10:00-20:00, 'wed': 10:00-20:00, 'thu': 10:00-20:00, 'fri': 09:45-20:00, 'sat': 09:45-18:00, 'sun': выходной",59.916762,30.452567,"4,3",['8 (800) 555-55-50Показать телефон'],"['http://ok.ru/sberbank', 'https://vk.com/sberbank']",68,70,74,52,77,100,,,,,,2024-06-22 11:22:11
109,81157186396,СберБанк,"Новосмоленская наб., 1В, Санкт-Петербург",www.sberbank.ru,"'mon': 10:00-21:00, 'tue': 10:00-21:00, 'wed': 10:00-21:00, 'thu': 10:00-21:00, 'fri': 10:00-21:00, 'sat': 10:00-21:00, 'sun': 10:00-19:00",59.949614,30.227743,"2,9",['8 (800) 555-55-50Показать телефон'],"['http://ok.ru/sberbank', 'https://vk.com/sberbank']",27,15,21,23,,,,,,,,2024-06-22 11:22:11
110,50770863009,СберБанк,"ул. Маяковского, 1/96, Санкт-Петербург",www.sberbank.ru,"'mon': 10:00-20:00, 'tue': 10:00-20:00, 'wed': 10:00-20:00, 'thu': 10:00-20:00, 'fri': 10:00-20:00, 'sat': 10:00-19:00, 'sun': выходной",59.932793,30.354419,"4,1",['8 (800) 555-55-50Показать телефон'],"['http://ok.ru/sberbank', 'https://vk.com/sberbank']",,,,,,,,,,,,2024-06-22 11:22:11
111,1112652568,СберБанк,"Среднеохтинский просп., 10, Санкт-Петербург",www.sberbank.ru,"'mon': 10:00-19:00, 'tue': 10:00-19:00, 'wed': 10:00-19:00, 'thu': 10:00-19:00, 'fri': 10:00-19:00, 'sat': выходной, 'sun': выходной",59.948436,30.414207,"4,4",['8 (800) 555-55-50Показать телефон'],"['http://ok.ru/sberbank', 'https://vk.com/sberbank']",78,78,80,70,54,95,33,,,,,2024-06-22 11:22:11
112,1382744556,СберБанк,"Туристская ул., 28, корп. 1, Санкт-Петербург",www.sberbank.ru,"'mon': 10:00-20:00, 'tue': 10:00-20:00, 'wed': 10:00-20:00, 'thu': 09:45-20:00, 'fri': 09:45-20:00, 'sat': 10:00-18:00, 'sun': выходной",60.002671,30.208407,"4,3",['8 (800) 555-55-50Показать телефон'],"['http://ok.ru/sberbank', 'https://t.me/sberbank', 'https://vk.com/sberbank']",59,59,65,38,67,91,42,,,,,2024-06-22 11:22:11
113,124264199403,СберБанк,"ул. Бутлерова, 40, Санкт-Петербург",www.sberbank.ru,"'mon': выходной, 'tue': выходной, 'wed': выходной, 'thu': выходной, 'fri': выходной, 'sat': выходной, 'sun': выходной",60.010338,30.404512,"4,7",['8 (800) 555-55-50Показать телефон'],"['http://ok.ru/sberbank', 'https://vk.com/sberbank']",77,79,80,65,83,71,,,,,,2024-06-22 11:22:11
114,1190998012,СберБанк,"ул. Партизана Германа, 14/117, Санкт-Петербург",www.sberbank.ru,"'mon': 10:00-21:00, 'tue': 10:00-21:00, 'wed': 10:00-21:00, 'thu': 10:00-21:00, 'fri': 09:45-21:00, 'sat': 09:45-20:00, 'sun': 10:00-19:00",59.834870,30.176702,"4,4",['8 (800) 555-55-50Показать телефон'],"['http://ok.ru/sberbank', 'https://vk.com/sberbank']",65,66,74,39,55,91,53,72,,,,2024-06-22 11:22:11
115,1001255103,СберБанк,"Капитанская ул., 4, Санкт-Петербург",www.sberbank.ru,"'mon': 10:00-19:00, 'tue': 10:00-19:00, 'wed': 10:00-19:00, 'thu': 10:00-19:00, 'fri': 10:00-19:00, 'sat': выходной, 'sun': выходной",59.954768,30.215020,"4,4",['8 (800) 555-55-50Показать телефон'],"['http://ok.ru/sberbank', 'https://vk.com/sberbank']",69,67,70,61,42,94,20,,,,,2024-06-22 11:22:11
116,1023578226,СберБанк,"Московский просп., 145, Санкт-Петербург",www.sberbank.ru,"'mon': 10:00-19:00, 'tue': 10:00-19:00, 'wed': 10:00-19:00, 'thu': 10:00-19:00, 'fri': 10:00-19:00, 'sat': выходной, 'sun': выходной",59.876966,30.319202,"4,4",['8 (800) 555-55-50Показать телефон'],"['http://ok.ru/sberbank', 'https://vk.com/sberbank']",75,75,77,54,8,,9,,,,,2024-06-22 11:22:11
117,1155671613,СберБанк,"просп. Ветеранов, 78, Санкт-Петербург",www.sberbank.ru,"'mon': 10:00-19:30, 'tue': 10:00-19:30, 'wed': 09:45-19:30, 'thu': 09:45-19:30, 'fri': 10:00-19:30, 'sat': 10:00-17:30, 'sun': выходной",59.833179,30.217624,"4,3",['8 (800) 555-55-50Показать телефон'],"['http://ok.ru/sberbank', 'https://vk.com/sberbank']",68,66,74,30,27,100,,,,,,2024-06-22 11:22:11
118,124070617027,СберБанк,"ул. Коллонтай, 31, корп. 2, Санкт-Петербург",www.sberbank.ru,"'mon': 10:00-19:00, 'tue': 10:00-19:00, 'wed': 10:00-19:00, 'thu': 10:00-19:00, 'fri': 10:00-19:00, 'sat': выходной, 'sun': выходной",59.922635,30.484559,"4,4",['8 (800) 555-55-50Показать телефон'],"['http://ok.ru/sberbank', 'https://vk.com/sberbank']",78,78,82,62,50,92,,,,,,2024-06-22 11:22:11
119,1086909095,СберБанк,"просп. Пятилеток, 10, корп. 1, Санкт-Петербург",www.sberbank.ru,"'mon': 10:00-19:30, 'tue': 10:00-19:30, 'wed': 10:00-19:30, 'thu': 10:00-19:30, 'fri': 09:45-19:30, 'sat': 09:45-17:00, 'sun': выходной",59.922334,30.457732,"4,6",['8 (800) 555-55-50Показать телефон'],"['http://ok.ru/sberbank', 'https://t.me/sberbank', 'https://vk.com/sberbank']",86,89,87,68,68,93,,82,,,,2024-06-22 11:22:11
120,61892761861,СберБанк,"просп. Обуховской Обороны, 120Б, Санкт-Петербург",www.sberbank.ru,"'mon': 10:00-20:00, 'tue': 10:00-20:00, 'wed': 10:00-20:00, 'thu': 10:00-20:00, 'fri': 10:00-20:00, 'sat': 10:00-20:00, 'sun': выходной",59.865301,30.471504,"4,3",['8 (800) 555-55-50Показать телефон'],"['https://ok.ru/sber/', 'https://t.me/sberbank', 'https://vk.com/sberbank']",68,72,72,58,61,91,,,,,,2024-06-22 11:22:11
121,1073820680,СберБанк,"Гражданский просп., 117, корп. 1, Санкт-Петербург",www.sberbank.ru,"'mon': 10:00-20:00, 'tue': 10:00-20:00, 'wed': 10:00-20:00, 'thu': 09:45-20:00, 'fri': 09:45-20:00, 'sat': 10:00-18:30, 'sun': выходной",60.033514,30.419412,"4,4",['8 (800) 555-55-50Показать телефон'],"['https://ok.ru/sberbank', 'https://vk.com/sberbank']",74,71,76,49,60,100,83,,,,,2024-06-22 11:22:11
122,75828822244,СберБанк,"Ленинский просп., 56, Санкт-Петербург",www.sberbank.ru,"'mon': выходной, 'tue': выходной, 'wed': выходной, 'thu': выходной, 'fri': выходной, 'sat': выходной, 'sun': выходной",59.866765,30.159106,"4,4",['8 (800) 555-55-50Показать телефон'],"['http://ok.ru/sberbank', 'https://vk.com/sberbank']",76,84,79,63,70,100,,,,,,2024-06-22 11:22:11
123,124150037844,СберБанк,"Ленинский просп., 117, корп. 1, Санкт-Петербург",www.sberbank.ru,"'mon': выходной, 'tue': выходной, 'wed': выходной, 'thu': выходной, 'fri': выходной, 'sat': выходной, 'sun': выходной",59.851150,30.255531,"4,4",['8 (800) 555-55-50Показать телефон'],"['http://ok.ru/sberbank', 'https://vk.com/sberbank']",75,73,80,69,61,100,,,,,,2024-06-22 11:22:11
124,240628526563,СберБанк,"просп. Чернышевского, 18, Санкт-Петербург",www.sberbank.ru,"'mon': 10:30-19:30, 'tue': 10:30-19:30, 'wed': 10:30-19:30, 'thu': 10:30-19:30, 'fri': 10:15-19:30, 'sat': 11:15-16:30, 'sun': выходной",59.944964,30.359831,"4,3",['8 (800) 555-55-50Показать телефон'],"['http://ok.ru/sberbank', 'https://vk.com/sberbank']",63,64,74,49,85,87,,,,,,2024-06-22 11:22:11
125,1103329906,СберБанк,"ул. Восстания, 21, Санкт-Петербург",www.sberbank.ru,"'mon': 10:00-19:00, 'tue': 10:00-19:00, 'wed': 10:00-19:00, 'thu': 10:00-19:00, 'fri': 10:00-19:00, 'sat': 10:00-16:30, 'sun': выходной",59.935956,30.360513,"4,3",['8 (800) 555-55-50Показать телефон'],"['http://ok.ru/sberbank', 'https://t.me/sberbank', 'https://vk.com/sberbank']",68,63,70,58,54,,,,,,,2024-06-22 11:22:11
126,188087639478,СберБанк,"Бухарестская ул., 112, Санкт-Петербург",www.sberbank.ru,"'mon': выходной, 'tue': выходной, 'wed': выходной, 'thu': выходной, 'fri': выходной, 'sat': выходной, 'sun': выходной",59.849919,30.403621,"4,4",['8 (800) 555-55-50Показать телефон'],"['http://ok.ru/sberbank', 'https://vk.com/sberbank']",71,75,74,54,75,,,,,,,2024-06-22 11:22:11
127,1138799899,СберБанк,"Богатырский просп., 10, Санкт-Петербург",www.sberbank.ru,"'mon': выходной, 'tue': выходной, 'wed': выходной, 'thu': выходной, 'fri': выходной, 'sat': выходной, 'sun': выходной",59.998181,30.279576,"4,3",['8 (800) 555-55-50Показать телефон'],"['http://ok.ru/sberbank', 'https://vk.com/sberbank']",82,84,84,71,32,85,25,,,,,2024-06-22 11:22:11
128,1030865495,СберБанк,"3-я линия Васильевского острова, 34/15, Санкт-Петербург",www.sberbank.ru,"'mon': 09:30-19:00, 'tue': 09:30-19:00, 'wed': 09:30-19:00, 'thu': 09:30-19:00, 'fri': 09:30-19:00, 'sat': 09:30-19:00, 'sun': выходной",59.944523,30.282835,"4,3",['8 (800) 555-55-50Показать телефон'],"['https://ok.ru/sber/', 'https://vk.com/sberbank']",66,67,71,48,68,92,,,70,74,,2024-06-22 11:22:11
129,1065811844,СберБанк,"ул. Нахимова, 14/41, Санкт-Петербург",www.sberbank.ru,"'mon': 10:00-21:00, 'tue': 10:00-21:00, 'wed': 10:00-21:00, 'thu': 09:45-21:00, 'fri': 10:00-21:00, 'sat': 10:00-19:00, 'sun': 10:00-19:00",59.942101,30.232308,"4,3",['8 (800) 555-55-50Показать телефон'],"['http://ok.ru/sberbank', 'https://vk.com/sberbank']",58,57,62,36,35,77,21,59,,,,2024-06-22 11:22:11
130,1021774314,СберБанк,"Каменноостровский просп., 41, Санкт-Петербург",www.sberbank.ru,"'mon': 09:00-18:00, 'tue': 09:00-18:00, 'wed': 09:00-18:00, 'thu': 09:00-18:00, 'fri': 09:00-18:00, 'sat': 10:30-17:30, 'sun': выходной",59.968308,30.309508,"4,2",['8 (800) 555-55-50Показать телефон'],"['http://ok.ru/sberbank', 'https://t.me/sberbank', 'https://vk.com/sberbank']",66,66,75,52,40,90,20,,,,,2024-06-22 11:22:11
131,1104583062,СберБанк,"Коломяжский просп., 15, корп. 2, Санкт-Петербург",www.sberbank.ru,"'mon': выходной, 'tue': выходной, 'wed': выходной, 'thu': выходной, 'fri': выходной, 'sat': выходной, 'sun': выходной",60.001928,30.299212,"4,4",['8 (800) 555-55-50Показать телефон'],"['https://ok.ru/sberbank', 'https://vk.com/bankdruzey']",71,71,73,58,52,89,,,65,70,,2024-06-22 11:22:11
132,1131124581,СберБанк,"2-я Красноармейская ул., 2/27, Санкт-Петербург",www.sberbank.ru,"'mon': 09:30-19:30, 'tue': 09:30-19:30, 'wed': 09:30-19:30, 'thu': 09:30-19:30, 'fri': 09:30-19:30, 'sat': 10:00-17:00, 'sun': выходной",59.915101,30.317746,"4,3",['8 (800) 555-55-50Показать телефон'],"['https://ok.ru/sberbank', 'https://t.me/sberbank', 'https://vk.com/sberbank']",55,50,59,47,54,,,,,,,2024-06-22 11:22:11
133,168930424105,СберБанк,"ул. Ленсовета, 88, Санкт-Петербург",www.sberbank.ru,"'mon': 10:00-20:00, 'tue': 10:00-20:00, 'wed': 10:00-20:00, 'thu': 10:00-20:00, 'fri': 10:00-20:00, 'sat': 10:00-20:00, 'sun': 10:30-15:30",59.833088,30.350275,"4,4",['8 (800) 555-55-50Показать телефон'],"['http://ok.ru/sberbank', 'https://vk.com/sberbank']",64,67,75,47,83,100,,,,,,2024-06-22 11:22:11
134,1105589432,СберБанк,"просп. Просвещения, 78, Санкт-Петербург",www.sberbank.ru,"'mon': 10:00-21:00, 'tue': 10:00-21:00, 'wed': 10:00-21:00, 'thu': 10:00-21:00, 'fri': 10:00-21:00, 'sat': 10:00-21:00, 'sun': 10:00-21:00",60.039684,30.401251,"4,3",['8 (800) 555-55-50Показать телефон'],['https://vk.com/sberbank'],66,69,70,44,26,,38,35,,,,2024-06-22 11:22:11
135,1025667257,СберБанк,"1-я Красноармейская ул., 4, Санкт-Петербург",www.sberbank.ru,"'mon': 10:00-19:00, 'tue': 10:00-19:00, 'wed': 10:00-19:00, 'thu': 10:00-19:00, 'fri': 10:00-19:00, 'sat': выходной, 'sun': выходной",59.915954,30.316323,"4,3",['8 (800) 555-55-50Показать телефон'],"['http://ok.ru/sberbank', 'https://t.me/sberbank', 'https://vk.com/sberbank']",78,80,81,59,73,93,,,,,,2024-06-22 11:22:11
136,195335520750,СберБанк,"Московский просп., 193, Санкт-Петербург",www.sberbank.ru,"'mon': 10:30-20:00, 'tue': 10:30-20:00, 'wed': 10:30-20:00, 'thu': 10:15-20:00, 'fri': 10:30-20:00, 'sat': 10:30-18:30, 'sun': выходной",59.851690,30.320875,"4,3",['8 (800) 555-55-50Показать телефон'],"['http://ok.ru/sberbank', 'https://vk.com/sberbank']",52,50,56,36,61,92,,,,,,2024-06-22 11:22:11
137,1155925748,СберБанк,"просп. Славы, 4, Санкт-Петербург",www.sberbank.ru,"'mon': 10:00-19:00, 'tue': 10:00-19:00, 'wed': 10:00-19:00, 'thu': 10:00-19:00, 'fri': 10:00-19:00, 'sat': выходной, 'sun': выходной",59.855395,30.371671,"4,4",['8 (800) 555-55-50Показать телефон'],"['http://ok.ru/sberbank', 'https://vk.com/sberbank']",71,73,75,56,41,,,,,,,2024-06-22 11:22:11
138,1102944644,СберБанк,"Богатырский просп., 51, корп. 1, Санкт-Петербург",www.sberbank.ru,"'mon': 10:00-18:30, 'tue': 10:00-18:30, 'wed': 10:00-18:30, 'thu': 09:45-18:30, 'fri': 09:45-18:30, 'sat': 10:00-17:00, 'sun': выходной",60.006293,30.219504,"4,4",['8 (800) 555-55-50Показать телефон'],"['http://ok.ru/sberbank', 'https://t.me/sberbank', 'https://vk.com/sberbank']",84,85,85,65,63,95,50,,,,,2024-06-22 11:22:11
139,1017263152,СберБанк,"Бухарестская ул., 23, корп. 1, Санкт-Петербург",www.sberbank.ru,"'mon': выходной, 'tue': выходной, 'wed': выходной, 'thu': выходной, 'fri': выходной, 'sat': выходной, 'sun': выходной",59.873568,30.376631,"4,4",['8 (800) 555-55-50Показать телефон'],"['http://ok.ru/sberbank', 'https://t.me/sberbank', 'https://vk.com/sberbank']",72,70,76,62,74,87,65,,,,,2024-06-22 11:22:11
140,1102286164,СберБанк,"Гатчинская ул., 1/56, Санкт-Петербург",www.sberbank.ru,"'mon': 10:00-19:00, 'tue': 10:00-19:00, 'wed': 10:00-19:00, 'thu': 10:00-19:00, 'fri': 10:00-19:00, 'sat': выходной, 'sun': выходной",59.960608,30.303332,"4,4",['8 (800) 555-55-50Показать телефон'],"['http://ok.ru/sberbank', 'https://vk.com/sberbank']",82,84,86,67,74,100,45,,,,,2024-06-22 11:22:11
141,118054401618,СберБанк,"Бухарестская ул., 43, Санкт-Петербург",www.sberbank.ru,"'mon': 09:30-20:00, 'tue': 09:30-20:00, 'wed': 09:30-20:00, 'thu': 09:30-20:00, 'fri': 09:30-20:00, 'sat': 09:30-20:00, 'sun': выходной",59.860798,30.389650,"4,3",['8 (800) 555-55-50Показать телефон'],"['http://ok.ru/sberbank', 'https://vk.com/sberbank']",66,62,71,57,75,93,55,,64,71,,2024-06-22 11:22:11
142,1003842121,СберБанк,"Софийская ул., 29, корп. 2, Санкт-Петербург",www.sberbank.ru,"'mon': 09:30-19:30, 'tue': 09:30-19:30, 'wed': 09:30-19:30, 'thu': 09:30-19:30, 'fri': 09:30-19:30, 'sat': 09:45-17:00, 'sun': выходной",59.877784,30.395664,"4,4",['8 (800) 555-55-50Показать телефон'],"['http://ok.ru/sberbank', 'https://vk.com/sberbank']",79,78,82,55,59,100,,,,,,2024-06-22 11:22:11
143,1090398555,СберБанк,"Московский просп., 189, Санкт-Петербург",www.sberbank.ru,"'mon': 10:00-19:30, 'tue': 10:00-19:30, 'wed': 10:00-19:30, 'thu': 09:45-19:30, 'fri': 10:00-19:30, 'sat': 10:00-18:00, 'sun': выходной",59.854036,30.320684,"4,5",['8 (800) 555-55-50Показать телефон'],"['https://ok.ru/sber/', 'https://t.me/sberbank', 'https://vk.com/bankdruzey']",62,59,65,49,92,96,,,50,60,,2024-06-22 11:22:11
144,1040803179,СберБанк,"Средний просп. Васильевского острова, 35, Санкт-Петербург",www.sberbank.ru,"'mon': 10:00-19:30, 'tue': 10:00-19:30, 'wed': 10:00-19:30, 'thu': 10:00-19:30, 'fri': 10:00-19:30, 'sat': 10:00-16:00, 'sun': выходной",59.942832,30.276783,"4,2",['8 (800) 555-55-50Показать телефон'],"['https://ok.ru/sber/', 'https://t.me/s/sberbank', 'https://vk.com/sberbank']",63,59,60,58,25,,,,,,,2024-06-22 11:22:11
145,34292635590,СберБанк,"Московский просп., 212, Санкт-Петербург",www.sberbank.ru,"'mon': выходной, 'tue': выходной, 'wed': выходной, 'thu': выходной, 'fri': выходной, 'sat': выходной, 'sun': выходной",59.852189,30.327151,"4,1",['8 (800) 555-55-50Показать телефон'],"['http://ok.ru/sberbank', 'https://vk.com/sberbank']",63,60,67,75,,,,,,,,2024-06-22 11:22:11
146,1015493299,СберБанк,"просп. Стачек, 73, Санкт-Петербург",www.sberbank.ru,"'mon': 09:30-18:30, 'tue': 09:30-18:30, 'wed': 09:30-18:30, 'thu': 09:30-18:30, 'fri': 09:30-18:30, 'sat': выходной, 'sun': выходной",59.868042,30.259810,"4,3",['8 (800) 555-55-50Показать телефон'],"['http://ok.ru/sberbank', 'https://t.me/sberbank', 'https://vk.com/sber']",74,74,79,63,24,91,,,,,,2024-06-22 11:22:11
147,244629437854,СберБанк,"просп. Энергетиков, 37, Санкт-Петербург",www.sberbank.ru,"'mon': 10:00-20:00, 'tue': 10:00-20:00, 'wed': 10:00-20:00, 'thu': 10:00-20:00, 'fri': 10:00-20:00, 'sat': 10:00-20:00, 'sun': выходной",59.958917,30.439482,"4,4",['8 (800) 555-55-50Показать телефон'],"['http://ok.ru/sberbank', 'https://t.me/s/sberbank', 'https://vk.com/sber']",70,72,73,62,69,92,,,,,,2024-06-22 11:22:11
148,1332871349,СберБанк,"Невский просп., 25, Санкт-Петербург",www.sberbank.ru,"'mon': 10:00-18:30, 'tue': 10:00-18:30, 'wed': 10:00-18:30, 'thu': 10:00-18:30, 'fri': 10:00-18:30, 'sat': 10:30-17:00, 'sun': выходной",59.935522,30.323583,"4,3",['8 (800) 555-55-50Показать телефон'],"['https://ok.ru/sberbank', 'https://t.me/Sber_Business_Live_bot', 'https://vk.com/careersber']",59,58,65,58,,100,,,,,,2024-06-22 11:22:11
149,235143703797,СберБанк,"Европейский просп., 5, Кудрово",www.sberbank.ru,"'mon': 10:30-20:00, 'tue': 10:30-20:00, 'wed': 10:30-20:00, 'thu': 10:30-20:00, 'fri': 10:30-20:00, 'sat': 11:00-15:00, 'sun': выходной",59.898748,30.511145,"4,5",['8 (800) 555-55-50Показать телефон'],"['https://ok.ru/sberbank', 'https://vk.com/sberbank']",72,73,80,49,46,100,33,,,,,2024-06-22 11:22:11
150,1067175798,СберБанк,"ул. Осипенко, 2, Санкт-Петербург",www.sberbank.ru,"'mon': 10:00-19:30, 'tue': 10:00-19:30, 'wed': 10:00-19:30, 'thu': 09:45-19:30, 'fri': 09:45-19:30, 'sat': 10:30-17:00, 'sun': выходной",59.945481,30.483398,"4,4",['8 (800) 555-55-50Показать телефон'],"['http://ok.ru/sberbank', 'https://vk.com/sberbank']",78,78,79,68,67,75,,,,,,2024-06-22 11:22:11
151,1017542329,СберБанк,"Каменноостровский просп., 32, Санкт-Петербург",www.sberbank.ru,"'mon': 10:00-19:00, 'tue': 10:00-19:00, 'wed': 10:00-19:00, 'thu': 10:00-19:00, 'fri': 10:00-19:00, 'sat': выходной, 'sun': выходной",59.964004,30.313072,"4,0",['8 (800) 555-55-50Показать телефон'],"['http://ok.ru/sberbank', 'https://vk.com/sberbank']",63,63,62,48,,,,,,,,2024-06-22 11:22:11
152,1080616302,СберБанк,"Тихорецкий просп., 26, Санкт-Петербург",www.sberbank.ru,"'mon': 10:00-19:00, 'tue': 10:00-19:00, 'wed': 10:00-19:00, 'thu': 10:00-19:00, 'fri': 10:00-19:00, 'sat': выходной, 'sun': выходной",60.017850,30.366776,"4,3",['8 (800) 555-55-50Показать телефон'],"['http://ok.ru/sberbank', 'https://vk.com/sberbank']",75,76,79,75,82,100,33,,,,,2024-06-22 11:22:11
153,11609928590,СберБанк,"ул. Маршала Говорова, 12, корп. 1, Санкт-Петербург",www.sberbank.ru,"'mon': 10:00-21:00, 'tue': 10:00-21:00, 'wed': 09:45-21:00, 'thu': 09:45-21:00, 'fri': 10:00-21:00, 'sat': 10:00-19:00, 'sun': 10:00-19:00",59.878822,30.266398,"4,4",['8 (800) 555-55-50Показать телефон'],"['http://ok.ru/sberbank', 'https://vk.com/sberbank']",71,69,74,56,46,75,31,65,,,,2024-06-22 11:22:11
154,1060930003,СберБанк,"ул. Олеко Дундича, 34, Санкт-Петербург",www.sberbank.ru,"'mon': 09:30-19:30, 'tue': 09:30-19:30, 'wed': 09:30-19:30, 'thu': 09:30-19:30, 'fri': 09:30-19:30, 'sat': 09:30-19:30, 'sun': выходной",59.833871,30.420636,"4,3",['+7 (495) 500-55-50Показать телефон'],['https://vk.com/sberbank'],72,74,79,48,33,,,,,,,2024-06-22 11:22:11
155,1063605979,СберБанк,"ул. Олеко Дундича, 34, Санкт-Петербург",www.sberbank.ru,"'mon': 10:00-19:30, 'tue': 10:00-19:30, 'wed': 10:00-19:30, 'thu': 10:00-19:30, 'fri': 09:45-19:30, 'sat': 10:15-16:30, 'sun': выходной",59.833834,30.420575,"4,4",['8 (800) 555-55-50Показать телефон'],"['http://ok.ru/sberbank', 'https://vk.com/sberbank']",74,77,78,59,31,100,,,,,,2024-06-22 11:22:11
156,1112971108,СберБанк,"просп. Стачек, 90, Санкт-Петербург",www.sberbank.ru,"'mon': 10:00-19:00, 'tue': 10:00-19:00, 'wed': 09:45-19:00, 'thu': 09:45-19:00, 'fri': 10:00-19:00, 'sat': 10:00-16:30, 'sun': выходной",59.868338,30.260875,"4,3",['8 (800) 555-55-50Показать телефон'],"['http://ok.ru/sberbank', 'https://vk.com/sberbank']",68,66,70,55,58,90,,,,,,2024-06-22 11:22:11
157,1072942815,СберБанк,"просп. Стачек, 18, Санкт-Петербург",www.sberbank.ru,"'mon': 10:00-19:00, 'tue': 10:00-19:00, 'wed': 10:00-19:00, 'thu': 10:00-19:00, 'fri': 10:00-19:00, 'sat': выходной, 'sun': выходной",59.895128,30.279416,"4,3",['8 (800) 555-55-50Показать телефон'],"['http://ok.ru/sberbank', 'https://vk.com/sberbank']",82,84,85,69,90,,,,,,,2024-06-22 11:22:11
158,1056094810,СберБанк,"просп. Металлистов, 59, Санкт-Петербург",www.sberbank.ru,"'mon': 10:00-19:00, 'tue': 10:00-19:00, 'wed': 10:00-19:00, 'thu': 10:00-19:00, 'fri': 10:00-19:00, 'sat': выходной, 'sun': выходной",59.969279,30.408807,"4,4",['8 (800) 555-55-50Показать телефон'],"['https://ok.ru/sberbank', 'https://t.me/sberbank', 'https://vk.com/sberbank']",71,69,68,53,55,,,,,,,2024-06-22 11:22:11
159,1091458863,СберБанк,"Кондратьевский просп., 53, Санкт-Петербург",www.sberbank.ru,"'mon': 10:00-19:00, 'tue': 10:00-19:00, 'wed': 10:00-19:00, 'thu': 10:00-19:00, 'fri': 10:00-19:00, 'sat': выходной, 'sun': выходной",59.974176,30.390144,"4,3",['8 (800) 555-55-50Показать телефон'],"['http://ok.ru/sberbank', 'https://vk.com/sberbank']",70,71,75,48,50,93,31,,,,,2024-06-22 11:22:11
160,153813805222,СберБанк,"площадь Карла Фаберже, 8Б, Санкт-Петербург",www.sberbank.ru,"'mon': 09:00-18:00, 'tue': 09:00-18:00, 'wed': 09:00-18:00, 'thu': 09:00-18:00, 'fri': 09:00-16:45, 'sat': выходной, 'sun': выходной",59.935166,30.435972,"4,4",['8 (800) 555-55-50Показать телефон'],['https://vk.com/sberbank'],,,,,,,,,,,,2024-06-22 11:22:11
161,158618734005,СберБанк,"ул. Мира, 10, Санкт-Петербург",www.sberbank.ru,"'mon': 10:30-19:30, 'tue': 10:30-19:30, 'wed': 10:15-19:30, 'thu': 10:15-19:30, 'fri': 10:30-19:30, 'sat': 10:30-16:30, 'sun': выходной",59.960298,30.316654,"4,4",['8 (800) 555-55-50Показать телефон'],"['https://ok.ru/sberbank', 'https://t.me/sberbank', 'https://vk.com/sberbank']",78,76,81,65,75,91,,,,,,2024-06-22 11:22:11
162,1117767711,СберБанк,"Новочеркасский просп., 26/16, Санкт-Петербург",www.sberbank.ru,"'mon': 09:30-20:00, 'tue': 09:30-20:00, 'wed': 09:30-20:00, 'thu': 09:30-20:00, 'fri': 09:30-20:00, 'sat': 09:30-17:30, 'sun': 10:30-16:00",59.929831,30.412030,"4,4",['8 (800) 555-55-50Показать телефон'],"['https://ok.ru/sberbank', 'https://vk.com/sberbank']",79,81,83,64,33,92,,,,,,2024-06-22 11:22:11
163,1380413951,СберБанк,"Первомайская ул., 15, посёлок Шушары",www.sberbank.ru,"'mon': 10:00-19:00, 'tue': 10:00-19:00, 'wed': 09:45-19:00, 'thu': 09:45-19:00, 'fri': 10:00-19:00, 'sat': 10:00-17:30, 'sun': выходной",59.806850,30.377781,"4,5",['8 (800) 555-55-50Показать телефон'],"['http://ok.ru/sberbank', 'https://vk.com/sberbank']",72,69,74,42,44,100,,,,,,2024-06-22 11:22:11
164,1065411964,СберБанк,"Боткинская ул., 4, Санкт-Петербург",www.sberbank.ru,"'mon': 09:30-20:00, 'tue': 09:30-20:00, 'wed': 09:30-20:00, 'thu': 09:30-20:00, 'fri': 09:30-20:00, 'sat': 10:00-17:00, 'sun': 10:30-16:00",59.957525,30.354190,"4,4",['8 (800) 555-55-50Показать телефон'],"['http://ok.ru/sberbank', 'https://t.me/sberbank', 'https://vk.com/sberbank']",79,82,81,78,88,92,,64,,,,2024-06-22 11:22:11
165,1072057945,СберБанк,"ул. Смолячкова, 19, Санкт-Петербург",www.sberbank.ru,"'mon': 10:00-19:00, 'tue': 10:00-19:00, 'wed': 10:00-19:00, 'thu': 10:00-19:00, 'fri': 10:00-19:00, 'sat': 10:00-17:30, 'sun': выходной",59.970954,30.346564,"4,4",['8 (800) 555-55-50Показать телефон'],"['http://ok.ru/sberbank', 'https://vk.com/sberbank']",86,86,86,82,61,100,,,,,,2024-06-22 11:22:11
166,1070716259,СберБанк,"просп. Науки, 41, Санкт-Петербург",www.sberbank.ru,"'mon': 10:00-19:00, 'tue': 10:00-19:00, 'wed': 10:00-19:00, 'thu': 10:00-19:00, 'fri': 10:00-19:00, 'sat': 11:00-16:30, 'sun': выходной",60.008666,30.412795,"4,4",['8 (800) 555-55-50Показать телефон'],"['http://ok.ru/sberbank', 'https://t.me/sberbank', 'https://vk.com/sberbank']",73,75,75,64,27,,,,,,,2024-06-22 11:22:11
167,1075171831,СберБанк,"ул. Коммуны, 58, Санкт-Петербург",www.sberbank.ru,"'mon': 10:00-19:00, 'tue': 10:00-19:00, 'wed': 10:00-19:00, 'thu': 10:00-19:00, 'fri': 10:00-19:00, 'sat': выходной, 'sun': выходной",59.960928,30.489392,"4,4",['8 (800) 555-55-50Показать телефон'],"['http://ok.ru/sberbank', 'https://vk.com/sberbank']",76,79,81,60,56,97,19,,,,,2024-06-22 11:22:11
168,1059914109,СберБанк,"Лиговский просп., 105, Санкт-Петербург",www.sberbank.ru,"'mon': 10:00-19:30, 'tue': 10:00-19:30, 'wed': 10:00-19:30, 'thu': 10:00-19:30, 'fri': 09:45-19:30, 'sat': 09:45-18:00, 'sun': выходной",59.921572,30.354030,"4,3",['8 (800) 555-55-50Показать телефон'],"['http://ok.ru/sberbank', 'https://vk.com/sberbank']",55,56,58,38,79,85,60,,,,,2024-06-22 11:22:11
169,1015133225,СберБанк,"Индустриальный просп., 26/24, Санкт-Петербург",www.sberbank.ru,"'mon': 09:30-19:00, 'tue': 09:30-19:00, 'wed': 09:30-19:00, 'thu': 09:30-19:00, 'fri': 09:30-19:00, 'sat': 09:30-19:00, 'sun': 11:00-16:00",59.947823,30.474236,"4,5",['8 (800) 555-55-50Показать телефон'],"['http://ok.ru/sberbank', 'https://vk.com/sberbank']",78,79,84,66,58,92,71,91,,,,2024-06-22 11:22:11
170,1022285461,СберБанк,"просп. Просвещения, 67, Санкт-Петербург",www.sberbank.ru,"'mon': 10:00-18:30, 'tue': 10:00-18:30, 'wed': 10:00-18:30, 'thu': 09:45-18:30, 'fri': 09:45-18:30, 'sat': 10:00-18:30, 'sun': выходной",60.040688,30.392546,"4,4",['8 (800) 555-55-50Показать телефон'],"['http://ok.ru/sberbank', 'https://t.me/sberbank', 'https://vk.com/sberbank']",81,80,84,68,71,93,,,,,,2024-06-22 11:22:11
171,1100223844,СберБанк,"просп. Стачек, 26, Санкт-Петербург",www.sberbank.ru,"'mon': 10:00-19:00, 'tue': 10:00-19:00, 'wed': 10:00-19:00, 'thu': 10:00-19:00, 'fri': 10:00-19:00, 'sat': выходной, 'sun': выходной",59.890017,30.272115,"4,3",['8 (800) 555-55-50Показать телефон'],"['http://ok.ru/sberbank', 'https://vk.com/sberbank']",68,67,73,46,68,100,,,,,,2024-06-22 11:22:11
172,1031453161,СберБанк,"Ленинский просп., 71, корп. 1, Санкт-Петербург",www.sberbank.ru,"'mon': 10:00-19:00, 'tue': 10:00-19:00, 'wed': 10:00-19:00, 'thu': 10:00-19:00, 'fri': 09:45-19:00, 'sat': 09:45-17:00, 'sun': выходной",59.859561,30.185323,"4,4",['8 (800) 555-55-50Показать телефон'],"['http://ok.ru/sberbank', 'https://vk.com/sberbank']",79,79,82,55,55,87,42,,,,,2024-06-22 11:22:11
173,200691349775,СберБанк,"Московский просп., 75, Санкт-Петербург",www.sberbank.ru,"'mon': 10:00-20:00, 'tue': 10:00-20:00, 'wed': 10:00-20:00, 'thu': 10:00-20:00, 'fri': 10:00-20:00, 'sat': 10:00-20:00, 'sun': выходной",59.903246,30.318267,"4,2",['8 (800) 555-55-50Показать телефон'],"['http://ok.ru/sberbank', 'https://vk.com/sberbank']",67,65,76,58,77,81,27,,,,,2024-06-22 11:22:11
174,1111133173,СберБанк,"Пискарёвский просп., 35, Санкт-Петербург",www.sberbank.ru,"'mon': 10:00-18:30, 'tue': 10:00-18:30, 'wed': 10:00-18:30, 'thu': 10:00-18:30, 'fri': 10:00-18:30, 'sat': 11:00-16:30, 'sun': выходной",59.976990,30.419101,"4,3",['8 (800) 555-55-50Показать телефон'],"['http://ok.ru/sberbank', 'https://t.me/sberbank', 'https://vk.com/sberbank']",76,75,74,54,63,91,,,,,,2024-06-22 11:22:11
175,1133300622,СберБанк,"ул. Бабушкина, 38, корп. 2, Санкт-Петербург",www.sberbank.ru,"'mon': 09:30-20:00, 'tue': 09:30-20:00, 'wed': 09:30-20:00, 'thu': 09:30-20:00, 'fri': 09:30-20:00, 'sat': 10:30-16:30, 'sun': 11:00-16:00",59.878021,30.442290,"4,3",['8 (800) 555-55-50Показать телефон'],"['http://ok.ru/sberbank', 'https://vk.com/sberbank']",75,73,77,57,56,100,,,,,,2024-06-22 11:22:11
176,1063861651,СберБанк,"Шоссейная ул., 12, посёлок Бугры",www.sberbank.ru,"'mon': выходной, 'tue': 12:00-13:00,14:00-17:15, 'wed': 09:00-13:00,14:00-17:15, 'thu': 09:00-13:00,14:00-17:15, 'fri': 09:00-13:00,14:00-17:15, 'sat': 10:00-13:00,13:45-15:15, 'sun': выходной",60.068875,30.393069,"3,7",['8 (800) 555-55-50Показать телефон'],"['http://ok.ru/sberbank', 'https://vk.com/sberbank']",84,96,92,38,0,,0,,,,,2024-06-22 11:22:11
177,150675268280,,,,"'mon': выходной, 'tue': выходной, 'wed': выходной, 'thu': выходной, 'fri': выходной, 'sat': выходной, 'sun': выходной",55.755863,37.617700,,[],[],,,,,,,,,,,,2024-06-22 11:22:11
178,89097608975,СберБанк,"просп. Большевиков, 27, Санкт-Петербург",www.sberbank.ru,"'mon': выходной, 'tue': выходной, 'wed': выходной, 'thu': выходной, 'fri': выходной, 'sat': выходной, 'sun': выходной",59.900520,30.485874,"4,3",['8 (800) 555-55-50Показать телефон'],['https://vk.com/sberbank'],,,,,,,,,,,,2024-06-22 11:22:11
179,31785334427,СберБанк,"Садовая ул., 10, посёлок Аннино",www.sberbank.ru,"'mon': выходной, 'tue': 09:30-13:00,14:00-16:45, 'wed': 09:30-13:00,14:00-15:45, 'thu': выходной, 'fri': 09:00-13:00,14:00-17:15, 'sat': 09:00-12:00,12:30-14:00, 'sun': выходной",59.775857,30.044559,"3,8",['8 (800) 555-55-50Показать телефон'],"['http://ok.ru/sberbank', 'https://vk.com/sberbank']",83,86,89,53,0,,27,,,,,2024-06-22 11:22:11
180,1075155954,СберБанк,"ш. Революции, 16, Санкт-Петербург",www.sberbank.ru,"'mon': 10:00-19:00, 'tue': 10:00-19:00, 'wed': 10:00-19:00, 'thu': 09:45-19:00, 'fri': 09:45-19:00, 'sat': 10:00-18:30, 'sun': выходной",59.959487,30.416534,"4,3",['8 (800) 555-55-50Показать телефон'],"['http://ok.ru/sberbank', 'https://vk.com/sberbank']",79,76,83,51,61,100,60,,,,,2024-06-22 11:22:11
181,1049321052,СберБанк,"ул. Коллонтай, 24, корп. 2, Санкт-Петербург",www.sberbank.ru,"'mon': 10:00-19:30, 'tue': 10:00-19:30, 'wed': 10:00-19:30, 'thu': 10:00-19:30, 'fri': 09:45-19:30, 'sat': 10:15-19:00, 'sun': выходной",59.921538,30.474774,"4,4",['8 (800) 555-55-50Показать телефон'],"['http://ok.ru/sberbank', 'https://t.me/sberbank', 'https://vk.com/sberbank']",68,67,69,57,56,92,43,,72,63,,2024-06-22 11:22:11
182,1035696029,СберБанк,"просп. Ветеранов, 114, корп. 1, Санкт-Петербург",www.sberbank.ru,"'mon': выходной, 'tue': выходной, 'wed': выходной, 'thu': выходной, 'fri': выходной, 'sat': выходной, 'sun': выходной",59.832587,30.196689,"4,5",['8 (800) 555-55-50Показать телефон'],"['http://ok.ru/sberbank', 'https://vk.com/sberbank']",71,70,74,64,83,85,53,,53,46,,2024-06-22 11:22:11
183,1499269781,СберБанк,"площадь Карла Фаберже, 8Б, Санкт-Петербург",www.sberbank.ru,"'mon': 09:00-19:00, 'tue': 09:00-19:00, 'wed': 09:00-19:00, 'thu': 09:00-19:00, 'fri': 09:00-19:00, 'sat': 10:00-16:00, 'sun': выходной",59.935139,30.436028,"4,3",['8 (800) 555-55-50Показать телефон'],"['http://ok.ru/sberbank', 'https://vk.com/sberbank']",66,61,65,55,50,76,,,,,,2024-06-22 11:22:11
184,69117683964,СберБанк,"просп. Художников, 13, корп. 1, Санкт-Петербург",www.sberbank.ru,"'mon': 10:00-19:00, 'tue': 10:00-19:00, 'wed': 10:00-19:00, 'thu': 10:00-19:00, 'fri': 10:00-19:00, 'sat': выходной, 'sun': выходной",60.037027,30.345611,"4,4",['8 (800) 555-55-50Показать телефон'],"['http://ok.ru/sberbank', 'https://t.me/sberbank', 'https://vk.com/sberbank']",63,64,70,62,85,100,,,,,,2024-06-22 11:22:11
