,ID,name,address,website,opening_hours,lat,lon,rating,phone,social,Персонал,Время ожидания,Банкомат,Расположение,График работы,Кредит,Ремонт,Ипотека,Доступность,load_time
0,sberbank/1150771757,СберБанк,"16-я линия Васильевского острова, 15/57, Санкт-Петербург",www.sberbank.ru,"'mon': 10:00-19:00, 'tue': 10:00-19:00, 'wed': 10:00-19:00, 'thu': 10:00-19:00, 'fri': 10:00-19:00, 'sat': выходной, 'sun': выходной, ",59.936206,30.270198,"4,4",['8 (800) 555-55-50Показать телефон'],"['https://ok.ru/sber/', 'https://vk.com/sberbank']",62,57,46,100,,,,,,2024-08-05 16:36:22
1,sberbank/1059154360,СберБанк,"площадь Александра Невского, 2, Санкт-Петербург",www.sberbank.com,"'mon': 10:00-19:00, 'tue': 10:00-19:00, 'wed': 10:00-19:00, 'thu': 10:00-19:00, 'fri': 10:00-19:00, 'sat': выходной, 'sun': выходной, ",59.924406,30.385784,"4,2",['8 (800) 555-55-50Показать телефон'],"['http://ok.ru/sberbank', 'https://vk.com/sberbank']",82,62,,,,,,,,2024-08-05 16:36:22
2,sberbank/1025636426,СберБанк,"Суворовский просп., 20, Санкт-Петербург",www.sberbank.ru,"'mon': 10:00-19:00, 'tue': 10:00-19:00, 'wed': 10:00-19:00, 'thu': 10:00-19:00, 'fri': 10:00-19:00, 'sat': выходной, 'sun': выходной, ",59.935922,30.371716,"4,3",['8 (800) 555-55-50Показать телефон'],"['http://ok.ru/sberbank', 'https://t.me/sberbank', 'https://vk.com/sberbank']",76,38,42,87,,,,,,2024-08-05 16:36:22
3,sberbank/181432090343,СберБанк,"Московский просп., 172, Санкт-Петербург",,"'mon': 10:00-19:00, 'tue': 10:00-19:00, 'wed': 10:00-19:00, 'thu': 10:00-19:00, 'fri': 10:00-19:00, 'sat': выходной, 'sun': выходной, ",59.877398,30.320952,"4,3",['8 (800) 555-55-50Показать телефон'],"['https://ok.ru/sberbank', 'https://t.me/sberbank', 'https://vk.com/sberbank']",78,55,69,83,,,,,,2024-08-05 16:36:22
4,sberbank/158571732804,СберБанк,"Троицкий просп., 7, Санкт-Петербург",www.sberbank.ru,"'mon': 10:00-19:00, 'tue': 10:00-19:00, 'wed': 10:00-19:00, 'thu': 10:00-19:00, 'fri': 10:00-19:00, 'sat': выходной, 'sun': выходной, ",59.916104,30.297902,"4,4",['8 (800) 555-55-50Показать телефон'],"['http://ok.ru/sberbank', 'https://t.me/sberbank', 'https://vk.com/sberbank']",77,46,59,92,,,,,,2024-08-05 16:36:22
5,sberbank/1087111979,СберБанк,"Гражданский просп., 105, корп. 1, Санкт-Петербург",www.sberbank.ru,"'mon': 10:00-19:00, 'tue': 10:00-19:00, 'wed': 10:00-19:00, 'thu': 10:00-19:00, 'fri': 10:00-19:00, 'sat': выходной, 'sun': выходной, ",60.026991,30.412940,"4,4",['8 (800) 555-55-50Показать телефон'],"['https://ok.ru/sberbank', 'https://vk.com/sberbank']",87,77,44,93,,,,,,2024-08-05 16:36:22
6,sberbank/1068241367,СберБанк,"ул. Савушкина, 3, Санкт-Петербург",,"'mon': 10:00-19:30, 'tue': 10:00-19:30, 'wed': 10:00-19:30, 'thu': 10:00-19:30, 'fri': 10:00-19:30, 'sat': 10:30-16:00, 'sun': 10:30-16:00, ",59.986749,30.299258,"4,3",['8 (800) 555-55-50Показать телефон'],"['http://ok.ru/sberbank', 'https://vk.com/sberbank']",75,49,57,95,82,,,,,2024-08-05 16:36:22
7,sberbank/1004532609,СберБанк,"просп. Космонавтов, 63, корп. 1, Санкт-Петербург",www.sberbank.ru,"'mon': 10:00-19:00, 'tue': 10:00-19:00, 'wed': 10:00-19:00, 'thu': 10:00-19:00, 'fri': 10:00-19:00, 'sat': выходной, 'sun': выходной, ",59.838607,30.357397,"4,5",['8 (800) 555-55-50Показать телефон'],"['http://ok.ru/sberbank', 'https://vk.com/sberbank']",83,46,56,91,24,,,,,2024-08-05 16:36:22
8,sberbank/1059732877,СберБанк,"просп. Косыгина, 28, корп. 1, Санкт-Петербург",www.sberbank.ru,"'mon': 09:30-19:30, 'tue': 09:30-19:30, 'wed': 09:30-19:30, 'thu': 09:30-19:30, 'fri': 09:30-19:30, 'sat': 10:30-17:00, 'sun': 10:30-18:00, ",59.945833,30.494740,"4,4",['8 (800) 555-55-50Показать телефон'],"['http://ok.ru/sberbank', 'https://vk.com/sberbank']",80,61,45,,,,,,,2024-08-05 16:36:22
9,sberbank/1140857575,СберБанк,"Светлановский просп., 40, корп. 1, Санкт-Петербург",www.sberbank.ru,"'mon': 10:00-19:30, 'tue': 10:00-19:30, 'wed': 10:00-19:30, 'thu': 10:00-19:30, 'fri': 10:00-19:30, 'sat': 10:00-16:30, 'sun': выходной, ",60.023196,30.376559,"4,5",['8 (800) 555-55-50Показать телефон'],"['https://ok.ru/sberbank', 'https://vk.com/sber']",91,71,61,100,,,,,,2024-08-05 16:36:22
10,sberbank/1126509971,СберБанк,"Бухарестская ул., 49/43, Санкт-Петербург",www.sberbank.ru,"'mon': выходной, 'tue': выходной, 'wed': выходной, 'thu': выходной, 'fri': выходной, 'sat': выходной, 'sun': выходной, ",59.857861,30.392602,"4,4",['8 (800) 555-55-50Показать телефон'],"['http://ok.ru/sberbank', 'https://vk.com/sberbank']",70,63,57,94,,,,,,2024-08-05 16:36:22
11,sberbank/61936429444,СберБанк,"Привокзальная площадь, 1А, корп. 1, Мурино",www.sberbank.ru,"'mon': 10:00-20:00, 'tue': 10:00-20:00, 'wed': 10:00-20:00, 'thu': 10:00-20:00, 'fri': 10:00-20:00, 'sat': 10:30-16:30, 'sun': выходной, ",60.050723,30.446757,"4,5",['8 (800) 555-55-50Показать телефон'],"['https://ok.ru/sberbank', 'https://vk.com/sberbank']",79,59,69,96,53,,,,,2024-08-05 16:36:22
12,sberbank/1020469673,СберБанк,"Яхтенная ул., 10, корп. 1, Санкт-Петербург",,"'mon': 09:30-18:30, 'tue': 09:30-18:30, 'wed': 09:30-18:30, 'thu': 09:30-18:30, 'fri': 09:30-18:30, 'sat': 10:00-16:00, 'sun': выходной, ",59.989229,30.215571,"4,3",['8 (800) 555-55-50Показать телефон'],"['http://ok.ru/sberbank', 'https://vk.com/sberbank']",82,65,76,100,36,,,,,2024-08-05 16:36:22
13,sberbank/1081543849,СберБанк,"просп. Энгельса, 128, Санкт-Петербург",www.sberbank.ru,"'mon': 10:00-19:00, 'tue': 10:00-19:00, 'wed': 10:00-19:00, 'thu': 10:00-19:00, 'fri': 10:00-19:00, 'sat': 10:00-18:00, 'sun': выходной, ",60.042905,30.326279,"4,4",['8 (800) 555-55-50Показать телефон'],"['http://ok.ru/sberbank', 'https://t.me/sberbank', 'https://vk.com/sberbank']",69,58,53,,,,,,,2024-08-05 16:36:22
14,sberbank/47641268692,СберБанк,"ул. Шувалова, 22, корп. 1, Мурино",www.sberbank.ru,"'mon': 10:00-20:00, 'tue': 10:00-20:00, 'wed': 10:00-20:00, 'thu': 10:00-20:00, 'fri': 10:00-20:00, 'sat': 10:00-19:00, 'sun': 11:00-19:00, ",60.060016,30.431850,"4,7",['8 (800) 555-55-50Показать телефон'],['https://vk.com/sberbank'],72,47,11,87,17,,,,,2024-08-05 16:36:22
15,sberbank/1013546553,СберБанк,"просп. КИМа, 4Б, Санкт-Петербург",,"'mon': выходной, 'tue': выходной, 'wed': выходной, 'thu': выходной, 'fri': выходной, 'sat': выходной, 'sun': выходной, ",59.949668,30.245054,"4,3",['8 (800) 555-55-50Показать телефон'],"['http://ok.ru/sberbank', 'https://vk.com/sberbank']",75,48,65,92,,,,,,2024-08-05 16:36:22
16,sberbank/89068644446,СберБанк,"Красносельское ш., 54, корп. 3, территория Горелово, Санкт-Петербург",www.sberbank.ru,"'mon': 09:30-18:30, 'tue': 09:30-18:30, 'wed': 09:30-18:30, 'thu': 09:30-18:30, 'fri': 09:30-18:30, 'sat': 10:00-16:00, 'sun': выходной, ",59.792029,30.148800,"4,5",['8 (800) 555-55-50Показать телефон'],"['http://ok.ru/sberbank', 'https://vk.com/sberbank']",77,66,38,,18,,,,,2024-08-05 16:36:22
17,sberbank/1056208411,СберБанк,"бул. Новаторов, 98, Санкт-Петербург",www.sberbank.ru,"'mon': 10:00-19:00, 'tue': 10:00-19:00, 'wed': 10:00-19:00, 'thu': 10:00-19:00, 'fri': 10:00-19:00, 'sat': 10:30-16:30, 'sun': 10:30-15:00, ",59.841116,30.253740,"4,4",['8 (800) 555-55-50Показать телефон'],"['http://ok.ru/sberbank', 'https://vk.com/sberbank']",85,57,50,96,,,,,,2024-08-05 16:36:22
18,sberbank/1263754551,СберБанк,"Гражданский просп., 92, корп. 1, Санкт-Петербург",www.sberbank.ru,"'mon': 10:00-19:00, 'tue': 10:00-19:00, 'wed': 10:00-19:00, 'thu': 10:00-19:00, 'fri': 10:00-19:00, 'sat': выходной, 'sun': выходной, ",60.019131,30.402744,"4,2",['8 (800) 555-55-50Показать телефон'],['https://vk.com/sberbank'],63,27,7,,0,,,,,2024-08-05 16:36:22
19,sberbank/1096338817,СберБанк,"просп. Большевиков, 2, Санкт-Петербург",www.sberbank.ru,"'mon': 10:00-19:30, 'tue': 10:00-19:30, 'wed': 10:00-19:30, 'thu': 10:00-19:30, 'fri': 10:00-19:30, 'sat': 10:00-18:00, 'sun': 10:30-16:00, ",59.917890,30.473396,"4,4",['8 (800) 555-55-50Показать телефон'],"['http://ok.ru/sberbank', 'https://vk.com/sberbank']",75,57,67,100,,40,,,,2024-08-05 16:36:22
20,sberbank/1045547626,СберБанк,"Комендантский просп., 30, корп. 1, Санкт-Петербург",,"'mon': выходной, 'tue': выходной, 'wed': выходной, 'thu': выходной, 'fri': выходной, 'sat': выходной, 'sun': выходной, ",60.015125,30.249464,"4,4",['8 (800) 555-55-50Показать телефон'],"['http://ok.ru/sberbank', 'https://vk.com/sberbank']",68,60,94,90,25,,,,,2024-08-05 16:36:22
21,sberbank/1049511586,СберБанк,"Гражданский просп., 19, корп. 1, Санкт-Петербург",www.sberbank.ru,"'mon': 09:30-19:00, 'tue': 09:30-19:00, 'wed': 09:30-19:00, 'thu': 09:30-19:00, 'fri': 09:30-19:00, 'sat': 10:00-16:30, 'sun': выходной, ",60.004195,30.389890,"4,3",['8 (800) 555-55-50Показать телефон'],"['https://ok.ru/sberbank', 'https://t.me/sberbank', 'https://vk.com/sberbank']",85,59,72,88,,,,,,2024-08-05 16:36:22
22,sberbank/1106442682,СберБанк,"просп. Елизарова, 11, Санкт-Петербург",www.sberbank.ru,"'mon': 09:30-20:00, 'tue': 09:30-20:00, 'wed': 09:30-20:00, 'thu': 09:30-20:00, 'fri': 09:30-20:00, 'sat': 10:00-16:00, 'sun': выходной, ",59.896910,30.424475,"4,4",['8 (800) 555-55-50Показать телефон'],"['http://ok.ru/sberbank', 'https://vk.com/sberbank']",81,41,35,95,29,,,,,2024-08-05 16:36:22
23,sberbank/1122930001,СберБанк,"просп. Испытателей, 31, корп. 1, Санкт-Петербург",www.sberbank.com,"'mon': 10:00-19:00, 'tue': 10:00-19:00, 'wed': 10:00-19:00, 'thu': 10:00-19:00, 'fri': 10:00-19:00, 'sat': выходной, 'sun': выходной, ",60.007520,30.270503,"4,3",['8 (800) 555-55-50Показать телефон'],"['http://ok.ru/sberbank', 'https://vk.com/sberbank']",87,57,73,100,,,,,,2024-08-05 16:36:22
24,sberbank/1125605053,СберБанк,"Озёрная ул., 4, д. Новое Девяткино",www.sberbank.ru,"'mon': 10:00-19:30, 'tue': 10:00-19:30, 'wed': 10:00-19:30, 'thu': 10:00-19:30, 'fri': 10:00-19:30, 'sat': 10:00-16:00, 'sun': выходной, ",60.056787,30.476981,"4,6",['8 (800) 555-55-50Показать телефон'],"['http://ok.ru/sberbank', 'https://t.me/sberbank', 'https://vk.com/sberbank']",92,66,71,80,,,,,,2024-08-05 16:36:22
25,sberbank/1044162053,СберБанк,"ул. Севастьянова, 7, Санкт-Петербург",www.sberbank.ru,"'mon': 09:00-19:00, 'tue': 09:00-19:00, 'wed': 09:00-19:00, 'thu': 09:00-19:00, 'fri': 09:00-19:00, 'sat': выходной, 'sun': выходной, ",59.874621,30.329092,"4,5",['8 (800) 555-55-50Показать телефон'],"['http://ok.ru/sberbank', 'https://vk.com/sberbank']",69,55,86,88,61,,,,,2024-08-05 16:36:22
26,sberbank/1103647756,СберБанк,"Невский просп., 82, Санкт-Петербург",www.sberbank.com,"'mon': 10:00-19:00, 'tue': 10:00-19:00, 'wed': 10:00-19:00, 'thu': 10:00-19:00, 'fri': 10:00-19:00, 'sat': выходной, 'sun': выходной, ",59.932735,30.349609,"4,2",['8 (800) 555-55-50Показать телефон'],"['http://ok.ru/sberbank', 'https://vk.com/sberbank']",73,58,50,94,,,,,,2024-08-05 16:36:22
27,sberbank/1090671758,СберБанк,"Долгоозёрная ул., 16, корп. 1, Санкт-Петербург",,"'mon': 10:00-19:00, 'tue': 10:00-19:00, 'wed': 10:00-19:00, 'thu': 10:00-19:00, 'fri': 10:00-19:00, 'sat': 10:00-17:00, 'sun': выходной, ",60.018731,30.250759,"4,3",['8 (800) 555-55-50Показать телефон'],"['http://ok.ru/sberbank', 'https://vk.com/sberbank']",79,59,71,100,17,,,,,2024-08-05 16:36:22
28,sberbank/1102567483,СберБанк,"просп. Авиаконструкторов, 21, корп. 1, Санкт-Петербург",www.sberbank.com,"'mon': 10:30-19:30, 'tue': 10:30-19:30, 'wed': 10:30-19:30, 'thu': 10:30-19:30, 'fri': 10:30-19:30, 'sat': 11:00-15:30, 'sun': выходной, ",60.017679,30.238676,"4,4",['8 (800) 555-55-50Показать телефон'],"['http://ok.ru/sberbank', 'https://vk.com/sberbank']",78,53,50,100,50,,,,,2024-08-05 16:36:22
29,sberbank/1023523463,СберБанк,"просп. Луначарского, 64А, Санкт-Петербург",www.sberbank.ru,"'mon': 10:00-21:00, 'tue': 10:00-21:00, 'wed': 10:00-21:00, 'thu': 10:00-21:00, 'fri': 10:00-21:00, 'sat': 10:00-19:00, 'sun': 10:00-19:00, ",60.040065,30.347974,"4,4",['8 (800) 555-55-50Показать телефон'],"['http://ok.ru/sberbank', 'https://vk.com/sberbank']",80,48,40,100,71,,93,,,2024-08-05 16:36:22
30,sberbank/1642123270,СберБанк,"просп. Просвещения, 53, корп. 1, Санкт-Петербург",www.sberbank.com,"'mon': 10:00-19:00, 'tue': 10:00-19:00, 'wed': 10:00-19:00, 'thu': 10:00-19:00, 'fri': 10:00-19:00, 'sat': 10:00-19:00, 'sun': выходной, ",60.042901,30.380915,"4,3",['8 (800) 555-55-50Показать телефон'],"['http://ok.ru/sberbank', 'https://t.me/sberbank', 'https://vk.com/sberbank']",73,45,60,89,,,,,,2024-08-05 16:36:22
31,sberbank/1027204699,СберБанк,"Большая Зеленина ул., 14/18А, Санкт-Петербург",www.sberbank.ru,"'mon': 10:00-20:00, 'tue': 10:00-20:00, 'wed': 10:00-20:00, 'thu': 10:00-20:00, 'fri': 10:00-20:00, 'sat': 10:30-16:30, 'sun': выходной, ",59.961629,30.291074,"4,3",['8 (800) 555-55-50Показать телефон'],"['http://ok.ru/sberbank', 'https://vk.com/sberbank']",70,53,54,92,,,,,,2024-08-05 16:36:22
32,sberbank/30556296404,СберБанк,"Балканская площадь, 5АД, Санкт-Петербург",www.sberbank.ru,"'mon': 10:00-19:30, 'tue': 10:00-19:30, 'wed': 10:00-19:30, 'thu': 10:00-19:30, 'fri': 10:00-19:30, 'sat': 10:30-18:30, 'sun': выходной, ",59.828632,30.380257,"4,3",['8 (800) 555-55-50Показать телефон'],"['http://ok.ru/sberbank', 'https://vk.com/sberbank']",82,77,73,100,,,,,,2024-08-05 16:36:22
33,sberbank/1092282104,СберБанк,"Будапештская ул., 92, Санкт-Петербург",www.sberbank.ru,"'mon': 10:00-19:30, 'tue': 10:00-19:30, 'wed': 10:00-19:30, 'thu': 10:00-19:30, 'fri': 10:00-19:30, 'sat': 10:00-16:30, 'sun': выходной, ",59.839737,30.396411,"4,6",['8 (800) 555-55-50Показать телефон'],"['http://ok.ru/sberbank', 'https://vk.com/sberbank']",86,73,57,94,,,,,,2024-08-05 16:36:22
34,sberbank/1030930390,СберБанк,"Политехническая ул., 17, корп. 1, Санкт-Петербург",,"'mon': 09:00-19:00, 'tue': 09:00-19:00, 'wed': 09:00-19:00, 'thu': 09:00-19:00, 'fri': 09:00-19:00, 'sat': 09:30-17:30, 'sun': выходной, ",59.999054,30.366191,"4,3",['8 (800) 555-55-50Показать телефон'],"['http://ok.ru/sberbank', 'https://t.me/sberbank', 'https://vk.com/sberbank']",76,61,83,100,36,,36,,,2024-08-05 16:36:22
35,sberbank/28304591277,СберБанк,"Ленинградская ул., 3, Кудрово",www.sberbank.ru,"'mon': 10:00-19:30, 'tue': 10:00-19:30, 'wed': 10:00-19:30, 'thu': 10:00-19:30, 'fri': 10:00-19:30, 'sat': 10:00-17:00, 'sun': выходной, ",59.912797,30.506266,"4,4",['8 (800) 555-55-50Показать телефон'],"['https://ok.ru/sberbank', 'https://t.me/sberbank', 'https://vk.com/sberbank']",80,60,74,94,,58,,74,,2024-08-05 16:36:22
36,sberbank/1053687046,СберБанк,"ул. Димитрова, 12, корп. 1, Санкт-Петербург",www.sberbank.ru,"'mon': 10:00-21:00, 'tue': 10:00-21:00, 'wed': 10:00-21:00, 'thu': 10:00-21:00, 'fri': 10:00-21:00, 'sat': 10:00-19:00, 'sun': 10:00-19:00, ",59.847359,30.380808,"4,5",['8 (800) 555-55-50Показать телефон'],"['http://ok.ru/sberbank', 'https://vk.com/sberbank']",67,41,52,88,48,,67,,,2024-08-05 16:36:22
37,sberbank/1286042498,СберБанк,"просп. Просвещения, 32, корп. 1, Санкт-Петербург",www.sberbank.ru,"'mon': 10:00-20:00, 'tue': 10:00-20:00, 'wed': 10:00-20:00, 'thu': 10:00-20:00, 'fri': 10:00-20:00, 'sat': 10:30-18:00, 'sun': 10:30-16:00, ",60.054092,30.331606,"4,4",['8 (800) 555-55-50Показать телефон'],"['https://ok.ru/sberbank', 'https://vk.com/sberbank']",76,53,56,96,,,,,,2024-08-05 16:36:22
38,sberbank/186139030206,СберБанк,"просп. Авиаторов Балтики, 7, Мурино",www.sberbank.ru,"'mon': 10:00-20:00, 'tue': 10:00-20:00, 'wed': 10:00-20:00, 'thu': 10:00-20:00, 'fri': 10:00-20:00, 'sat': 10:30-17:00, 'sun': 11:00-16:00, ",60.052326,30.438587,"4,5",['8 (800) 555-55-50Показать телефон'],"['http://ok.ru/sberbank', 'https://vk.com/sberbank']",70,60,70,90,55,47,,82,,2024-08-05 16:36:22
39,sberbank/1120109931,СберБанк,"Московский просп., 220, лит.А, Санкт-Петербург",www.sberbank.ru,"'mon': 10:00-20:30, 'tue': 10:00-20:30, 'wed': 10:00-20:30, 'thu': 10:00-20:30, 'fri': 10:00-20:30, 'sat': 10:00-19:00, 'sun': 10:00-17:30, ",59.846839,30.322510,"4,4",['8 (800) 555-55-50Показать телефон'],"['https://ok.ru/sberbank', 'https://vk.com/bankdruzey']",71,46,52,92,80,48,,68,,2024-08-05 16:36:22
40,sberbank/1191888272,СберБанк,"Ленинский просп., 95, корп. 1, Санкт-Петербург",www.sberbank.ru,"'mon': 09:30-19:00, 'tue': 09:30-19:00, 'wed': 09:30-19:00, 'thu': 09:30-19:00, 'fri': 09:30-19:00, 'sat': 09:30-18:00, 'sun': выходной, ",59.852861,30.214636,"4,5",['8 (800) 555-55-50Показать телефон'],"['http://ok.ru/sberbank', 'https://t.me/sberbank', 'https://vk.com/sberbank']",74,64,83,91,60,,,,,2024-08-05 16:36:22
41,sberbank/1017130951,СберБанк,"ул. Ярослава Гашека, 9, корп. 1, Санкт-Петербург",www.sberbank.ru,"'mon': 09:30-19:30, 'tue': 09:30-19:30, 'wed': 09:30-19:30, 'thu': 09:30-19:30, 'fri': 09:30-19:30, 'sat': 10:00-18:00, 'sun': выходной, ",59.831399,30.388650,"4,4",['8 (800) 555-55-50Показать телефон'],"['http://ok.ru/sberbank', 'https://vk.com/sberbank']",69,57,65,100,,,,,,2024-08-05 16:36:22
42,sberbank/213043250041,СберБанк,"ул. Пограничника Гарькавого, 33, Санкт-Петербург",www.sberbank.ru,"'mon': 09:30-18:30, 'tue': 09:30-18:30, 'wed': 09:30-18:30, 'thu': 10:00-19:00, 'fri': 10:00-19:00, 'sat': 10:00-17:30, 'sun': выходной, ",59.833891,30.146213,"4,4",['8 (800) 555-55-50Показать телефон'],"['http://ok.ru/sberbank', 'https://t.me/sberbank', 'https://vk.com/sberbank']",85,50,50,83,44,,77,,,2024-08-05 16:36:22
43,sberbank/147513585970,СберБанк,"Народная ул., 2, Санкт-Петербург",www.sberbank.ru,"'mon': 09:00-20:00, 'tue': 09:00-20:00, 'wed': 09:00-20:00, 'thu': 09:00-20:00, 'fri': 09:00-20:00, 'sat': 10:00-18:00, 'sun': 11:00-16:30, ",59.880016,30.456985,"4,4",['8 (800) 555-55-50Показать телефон'],"['http://ok.ru/sberbank', 'https://vk.com/sberbank']",81,69,92,82,75,,,,,2024-08-05 16:36:22
44,sberbank/1197015470,СберБанк,"просп. Авиаконструкторов, 47, Санкт-Петербург",www.sberbank.com,"'mon': 10:30-19:30, 'tue': 10:30-19:30, 'wed': выходной, 'thu': 10:30-19:30, 'fri': 10:30-19:30, 'sat': выходной, 'sun': выходной, ",60.027112,30.225398,"4,5",['8 (800) 555-55-50Показать телефон'],"['http://ok.ru/sberbank', 'https://vk.com/sberbank']",80,70,72,92,36,,,,,2024-08-05 16:36:22
45,sberbank/196519209121,СберБанк,"просп. Косыгина, 27, корп. 1, Санкт-Петербург",www.sberbank.ru,"'mon': 10:00-20:00, 'tue': 10:00-20:00, 'wed': 10:00-20:00, 'thu': 10:00-20:00, 'fri': 10:00-20:00, 'sat': 10:00-17:00, 'sun': выходной, ",59.944711,30.494462,"4,4",['8 (800) 555-55-50Показать телефон'],"['http://ok.ru/sberbank', 'https://vk.com/sberbank']",73,64,,,,,,,,2024-08-05 16:36:22
46,sberbank/1086054702,СберБанк,"просп. Культуры, 22, корп. 1, Санкт-Петербург",www.sberbank.ru,"'mon': 10:00-19:00, 'tue': 10:00-19:00, 'wed': 10:00-19:00, 'thu': 10:00-19:00, 'fri': 10:00-19:00, 'sat': выходной, 'sun': выходной, ",60.046998,30.374429,"4,4",['8 (800) 555-55-50Показать телефон'],"['http://ok.ru/sberbank', 'https://t.me/sberbank', 'https://vk.com/sberbank']",86,69,63,100,,,,,,2024-08-05 16:36:22
47,sberbank/211764039930,СберБанк,"ул. Тельмана, 48, корп. 1, Санкт-Петербург",www.sberbank.ru,"'mon': 10:00-19:00, 'tue': 10:00-19:00, 'wed': 10:00-19:00, 'thu': 10:00-19:00, 'fri': 10:00-19:00, 'sat': выходной, 'sun': выходной, ",59.893186,30.483224,"4,8",['8 (800) 555-55-50Показать телефон'],"['http://ok.ru/sberbank', 'https://vk.com/sberbank']",97,84,82,100,,,,,,2024-08-05 16:36:22
48,sberbank/1062530703,СберБанк,"Земский пер., 11, корп. 1, Санкт-Петербург",,"'mon': 10:00-19:00, 'tue': 10:00-19:00, 'wed': 10:00-19:00, 'thu': 10:00-19:00, 'fri': 10:00-19:00, 'sat': 10:00-16:30, 'sun': выходной, ",60.025772,30.290716,"4,4",['8 (800) 555-55-50Показать телефон'],"['http://ok.ru/sberbank', 'https://vk.com/sberbank']",80,55,58,94,,,,,,2024-08-05 16:36:22
49,sberbank/127660127497,СберБанк,"ул. Бабушкина, 111, Санкт-Петербург",,"'mon': 10:00-19:00, 'tue': 10:00-19:00, 'wed': 10:00-19:00, 'thu': 10:00-19:00, 'fri': 10:00-19:00, 'sat': выходной, 'sun': выходной, ",59.865239,30.452915,"4,4",['8 (800) 555-55-50Показать телефон'],"['http://ok.ru/sberbank', 'https://vk.com/sberbank']",87,56,4,100,4,,,,,2024-08-05 16:36:22
50,sberbank/64641555572,СберБанк,"просп. Большевиков, 9, корп. 1, Санкт-Петербург",www.sberbank.ru,"'mon': 10:00-19:00, 'tue': 10:00-19:00, 'wed': 10:00-19:00, 'thu': 10:00-19:00, 'fri': 10:00-19:00, 'sat': 11:00-16:00, 'sun': выходной, ",59.914268,30.474457,"4,4",['8 (800) 555-55-50Показать телефон'],"['http://ok.ru/sberbank', 'https://vk.com/sberbank']",81,77,,100,,,,,,2024-08-05 16:36:22
51,sberbank/1089025337,СберБанк,"Ленинский просп., 129, Санкт-Петербург",www.sberbank.ru,"'mon': 10:00-20:00, 'tue': 10:00-20:00, 'wed': 10:00-20:00, 'thu': 10:00-20:00, 'fri': 10:00-20:00, 'sat': 10:30-18:00, 'sun': 10:30-18:00, ",59.851381,30.270045,"4,4",['8 (800) 555-55-50Показать телефон'],"['http://ok.ru/sberbank', 'https://t.me/sberbank', 'https://vk.com/sberbank']",72,54,50,88,67,68,,69,,2024-08-05 16:36:22
52,sberbank/1061840370,СберБанк,"Лиговский просп., 30, Санкт-Петербург",,"'mon': 10:00-21:00, 'tue': 10:00-21:00, 'wed': 10:00-21:00, 'thu': 10:00-21:00, 'fri': 10:00-21:00, 'sat': 10:00-21:00, 'sun': 10:00-21:00, ",59.927563,30.360613,"4,3",['8 (800) 555-55-50Показать телефон'],"['http://ok.ru/sberbank', 'https://vk.com/sberbank']",68,40,67,95,85,,,,,2024-08-05 16:36:22
53,sberbank/1165450400,СберБанк,"Прибрежная ул., 8, корп. 1, Санкт-Петербург",www.sberbank.ru,"'mon': 09:30-19:00, 'tue': 09:30-19:00, 'wed': 09:30-19:00, 'thu': 09:30-19:00, 'fri': 09:30-19:00, 'sat': 10:00-17:30, 'sun': 11:00-16:00, ",59.834719,30.508683,"4,6",['8 (800) 555-55-50Показать телефон'],"['http://ok.ru/sberbank', 'https://vk.com/sberbank']",81,64,92,86,75,,73,,,2024-08-05 16:36:22
54,sberbank/110265406586,СберБанк,"Муринская дорога, 53, Санкт-Петербург",www.sberbank.ru,"'mon': 10:00-19:30, 'tue': 10:00-19:30, 'wed': 10:00-19:30, 'thu': 10:00-19:30, 'fri': 10:00-19:30, 'sat': 11:00-17:00, 'sun': выходной, ",60.032101,30.458996,"4,7",['8 (800) 555-55-50Показать телефон'],"['http://ok.ru/sberbank', 'https://vk.com/sberbank']",86,61,68,96,,,,,,2024-08-05 16:36:22
55,sberbank/112730742514,СберБанк,"ш. Революции, 37, корп. 1, Санкт-Петербург",www.sberbank.com,"'mon': 09:30-18:30, 'tue': 09:30-18:30, 'wed': 09:30-18:30, 'thu': 09:30-18:30, 'fri': 09:30-18:30, 'sat': 09:30-18:30, 'sun': выходной, ",59.959634,30.434275,"4,4",['8 (800) 555-55-50Показать телефон'],"['http://ok.ru/sber', 'https://t.me/s/sberbank', 'https://vk.com/sber']",73,47,65,100,31,,,,,2024-08-05 16:36:22
56,sberbank/191740778488,СберБанк,"Торфяная дорога, 7, лит.А, Санкт-Петербург",www.sberbank.ru,"'mon': 10:00-20:00, 'tue': 10:00-20:00, 'wed': 10:00-20:00, 'thu': 10:00-20:00, 'fri': 10:00-20:00, 'sat': 10:30-16:00, 'sun': выходной, ",59.989360,30.256696,"4,3",['8 (800) 555-55-50Показать телефон'],"['http://ok.ru/sberbank', 'https://vk.com/sberbank']",86,64,88,87,,,,,,2024-08-05 16:36:22
57,sberbank/117710918662,СберБанк,"Бухарестская ул., 23, корп. 1, Санкт-Петербург",,"'mon': выходной, 'tue': выходной, 'wed': выходной, 'thu': выходной, 'fri': выходной, 'sat': выходной, 'sun': выходной, ",59.874311,30.376154,"4,4",['8 (800) 555-55-50Показать телефон'],"['http://ok.ru/sberbank', 'https://t.me/sberbank', 'https://vk.com/sberbank']",76,63,74,87,69,,,,,2024-08-05 16:36:22
58,sberbank/123111799894,СберБанк,"Нарвский просп., 24, Санкт-Петербург",www.sberbank.ru,"'mon': 10:00-19:00, 'tue': 10:00-19:00, 'wed': 10:00-19:00, 'thu': 10:00-19:00, 'fri': 10:00-19:00, 'sat': 10:00-17:30, 'sun': 11:00-15:30, ",59.902000,30.273809,"4,5",['8 (800) 555-55-50Показать телефон'],"['http://ok.ru/sberbank', 'https://vk.com/sberbank']",82,51,73,100,92,,,,,2024-08-05 16:36:22
59,sberbank/1109422897,СберБанк,"Лесной просп., 75, Санкт-Петербург",www.sberbank.com,"'mon': 10:00-20:00, 'tue': 10:00-20:00, 'wed': 10:00-20:00, 'thu': 10:00-20:00, 'fri': 10:00-20:00, 'sat': 10:30-18:30, 'sun': выходной, ",59.988271,30.341236,"4,2",['8 (800) 555-55-50Показать телефон'],"['https://ok.ru/sberbank', 'https://t.me/sberbank', 'https://vk.com/sberbank']",79,69,77,96,,,,,,2024-08-05 16:36:22
60,sberbank/10483204357,СберБанк,"Полюстровский просп., 84, Санкт-Петербург",www.sberbank.ru,"'mon': 10:30-20:00, 'tue': 10:30-20:00, 'wed': 10:30-20:00, 'thu': 10:30-20:00, 'fri': 10:30-20:00, 'sat': 10:00-19:30, 'sun': 10:00-17:30, ",59.987605,30.353912,"4,3",['8 (800) 555-55-50Показать телефон'],"['http://ok.ru/sberbank', 'https://vk.com/sberbank']",71,57,,,,,,,,2024-08-05 16:36:22
61,sberbank/1103900390,СберБанк,"Большой просп. Петроградской стороны, 18, Санкт-Петербург",,"'mon': 10:00-19:00, 'tue': 10:00-19:00, 'wed': 10:00-19:00, 'thu': 10:00-19:00, 'fri': 10:00-19:00, 'sat': выходной, 'sun': выходной, ",59.955399,30.294757,"4,4",['8 (800) 555-55-50Показать телефон'],"['https://ok.ru/sber', 'https://vk.com/sberbank']",78,67,79,92,,,,,,2024-08-05 16:36:22
62,sberbank/1131662050,СберБанк,"аллея Поликарпова, 6, корп. 1, Санкт-Петербург",www.sberbank.com,"'mon': 10:00-19:00, 'tue': 10:00-19:00, 'wed': 10:00-19:00, 'thu': 10:00-19:00, 'fri': 10:00-19:00, 'sat': выходной, 'sun': выходной, ",60.006750,30.291191,"4,5",['8 (800) 555-55-50Показать телефон'],"['https://ok.ru/sberbank', 'https://t.me/sberbank', 'https://vk.com/sberbank']",77,71,69,96,38,,,,,2024-08-05 16:36:22
63,sberbank/1138174520,СберБанк,"Петергофское ш., 45, Санкт-Петербург",www.sberbank.com,"'mon': 10:30-19:30, 'tue': 10:30-19:30, 'wed': 10:30-19:30, 'thu': 10:30-19:30, 'fri': 10:30-19:30, 'sat': выходной, 'sun': выходной, ",59.847978,30.152842,"4,4",['8 (800) 555-55-50Показать телефон'],"['http://ok.ru/sberbank', 'https://vk.com/sberbank']",78,56,59,86,17,,,,,2024-08-05 16:36:22
64,sberbank/1047216814,СберБанк,"просп. Ветеранов, 130, Санкт-Петербург",www.sberbank.ru,"'mon': 10:00-19:30, 'tue': 10:00-19:30, 'wed': 10:00-19:30, 'thu': 10:00-19:30, 'fri': 10:00-19:30, 'sat': 10:00-18:00, 'sun': выходной, ",59.832593,30.173754,"4,7",['8 (800) 555-55-50Показать телефон'],"['http://ok.ru/sberbank', 'https://vk.com/sberbank']",84,51,74,100,,,82,,,2024-08-05 16:36:22
65,sberbank/1119467791,СберБанк,"Английский просп., 40, Санкт-Петербург",www.sberbank.ru,"'mon': 10:00-19:00, 'tue': 10:00-19:00, 'wed': 10:00-19:00, 'thu': 10:00-19:00, 'fri': 10:00-19:00, 'sat': выходной, 'sun': выходной, ",59.921286,30.287293,"4,4",['8 (800) 555-55-50Показать телефон'],"['https://ok.ru/sber/', 'https://t.me/sberbank', 'https://vk.com/sberbank']",81,70,77,100,58,,,,,2024-08-05 16:36:22
66,sberbank/76288578650,СберБанк,"просп. Ветеранов, 43, Санкт-Петербург",www.sberbank.ru,"'mon': 10:00-19:30, 'tue': 10:00-19:30, 'wed': 10:00-19:30, 'thu': 10:00-19:30, 'fri': 10:00-19:30, 'sat': 10:00-17:30, 'sun': выходной, ",59.842174,30.241838,"4,4",['8 (800) 555-55-50Показать телефон'],"['http://ok.ru/sberbank', 'https://vk.com/sberbank']",83,48,62,87,,,,,,2024-08-05 16:36:22
67,sberbank/1012229326,СберБанк,"Вознесенский просп., 37/6, Санкт-Петербург",www.sberbank.ru,"'mon': 09:00-19:00, 'tue': 09:00-19:00, 'wed': 09:00-19:00, 'thu': 09:00-19:00, 'fri': 09:00-19:00, 'sat': выходной, 'sun': выходной, ",59.923965,30.307810,"4,3",['8 (800) 555-55-50Показать телефон'],"['https://ok.ru/sber', 'https://vk.com/sber']",75,52,57,,45,,,,,2024-08-05 16:36:22
68,sberbank/35735063908,СберБанк,"просп. Энгельса, 124, корп. 1, Санкт-Петербург",,"'mon': 09:30-19:30, 'tue': 09:30-19:30, 'wed': 09:30-19:30, 'thu': 09:30-19:30, 'fri': 09:30-19:30, 'sat': 10:00-17:00, 'sun': выходной, ",60.039908,30.324124,"4,4",['8 (800) 555-55-50Показать телефон'],"['https://ok.ru/sber/', 'https://t.me/sberbank', 'https://vk.com/sberbank']",73,47,,93,,47,,57,,2024-08-05 16:36:22
69,sberbank/1086991727,СберБанк,"просп. Энгельса, 55, Санкт-Петербург",www.sberbank.ru,"'mon': 09:30-19:00, 'tue': 09:30-19:00, 'wed': 09:30-19:00, 'thu': 09:30-19:00, 'fri': 09:30-19:00, 'sat': 10:00-18:00, 'sun': выходной, ",60.016699,30.322893,"4,4",['8 (800) 555-55-50Показать телефон'],"['http://ok.ru/sberbank', 'https://vk.com/sberbank']",73,44,43,100,,,,,,2024-08-05 16:36:22
70,sberbank/1101905412,СберБанк,"Комендантский просп., 13, корп. 1, Санкт-Петербург",www.sberbank.ru,"'mon': 10:00-20:00, 'tue': 10:00-20:00, 'wed': 10:00-20:00, 'thu': 10:00-20:00, 'fri': 10:00-20:00, 'sat': 10:30-17:00, 'sun': 10:30-17:00, ",60.009049,30.259778,"4,4",['8 (800) 555-55-50Показать телефон'],"['http://ok.ru/sberbank', 'https://vk.com/sberbank']",78,46,66,96,92,27,,,,2024-08-05 16:36:22
71,sberbank/1125094023,СберБанк,"просп. Энгельса, 21, Санкт-Петербург",www.sberbank.ru,"'mon': 10:00-19:30, 'tue': 10:00-19:30, 'wed': 10:00-19:30, 'thu': 10:00-19:30, 'fri': 10:00-19:30, 'sat': 10:00-17:00, 'sun': выходной, ",60.002890,30.328831,"4,4",['8 (800) 555-55-50Показать телефон'],"['http://ok.ru/sberbank', 'https://vk.com/sberbank']",65,64,69,100,,,,,,2024-08-05 16:36:22
72,sberbank/1305443920,СберБанк,"ул. Маршала Захарова, 23, Санкт-Петербург",www.sberbank.ru,"'mon': 09:30-19:00, 'tue': 09:30-19:00, 'wed': 09:30-19:00, 'thu': 09:30-19:00, 'fri': 09:30-19:00, 'sat': 09:30-18:30, 'sun': 11:00-16:30, ",59.852913,30.194686,"4,4",['8 (800) 555-55-50Показать телефон'],"['http://ok.ru/sberbank', 'https://vk.com/sberbank']",82,61,67,94,72,,90,,,2024-08-05 16:36:22
73,sberbank/1184578702,СберБанк,"Суворовский просп., 56, Санкт-Петербург",www.sberbank.ru,"'mon': 10:00-19:00, 'tue': 10:00-19:00, 'wed': 10:00-19:00, 'thu': 10:00-19:00, 'fri': 10:00-19:00, 'sat': 10:30-16:30, 'sun': выходной, ",59.944549,30.386116,"4,4",['8 (800) 555-55-50Показать телефон'],"['https://ok.ru/sberbank', 'https://vk.com/sberbank']",80,48,82,96,,,,,,2024-08-05 16:36:22
74,sberbank/60601310937,СберБанк,"Индустриальный просп., 10, корп. 1Б, Санкт-Петербург",www.sberbank.ru,"'mon': 10:00-19:00, 'tue': 10:00-19:00, 'wed': 10:00-19:00, 'thu': 10:00-19:00, 'fri': 10:00-19:00, 'sat': выходной, 'sun': выходной, ",59.939636,30.475382,"4,4",['8 (800) 555-55-50Показать телефон'],"['https://ok.ru/sberbank', 'https://vk.com/sberbank']",83,68,47,100,13,,,,,2024-08-05 16:36:22
75,sberbank/1075806221,СберБанк,"ул. Савушкина, 128, корп. 1Б, Санкт-Петербург",www.sberbank.com,"'mon': 10:00-19:00, 'tue': 10:00-19:00, 'wed': 10:00-19:00, 'thu': 10:00-19:00, 'fri': 10:00-19:00, 'sat': 11:00-16:00, 'sun': выходной, ",59.988658,30.200417,"4,3",['8 (800) 555-55-50Показать телефон'],"['http://ok.ru/sberbank', 'https://vk.com/sberbank']",79,47,56,92,,,,,,2024-08-05 16:36:22
76,sberbank/1037354056,СберБанк,"ул. Олеко Дундича, 17, корп. 1, Санкт-Петербург",www.sberbank.ru,"'mon': 10:00-21:00, 'tue': 10:00-21:00, 'wed': 10:00-21:00, 'thu': 10:00-21:00, 'fri': 10:00-21:00, 'sat': 10:00-21:00, 'sun': 10:00-19:00, ",59.827519,30.399124,"4,5",['8 (800) 555-55-50Показать телефон'],"['http://ok.ru/sberbank', 'https://t.me/sberbank', 'https://vk.com/sberbank']",64,51,28,100,25,,49,,,2024-08-05 16:36:22
77,sberbank/1078735287,СберБанк,"просп. Большевиков, 27, Санкт-Петербург",www.sberbank.ru,"'mon': 05:00-00:00, 'tue': 05:00-00:00, 'wed': 05:00-00:00, 'thu': 05:00-00:00, 'fri': 05:00-00:00, 'sat': 05:00-00:00, 'sun': 05:00-00:00, ",59.900520,30.485874,,['8 (800) 555-55-50Показать телефон'],"['http://ok.ru/sberbank', 'https://vk.com/sberbank']",66,36,68,100,18,,,,,2024-08-05 16:36:22
78,sberbank/169659558416,СберБанк,"Лиговский просп., 37, Санкт-Петербург",www.sberbank.ru,"'mon': 10:00-19:00, 'tue': 10:00-19:00, 'wed': 10:00-19:00, 'thu': 10:00-19:00, 'fri': 10:00-19:00, 'sat': 10:30-15:30, 'sun': выходной, ",59.932433,30.361269,"4,3",['8 (800) 555-55-50Показать телефон'],"['https://ok.ru/sberbank', 'https://t.me/sberbank', 'https://vk.com/sberbank']",68,53,46,97,,,,,,2024-08-05 16:36:22
79,sberbank/1211824619,СберБанк,"ул. Марата, 65/20, Санкт-Петербург",www.sberbank.ru,"'mon': 10:00-19:00, 'tue': 10:00-19:00, 'wed': 10:00-19:00, 'thu': 10:00-19:00, 'fri': 10:00-19:00, 'sat': выходной, 'sun': выходной, ",59.921633,30.345109,"4,3",['8 (800) 555-55-50Показать телефон'],"['https://ok.ru/sber/', 'https://t.me/sberbank', 'https://vk.com/sberbank']",85,58,23,,7,,,,,2024-08-05 16:36:22
80,sberbank/1134094994,СберБанк,"Сенная площадь, 5, Санкт-Петербург",www.sberbank.ru,"'mon': 10:00-21:00, 'tue': 10:00-21:00, 'wed': 10:00-21:00, 'thu': 10:00-21:00, 'fri': 10:00-21:00, 'sat': 10:00-20:00, 'sun': 11:00-19:00, ",59.927680,30.318069,"4,4",['8 (800) 555-55-50Показать телефон'],"['https://ok.ru/sberbank', 'https://t.me/sberbank', 'https://vk.com/sberbank']",66,34,49,92,50,,,,,2024-08-05 16:36:22
81,sberbank/1016599665,СберБанк,"просп. Сизова, 30, корп. 1, Санкт-Петербург",www.sberbank.ru,"'mon': 09:30-18:30, 'tue': 09:30-18:30, 'wed': 09:30-18:30, 'thu': 09:30-18:30, 'fri': 09:30-18:30, 'sat': 10:00-15:30, 'sun': выходной, ",60.013560,30.275686,"4,3",['8 (800) 555-55-50Показать телефон'],"['http://ok.ru/sberbank', 'https://t.me/sberbank', 'https://vk.com/sberbank']",70,56,43,100,,,,,0,2024-08-05 16:36:22
82,sberbank/1017016480,СберБанк,"Петергофское ш., 17, корп. 1, Санкт-Петербург",www.sberbank.ru,"'mon': 10:00-19:30, 'tue': 10:00-19:30, 'wed': 10:00-19:30, 'thu': 10:00-19:30, 'fri': 10:00-19:30, 'sat': 10:30-16:30, 'sun': выходной, ",59.847711,30.187148,"4,7",['8 (800) 555-55-50Показать телефон'],"['http://ok.ru/sberbank', 'https://vk.com/sberbank']",87,79,36,94,,,,,,2024-08-05 16:36:22
83,sberbank/1367561860,СберБанк,"просп. Ветеранов, 114, корп. 1, Санкт-Петербург",,"'mon': выходной, 'tue': выходной, 'wed': выходной, 'thu': выходной, 'fri': выходной, 'sat': выходной, 'sun': выходной, ",59.832548,30.198405,"4,7",['8 (800) 555-55-50Показать телефон'],"['http://ok.ru/sberbank', 'https://vk.com/sberbank']",74,63,,,,,,,,2024-08-05 16:36:22
84,sberbank/1057425000,СберБанк,"Бассейная ул., 17, Санкт-Петербург",www.sberbank.ru,"'mon': 10:00-18:30, 'tue': 10:00-18:30, 'wed': 10:00-18:30, 'thu': 10:00-18:30, 'fri': 10:00-18:30, 'sat': 10:00-17:00, 'sun': выходной, ",59.864408,30.306669,"4,4",['8 (800) 555-55-50Показать телефон'],"['http://ok.ru/sberbank', 'https://vk.com/sberbank']",75,61,50,95,7,,70,,,2024-08-05 16:36:22
85,sberbank/1082776551,СберБанк,"Думская ул., 1-3, Санкт-Петербург",,"'mon': 09:30-20:30, 'tue': 09:30-20:30, 'wed': 09:30-20:30, 'thu': 09:30-20:30, 'fri': 09:30-20:30, 'sat': 10:30-19:00, 'sun': 11:00-16:30, ",59.934200,30.328975,"4,7",['8 (800) 555-55-50Показать телефон'],"['https://ok.ru/sber/', 'https://t.me/sberbank', 'https://vk.com/sberbank']",78,67,68,90,63,51,88,74,,2024-08-05 16:36:22
86,sberbank/1258980554,СберБанк,"ул. Белы Куна, 1, корп. 3, Санкт-Петербург",,"'mon': 10:00-20:00, 'tue': 10:00-20:00, 'wed': 10:00-20:00, 'thu': 10:00-20:00, 'fri': 10:00-20:00, 'sat': 10:00-17:00, 'sun': выходной, ",59.869625,30.377870,"4,3",['8 (800) 555-55-50Показать телефон'],"['http://ok.ru/sberbank', 'https://t.me/sberbank', 'https://vk.com/sberbank']",70,56,41,76,,,,,,2024-08-05 16:36:22
87,sberbank/1108389444,СберБанк,"просп. Энгельса, 141/36, Санкт-Петербург",www.sberbank.com,"'mon': 10:00-19:30, 'tue': 10:00-19:30, 'wed': 10:00-19:30, 'thu': 10:00-19:30, 'fri': 10:00-19:30, 'sat': 10:30-18:00, 'sun': 11:00-17:00, ",60.053305,30.336440,"4,1",['8 (800) 555-55-50Показать телефон'],"['http://ok.ru/sberbank', 'https://vk.com/sberbank']",60,48,50,100,,,,,,2024-08-05 16:36:22
88,sberbank/71996418594,СберБанк,"Народная ул., 68, корп. 1, Санкт-Петербург",www.sberbank.ru,"'mon': 10:00-19:00, 'tue': 10:00-19:00, 'wed': 10:00-19:00, 'thu': 10:00-19:00, 'fri': 10:00-19:00, 'sat': выходной, 'sun': выходной, ",59.884384,30.479164,"4,4",['8 (800) 555-55-50Показать телефон'],"['http://ok.ru/sberbank', 'https://vk.com/sberbank']",83,43,38,92,25,,,,,2024-08-05 16:36:22
89,sberbank/1053014705,СберБанк,"Замшина ул., 27, корп. 1, Санкт-Петербург",www.sberbank.ru,"'mon': 10:00-19:00, 'tue': 10:00-19:00, 'wed': 10:00-19:00, 'thu': 10:00-19:00, 'fri': 10:00-19:00, 'sat': выходной, 'sun': выходной, ",59.978476,30.405097,"4,3",['8 (800) 555-55-50Показать телефон'],"['http://ok.ru/sberbank', 'https://t.me/sberbank', 'https://vk.com/sberbank']",71,40,40,,13,,,,,2024-08-05 16:36:22
90,sberbank/1037619851,СберБанк,"просп. Просвещения, 33, корп. 1, Санкт-Петербург",www.sberbank.ru,"'mon': 10:00-19:00, 'tue': 10:00-19:00, 'wed': 10:00-19:00, 'thu': 10:00-19:00, 'fri': 10:00-19:00, 'sat': выходной, 'sun': выходной, ",60.050273,30.344597,"4,4",['8 (800) 555-55-50Показать телефон'],"['http://ok.ru/sberbank', 'https://vk.com/sberbank']",85,68,60,100,46,,,,,2024-08-05 16:36:22
91,sberbank/1021806751,СберБанк,"ул. Типанова, 27/39, Санкт-Петербург",www.sberbank.ru,"'mon': 10:00-19:30, 'tue': 10:00-19:30, 'wed': 10:00-19:30, 'thu': 10:00-19:30, 'fri': 10:00-19:30, 'sat': 10:00-18:00, 'sun': 11:00-15:30, ",59.853812,30.349707,"4,6",['8 (800) 555-55-50Показать телефон'],"['http://ok.ru/sberbank', 'https://vk.com/sberbank']",85,63,89,93,,,,,,2024-08-05 16:36:22
92,sberbank/1174947281,СберБанк,"Бассейная ул., 41, Санкт-Петербург",,"'mon': 10:30-19:30, 'tue': 10:30-19:30, 'wed': 10:30-19:30, 'thu': 10:30-19:30, 'fri': 10:30-19:30, 'sat': 10:30-17:00, 'sun': 11:00-16:00, ",59.864706,30.321650,"4,3",['8 (800) 555-55-50Показать телефон'],"['http://ok.ru/sberbank', 'https://vk.com/sberbank']",65,45,73,94,82,,,,,2024-08-05 16:36:22
93,sberbank/82810455718,СберБанк,"Суворовский просп., 35, Санкт-Петербург",www.sberbank.com,"'mon': 09:30-19:00, 'tue': 09:30-19:00, 'wed': 09:30-19:00, 'thu': 09:30-19:00, 'fri': 09:30-19:00, 'sat': 10:00-16:00, 'sun': выходной, ",59.938775,30.376235,"4,4",['8 (800) 555-55-50Показать телефон'],"['http://ok.ru/sberbank', 'https://vk.com/sberbank']",68,63,,,,,,,,2024-08-05 16:36:22
94,sberbank/83989054587,СберБанк,"просп. Энтузиастов, 38, Санкт-Петербург",www.sberbank.ru,"'mon': 10:00-19:00, 'tue': 10:00-19:00, 'wed': 10:00-19:00, 'thu': 10:00-19:00, 'fri': 10:00-19:00, 'sat': выходной, 'sun': выходной, ",59.950218,30.483243,"4,4",['8 (800) 555-55-50Показать телефон'],"['http://ok.ru/sberbank', 'https://vk.com/sberbank']",85,62,64,90,,,,,,2024-08-05 16:36:22
95,sberbank/1012565699,СберБанк,"просп. Науки, 30, корп. 1, Санкт-Петербург",www.sberbank.ru,"'mon': 10:00-19:30, 'tue': 10:00-19:30, 'wed': 10:00-19:30, 'thu': 10:00-19:30, 'fri': 10:00-19:30, 'sat': 10:00-17:00, 'sun': выходной, ",60.008379,30.418115,"4,4",['8 (800) 555-55-50Показать телефон'],"['http://ok.ru/sberbank', 'https://vk.com/sberbank']",82,59,27,90,,,90,,,2024-08-05 16:36:22
96,sberbank/1320555722,СберБанк,"просп. Ветеранов, 141, корп. 1, Санкт-Петербург",www.sberbank.ru,"'mon': 09:30-19:30, 'tue': 09:30-19:30, 'wed': 09:30-19:30, 'thu': 09:30-19:30, 'fri': 09:30-19:30, 'sat': 10:00-17:00, 'sun': 11:00-17:00, ",59.835826,30.145134,"4,4",['8 (800) 555-55-50Показать телефон'],"['http://ok.ru/sberbank', 'https://vk.com/sberbank']",81,44,49,84,54,,,,,2024-08-05 16:36:22
97,sberbank/1241453738,СберБанк,"ул. Фёдора Абрамова, 4, посёлок Парголово",www.sberbank.ru,"'mon': 10:00-20:00, 'tue': 10:00-20:00, 'wed': 10:00-20:00, 'thu': 10:00-20:00, 'fri': 10:00-20:00, 'sat': 10:30-17:30, 'sun': выходной, ",60.070214,30.335797,"4,7",['8 (800) 555-55-50Показать телефон'],"['http://ok.ru/sberbank', 'https://vk.com/sberbank']",85,60,61,91,63,,,,,2024-08-05 16:36:22
98,sberbank/1773591450,СберБанк,"просп. Просвещения, 87, корп. 1, Санкт-Петербург",www.sberbank.ru,"'mon': 10:00-20:00, 'tue': 10:00-20:00, 'wed': 10:00-20:00, 'thu': 09:30-20:00, 'fri': 09:30-20:00, 'sat': 10:00-18:00, 'sun': выходной, ",60.036083,30.415168,"4,4",['8 (800) 555-55-50Показать телефон'],"['https://ok.ru/sberbank', 'https://vk.com/sberbank']",67,49,61,100,,,,,,2024-08-05 16:36:22
99,sberbank/1129699396,СберБанк,"Литейный просп., 35, Санкт-Петербург",www.sberbank.ru,"'mon': 10:30-19:30, 'tue': 10:30-19:30, 'wed': 10:30-19:30, 'thu': 10:30-19:30, 'fri': 10:30-19:30, 'sat': выходной, 'sun': выходной, ",59.940776,30.347983,"4,3",['8 (800) 555-55-50Показать телефон'],"['http://ok.ru/sberbank', 'https://t.me/sberbank', 'https://vk.com/sberbank']",76,43,67,83,,,,,,2024-08-05 16:36:22
100,sberbank/1243069887,СберБанк,"Малый просп. Васильевского острова, 23, Санкт-Петербург",www.sberbank.ru,"'mon': 10:30-19:30, 'tue': 10:30-19:30, 'wed': 10:30-19:30, 'thu': 10:30-19:30, 'fri': 10:30-19:30, 'sat': выходной, 'sun': выходной, ",59.946505,30.271895,"4,2",['8 (800) 555-55-50Показать телефон'],"['https://ok.ru/sber/', 'https://t.me/s/sberbank', 'https://vk.com/sberbank']",72,54,74,80,,,,,,2024-08-05 16:36:22
101,sberbank/1130416816,СберБанк,"просп. Большевиков, 17, Санкт-Петербург",www.sberbank.ru,"'mon': 09:30-20:00, 'tue': 09:30-20:00, 'wed': 09:30-20:00, 'thu': 09:30-20:00, 'fri': 09:30-20:00, 'sat': 10:00-17:30, 'sun': 11:00-16:00, ",59.908611,30.479488,"4,4",['8 (800) 555-55-50Показать телефон'],"['https://ok.ru/sberbank', 'https://vk.com/bankdruzey']",77,54,84,90,,,,,,2024-08-05 16:36:22
102,sberbank/1105663355,СберБанк,"Морская наб., 17В, Санкт-Петербург",www.sberbank.ru,"'mon': 10:00-19:00, 'tue': 10:00-19:00, 'wed': 10:00-19:00, 'thu': 10:00-19:00, 'fri': 10:00-19:00, 'sat': выходной, 'sun': выходной, ",59.943192,30.207621,"4,4",['8 (800) 555-55-50Показать телефон'],['https://vk.com/sberbank'],77,55,39,87,21,,,,,2024-08-05 16:36:22
103,sberbank/1001706397,СберБанк,"Богатырский просп., 43, корп. 1, Санкт-Петербург",,"'mon': 10:00-19:00, 'tue': 10:00-19:00, 'wed': 10:00-19:00, 'thu': 10:00-19:00, 'fri': 10:00-19:00, 'sat': выходной, 'sun': выходной, ",60.004204,30.237014,"4,4",['8 (800) 555-55-50Показать телефон'],"['http://ok.ru/sberbank', 'https://vk.com/sberbank']",76,66,56,88,,,,,,2024-08-05 16:36:22
104,sberbank/33555111316,СберБанк,"Невский просп., 114-116, Санкт-Петербург",www.sberbank.ru,"'mon': 10:00-22:00, 'tue': 10:00-22:00, 'wed': 10:00-22:00, 'thu': 10:00-22:00, 'fri': 10:00-22:00, 'sat': 10:00-22:00, 'sun': 10:00-22:00, ",59.932112,30.359203,"4,3",['8 (800) 555-55-50Показать телефон'],"['http://ok.ru/sberbank', 'https://t.me/sberbank', 'https://vk.com/sberbank']",50,59,54,,,,,,,2024-08-05 16:36:22
105,sberbank/213530041447,СберБанк,"ул. Меркурьева, 5, посёлок Парголово",www.sberbank.ru,"'mon': 10:00-19:30, 'tue': 10:00-19:30, 'wed': 10:00-19:30, 'thu': 10:00-19:30, 'fri': 10:00-19:30, 'sat': выходной, 'sun': выходной, ",60.073127,30.343159,"4,4",['8 (800) 555-55-50Показать телефон'],"['http://ok.ru/sberbank', 'https://vk.com/sberbank']",66,36,,,,,,,,2024-08-05 16:36:22
106,sberbank/1342944880,СберБанк,"просп. Энгельса, 134, корп. 3, Санкт-Петербург",www.sberbank.ru,"'mon': 10:00-19:00, 'tue': 10:00-19:00, 'wed': 10:00-19:00, 'thu': 10:00-19:00, 'fri': 10:00-19:00, 'sat': 10:30-16:30, 'sun': выходной, ",60.049015,30.330843,"4,4",['8 (800) 555-55-50Показать телефон'],"['http://ok.ru/sberbank', 'https://t.me/sberbank', 'https://vk.com/sberbank']",85,66,75,86,18,,,,,2024-08-05 16:36:22
107,sberbank/1109503640,СберБанк,"просп. Ветеранов, 95, корп. 1, Санкт-Петербург",www.sberbank.ru,"'mon': 10:30-19:00, 'tue': 10:30-19:00, 'wed': 10:30-19:00, 'thu': 10:30-19:00, 'fri': 10:30-19:00, 'sat': 09:30-16:30, 'sun': выходной, ",59.833647,30.207549,"4,5",['8 (800) 555-55-50Показать телефон'],['https://vk.com/sberbank'],78,68,56,90,,,,,,2024-08-05 16:36:22
108,sberbank/161970409606,СберБанк,"ул. Коллонтай, 10, Санкт-Петербург",www.sberbank.ru,"'mon': 10:00-19:00, 'tue': 10:00-19:00, 'wed': 10:00-19:00, 'thu': 10:00-19:00, 'fri': 10:00-19:00, 'sat': 10:00-18:00, 'sun': выходной, ",59.916830,30.452304,"4,3",['8 (800) 555-55-50Показать телефон'],"['http://ok.ru/sberbank', 'https://vk.com/sberbank']",74,52,77,100,,,,,,2024-08-05 16:36:22
109,sberbank/81157186396,СберБанк,"Новосмоленская наб., 1В, Санкт-Петербург",www.sberbank.com,"'mon': 10:00-21:00, 'tue': 10:00-21:00, 'wed': 10:00-21:00, 'thu': 10:00-21:00, 'fri': 10:00-21:00, 'sat': 10:00-20:00, 'sun': 10:00-19:00, ",59.949614,30.227743,"2,9",['8 (800) 555-55-50Показать телефон'],"['http://ok.ru/sberbank', 'https://vk.com/sberbank']",21,23,,,,,,,,2024-08-05 16:36:22
110,sberbank/50770863009,СберБанк,"ул. Маяковского, 1/96, Санкт-Петербург",www.sberbank.ru,"'mon': 10:00-20:00, 'tue': 10:00-20:00, 'wed': 10:00-20:00, 'thu': 10:00-20:00, 'fri': 10:00-20:00, 'sat': 10:00-19:00, 'sun': выходной, ",59.932874,30.354693,"4,1",['8 (800) 555-55-50Показать телефон'],"['http://ok.ru/sberbank', 'https://vk.com/sberbank']",,,,,,,,,,2024-08-05 16:36:22
111,sberbank/1112652568,СберБанк,"Среднеохтинский просп., 10, Санкт-Петербург",www.sberbank.ru,"'mon': 10:00-19:00, 'tue': 10:00-19:00, 'wed': 10:00-19:00, 'thu': 10:00-19:00, 'fri': 10:00-19:00, 'sat': выходной, 'sun': выходной, ",59.948487,30.414081,"4,4",['8 (800) 555-55-50Показать телефон'],"['http://ok.ru/sberbank', 'https://vk.com/sberbank']",80,71,54,95,33,,,,,2024-08-05 16:36:22
112,sberbank/1382744556,СберБанк,"Туристская ул., 28, корп. 1, Санкт-Петербург",,"'mon': 10:00-20:00, 'tue': 10:00-20:00, 'wed': 10:00-20:00, 'thu': 10:00-20:00, 'fri': 10:00-20:00, 'sat': 10:00-18:00, 'sun': выходной, ",60.003232,30.209391,"4,3",['8 (800) 555-55-50Показать телефон'],"['http://ok.ru/sberbank', 'https://t.me/sberbank', 'https://vk.com/sberbank']",64,36,67,91,42,,,,,2024-08-05 16:36:22
113,sberbank/124264199403,СберБанк,"ул. Бутлерова, 40, Санкт-Петербург",www.sberbank.ru,"'mon': выходной, 'tue': выходной, 'wed': выходной, 'thu': выходной, 'fri': выходной, 'sat': выходной, 'sun': выходной, ",60.010115,30.404325,"4,7",['8 (800) 555-55-50Показать телефон'],"['http://ok.ru/sberbank', 'https://vk.com/sberbank']",80,65,83,71,,,,,,2024-08-05 16:36:22
114,sberbank/1190998012,СберБанк,"ул. Партизана Германа, 14/117, Санкт-Петербург",www.sberbank.ru,"'mon': 10:00-21:00, 'tue': 10:00-21:00, 'wed': 10:00-21:00, 'thu': 10:00-21:00, 'fri': 10:00-21:00, 'sat': 10:00-20:00, 'sun': 10:00-19:00, ",59.834289,30.177105,"4,4",['8 (800) 555-55-50Показать телефон'],"['http://ok.ru/sberbank', 'https://vk.com/sberbank']",74,39,55,91,53,,73,,,2024-08-05 16:36:22
115,sberbank/1001255103,СберБанк,"Капитанская ул., 4, Санкт-Петербург",www.sberbank.ru,"'mon': 10:37-19:00, 'tue': 10:00-19:00, 'wed': 10:00-19:00, 'thu': 10:00-19:00, 'fri': 10:00-19:00, 'sat': выходной, 'sun': выходной, ",59.954773,30.214744,"4,4",['8 (800) 555-55-50Показать телефон'],"['http://ok.ru/sberbank', 'https://vk.com/sberbank']",69,58,42,94,20,,,,,2024-08-05 16:36:22
116,sberbank/1023578226,СберБанк,"Московский просп., 145, Санкт-Петербург",www.sberbank.ru,"'mon': 10:00-19:00, 'tue': 10:00-19:00, 'wed': 10:00-19:00, 'thu': 10:00-19:00, 'fri': 10:00-19:00, 'sat': выходной, 'sun': выходной, ",59.877353,30.319030,"4,4",['8 (800) 555-55-50Показать телефон'],"['http://ok.ru/sberbank', 'https://vk.com/sberbank']",75,52,8,,8,,,,,2024-08-05 16:36:22
117,sberbank/1155671613,СберБанк,"просп. Ветеранов, 78, Санкт-Петербург",www.sberbank.ru,"'mon': 10:00-19:30, 'tue': 10:00-19:30, 'wed': 10:00-19:30, 'thu': 10:00-19:30, 'fri': 10:00-19:30, 'sat': 10:00-17:30, 'sun': выходной, ",59.832942,30.215769,"4,3",['8 (800) 555-55-50Показать телефон'],"['http://ok.ru/sberbank', 'https://vk.com/sberbank']",75,31,27,100,,,,,,2024-08-05 16:36:22
118,sberbank/124070617027,СберБанк,"ул. Коллонтай, 31, корп. 2, Санкт-Петербург",www.sberbank.ru,"'mon': 10:00-19:00, 'tue': 10:00-19:00, 'wed': 10:00-19:00, 'thu': 10:00-19:00, 'fri': 10:00-19:00, 'sat': выходной, 'sun': выходной, ",59.922476,30.484581,"4,4",['8 (800) 555-55-50Показать телефон'],"['http://ok.ru/sberbank', 'https://vk.com/sberbank']",82,61,50,92,,,,,,2024-08-05 16:36:22
119,sberbank/1086909095,СберБанк,"просп. Пятилеток, 10, корп. 1, Санкт-Петербург",www.sberbank.ru,"'mon': 10:00-19:30, 'tue': 10:00-19:30, 'wed': 10:00-19:30, 'thu': 10:00-19:30, 'fri': 10:00-19:30, 'sat': 10:00-17:00, 'sun': выходной, ",59.922373,30.457451,"4,6",['8 (800) 555-55-50Показать телефон'],"['http://ok.ru/sberbank', 'https://t.me/sberbank', 'https://vk.com/sberbank']",87,68,68,93,,,82,,,2024-08-05 16:36:22
120,sberbank/61892761861,СберБанк,"просп. Обуховской Обороны, 120Б, Санкт-Петербург",www.sberbank.ru,"'mon': 10:00-20:00, 'tue': 09:45-20:00, 'wed': 09:45-20:00, 'thu': 10:00-20:00, 'fri': 10:00-20:00, 'sat': 10:00-16:00, 'sun': выходной, ",59.865389,30.472903,"4,3",['8 (800) 555-55-50Показать телефон'],"['https://ok.ru/sber/', 'https://t.me/sberbank', 'https://vk.com/sberbank']",73,58,61,90,,,,,,2024-08-05 16:36:22
121,sberbank/1073820680,СберБанк,"Гражданский просп., 117, корп. 1, Санкт-Петербург",www.sberbank.ru,"'mon': 10:00-20:00, 'tue': 10:00-20:00, 'wed': 10:00-20:00, 'thu': 10:00-20:00, 'fri': 10:00-20:00, 'sat': 10:00-18:30, 'sun': выходной, ",60.032578,30.418545,"4,4",['8 (800) 555-55-50Показать телефон'],"['https://ok.ru/sberbank', 'https://vk.com/sberbank']",76,50,61,100,83,,,,,2024-08-05 16:36:22
122,sberbank/75828822244,СберБанк,"Ленинский просп., 56, Санкт-Петербург",,"'mon': 10:00-19:00, 'tue': 10:00-19:00, 'wed': 10:00-19:00, 'thu': 10:00-19:00, 'fri': 10:00-19:00, 'sat': выходной, 'sun': выходной, ",59.866762,30.159606,"4,4",['8 (800) 555-55-50Показать телефон'],"['http://ok.ru/sberbank', 'https://vk.com/sberbank']",79,64,70,100,,,,,,2024-08-05 16:36:22
123,sberbank/124150037844,СберБанк,"Ленинский просп., 117, корп. 1, Санкт-Петербург",,"'mon': выходной, 'tue': выходной, 'wed': выходной, 'thu': выходной, 'fri': выходной, 'sat': выходной, 'sun': выходной, ",59.851363,30.253094,"4,4",['8 (800) 555-55-50Показать телефон'],"['http://ok.ru/sberbank', 'https://vk.com/sberbank']",80,69,61,100,,,,,,2024-08-05 16:36:22
124,sberbank/240628526563,СберБанк,"Фурштатская ул., 29, Санкт-Петербург",www.sberbank.ru,"'mon': 10:30-19:30, 'tue': 10:30-19:30, 'wed': 10:30-19:30, 'thu': 10:30-19:30, 'fri': 10:30-19:30, 'sat': 11:30-16:30, 'sun': выходной, ",59.944964,30.359831,,['8 (800) 555-55-50Показать телефон'],"['http://ok.ru/sberbank', 'https://vk.com/sberbank']",,,,,,,,,,2024-08-05 16:36:22
125,sberbank/1103329906,СберБанк,"ул. Восстания, 21, Санкт-Петербург",www.sberbank.ru,"'mon': 10:00-19:00, 'tue': 10:00-19:00, 'wed': 10:00-19:00, 'thu': 10:00-19:00, 'fri': 10:00-19:00, 'sat': 10:00-16:30, 'sun': выходной, ",59.936106,30.360596,"4,3",['8 (800) 555-55-50Показать телефон'],"['http://ok.ru/sberbank', 'https://t.me/sberbank', 'https://vk.com/sberbank']",71,58,50,,,,,,,2024-08-05 16:36:22
126,sberbank/188087639478,СберБанк,"Бухарестская ул., 112, Санкт-Петербург",,"'mon': выходной, 'tue': выходной, 'wed': выходной, 'thu': выходной, 'fri': выходной, 'sat': выходной, 'sun': выходной, ",59.849971,30.403715,"4,4",['8 (800) 555-55-50Показать телефон'],"['http://ok.ru/sberbank', 'https://vk.com/sberbank']",74,54,75,,,,,,,2024-08-05 16:36:22
127,sberbank/1138799899,СберБанк,"Богатырский просп., 10, Санкт-Петербург",,"'mon': выходной, 'tue': выходной, 'wed': выходной, 'thu': выходной, 'fri': выходной, 'sat': выходной, 'sun': выходной, ",59.998400,30.280798,"4,3",['8 (800) 555-55-50Показать телефон'],"['http://ok.ru/sberbank', 'https://vk.com/sberbank']",84,71,32,85,25,,,,,2024-08-05 16:36:22
128,sberbank/1030865495,СберБанк,"Средний просп. Васильевского острова, 15/34, Санкт-Петербург",,"'mon': 09:30-19:00, 'tue': 09:30-19:00, 'wed': 09:30-19:00, 'thu': 09:30-19:00, 'fri': 09:30-19:00, 'sat': 10:00-18:00, 'sun': выходной, ",59.944644,30.282999,"4,3",['8 (800) 555-55-50Показать телефон'],"['https://ok.ru/sber/', 'https://vk.com/sberbank']",72,47,69,92,,74,,70,,2024-08-05 16:36:22
129,sberbank/1065811844,СберБанк,"ул. Нахимова, 14/41, Санкт-Петербург",www.sberbank.ru,"'mon': 10:00-21:00, 'tue': 10:00-21:00, 'wed': 10:00-21:00, 'thu': 10:00-21:00, 'fri': 10:00-21:00, 'sat': 10:00-19:00, 'sun': 10:00-19:00, ",59.942223,30.232280,"4,3",['8 (800) 555-55-50Показать телефон'],"['http://ok.ru/sberbank', 'https://vk.com/sberbank']",61,36,36,77,21,,62,,,2024-08-05 16:36:22
130,sberbank/1021774314,СберБанк,"Каменноостровский просп., 41, Санкт-Петербург",www.sberbank.ru,"'mon': 09:00-18:00, 'tue': 09:00-18:00, 'wed': 09:00-18:00, 'thu': 09:00-18:00, 'fri': 09:00-18:00, 'sat': 10:30-17:30, 'sun': выходной, ",59.968308,30.309508,"4,2",['8 (800) 555-55-50Показать телефон'],"['http://ok.ru/sberbank', 'https://t.me/sberbank', 'https://vk.com/sberbank']",74,51,42,90,20,,,,,2024-08-05 16:36:22
131,sberbank/1104583062,СберБанк,"Коломяжский просп., 15, корп. 2, Санкт-Петербург",www.sberbank.ru,"'mon': 09:30-20:00, 'tue': 09:30-20:00, 'wed': 09:30-20:00, 'thu': 09:30-20:00, 'fri': 09:30-20:00, 'sat': 10:00-18:30, 'sun': 11:00-17:00, ",60.001928,30.299212,"4,4",['8 (800) 555-55-50Показать телефон'],"['https://ok.ru/sberbank', 'https://vk.com/bankdruzey']",73,58,54,90,,70,,65,,2024-08-05 16:36:22
132,sberbank/1131124581,СберБанк,"2-я Красноармейская ул., 2/27, Санкт-Петербург",www.sberbank.ru,"'mon': 09:30-19:30, 'tue': 09:30-19:30, 'wed': 09:30-19:30, 'thu': 09:30-19:30, 'fri': 09:30-19:30, 'sat': 10:00-17:00, 'sun': выходной, ",59.915101,30.317746,"4,3",['8 (800) 555-55-50Показать телефон'],"['https://ok.ru/sberbank', 'https://t.me/sberbank', 'https://vk.com/sberbank']",59,46,57,,,,,,,2024-08-05 16:36:22
133,sberbank/168930424105,СберБанк,"ул. Ленсовета, 88, Санкт-Петербург",www.sberbank.com,"'mon': 10:00-20:00, 'tue': 10:00-20:00, 'wed': 10:00-20:00, 'thu': 10:00-20:00, 'fri': 10:00-20:00, 'sat': 10:30-17:30, 'sun': 10:30-15:30, ",59.832842,30.350273,"4,4",['8 (800) 555-55-50Показать телефон'],"['http://ok.ru/sberbank', 'https://vk.com/sberbank']",72,44,83,100,,,,,,2024-08-05 16:36:22
134,sberbank/1105589432,СберБанк,"просп. Просвещения, 78, Санкт-Петербург",www.sberbank.ru,"'mon': 10:00-21:00, 'tue': 10:00-21:00, 'wed': 10:00-21:00, 'thu': 10:00-21:00, 'fri': 10:00-21:00, 'sat': 10:00-21:00, 'sun': 10:00-21:00, ",60.039270,30.403710,"4,3",['8 (800) 555-55-50Показать телефон'],['https://vk.com/sberbank'],69,44,26,,38,,35,,,2024-08-05 16:36:22
135,sberbank/1025667257,СберБанк,"1-я Красноармейская ул., 4, Санкт-Петербург",www.sberbank.com,"'mon': выходной, 'tue': выходной, 'wed': выходной, 'thu': выходной, 'fri': выходной, 'sat': выходной, 'sun': выходной, ",59.915905,30.316479,"4,3",['8 (800) 555-55-50Показать телефон'],"['http://ok.ru/sberbank', 'https://t.me/sberbank', 'https://vk.com/sberbank']",81,59,73,93,,,,,,2024-08-05 16:36:22
136,sberbank/195335520750,СберБанк,"Московский просп., 193, Санкт-Петербург",,"'mon': 10:30-20:00, 'tue': 10:30-20:00, 'wed': 10:30-20:00, 'thu': 10:30-20:00, 'fri': 10:30-20:00, 'sat': 10:30-18:30, 'sun': выходной, ",59.851675,30.320844,"4,3",['8 (800) 555-55-50Показать телефон'],"['http://ok.ru/sberbank', 'https://vk.com/sberbank']",56,38,61,92,,,,,,2024-08-05 16:36:22
137,sberbank/1155925748,СберБанк,"просп. Славы, 4, Санкт-Петербург",www.sberbank.ru,"'mon': 10:10-19:00, 'tue': 10:00-19:00, 'wed': 10:00-19:00, 'thu': 10:00-19:00, 'fri': 10:00-19:00, 'sat': выходной, 'sun': выходной, ",59.855308,30.370558,"4,4",['8 (800) 555-55-50Показать телефон'],"['http://ok.ru/sberbank', 'https://vk.com/sberbank']",75,55,41,,,,,,,2024-08-05 16:36:22
138,sberbank/1102944644,СберБанк,"Богатырский просп., 51, корп. 1, Санкт-Петербург",www.sberbank.ru,"'mon': 10:00-18:30, 'tue': 10:00-18:30, 'wed': 10:00-18:30, 'thu': 10:00-18:30, 'fri': 10:00-18:30, 'sat': 10:00-17:00, 'sun': выходной, ",60.006444,30.219371,"4,4",['8 (800) 555-55-50Показать телефон'],"['http://ok.ru/sberbank', 'https://t.me/sberbank', 'https://vk.com/sberbank']",85,65,65,95,50,,,,,2024-08-05 16:36:22
139,sberbank/1017263152,СберБанк,"Бухарестская ул., 23, корп. 1, Санкт-Петербург",,"'mon': выходной, 'tue': выходной, 'wed': выходной, 'thu': выходной, 'fri': выходной, 'sat': выходной, 'sun': выходной, ",59.874311,30.376154,"4,4",['8 (800) 555-55-50Показать телефон'],"['http://ok.ru/sberbank', 'https://t.me/sberbank', 'https://vk.com/sberbank']",76,63,74,87,69,,,,,2024-08-05 16:36:22
140,sberbank/1102286164,СберБанк,"Гатчинская ул., 1/56, Санкт-Петербург",,"'mon': выходной, 'tue': выходной, 'wed': выходной, 'thu': выходной, 'fri': выходной, 'sat': выходной, 'sun': выходной, ",59.960787,30.303444,"4,4",['8 (800) 555-55-50Показать телефон'],"['http://ok.ru/sberbank', 'https://vk.com/sberbank']",86,67,74,100,45,,,,,2024-08-05 16:36:22
141,sberbank/118054401618,СберБанк,"Бухарестская ул., 43, Санкт-Петербург",www.sberbank.com,"'mon': 09:30-20:00, 'tue': 09:30-20:00, 'wed': 09:30-20:00, 'thu': 09:30-20:00, 'fri': 09:30-20:00, 'sat': 10:00-16:30, 'sun': выходной, ",59.860848,30.389378,"4,3",['8 (800) 555-55-50Показать телефон'],"['http://ok.ru/sberbank', 'https://vk.com/sberbank']",70,57,75,93,55,71,,64,0,2024-08-05 16:36:22
142,sberbank/1003842121,СберБанк,"Софийская ул., 29, корп. 2, Санкт-Петербург",www.sberbank.ru,"'mon': 09:30-19:30, 'tue': 09:30-19:30, 'wed': 09:30-19:30, 'thu': 09:30-19:30, 'fri': 09:30-19:30, 'sat': 10:00-17:00, 'sun': выходной, ",59.878053,30.395557,"4,4",['8 (800) 555-55-50Показать телефон'],"['http://ok.ru/sberbank', 'https://vk.com/sberbank']",82,54,59,100,,,,,,2024-08-05 16:36:22
143,sberbank/1090398555,СберБанк,"Московский просп., 189, Санкт-Петербург",,"'mon': 10:00-19:30, 'tue': 10:00-19:30, 'wed': 10:00-19:30, 'thu': 10:00-19:30, 'fri': 10:00-19:30, 'sat': 10:00-18:00, 'sun': выходной, ",59.854065,30.320665,"4,5",['8 (800) 555-55-50Показать телефон'],"['https://ok.ru/sber/', 'https://t.me/sberbank', 'https://vk.com/bankdruzey']",65,50,93,96,,60,,50,,2024-08-05 16:36:22
144,sberbank/1040803179,СберБанк,"Средний просп. Васильевского острова, 35, Санкт-Петербург",www.sberbank.com,"'mon': 10:00-19:30, 'tue': 10:00-19:30, 'wed': 10:00-19:30, 'thu': 10:00-19:30, 'fri': 10:00-19:30, 'sat': 10:00-16:00, 'sun': выходной, ",59.942832,30.276783,"4,2",['8 (800) 555-55-50Показать телефон'],"['https://ok.ru/sber/', 'https://t.me/s/sberbank', 'https://vk.com/sberbank']",62,58,27,,,,,,,2024-08-05 16:36:22
145,sberbank/34292635590,СберБанк,"Московский просп., 212, Санкт-Петербург",www.sberbank.ru,"'mon': выходной, 'tue': выходной, 'wed': выходной, 'thu': выходной, 'fri': выходной, 'sat': выходной, 'sun': выходной, ",59.852189,30.327151,"4,1",['8 (800) 555-55-50Показать телефон'],"['http://ok.ru/sberbank', 'https://vk.com/sberbank']",67,75,,,,,,,,2024-08-05 16:36:22
146,sberbank/1015493299,СберБанк,"просп. Стачек, 73, Санкт-Петербург",www.sberbank.ru,"'mon': 09:30-18:30, 'tue': 09:30-18:30, 'wed': 09:30-18:30, 'thu': 09:30-18:30, 'fri': 09:30-18:30, 'sat': выходной, 'sun': выходной, ",59.868370,30.259589,"4,3",['8 (800) 555-55-50Показать телефон'],"['http://ok.ru/sberbank', 'https://t.me/sberbank', 'https://vk.com/sber']",80,64,28,92,,,,,,2024-08-05 16:36:22
147,sberbank/244629437854,СберБанк,"просп. Энергетиков, 37, Санкт-Петербург",www.sberbank.com,"'mon': 10:00-20:00, 'tue': 10:00-20:00, 'wed': 10:00-20:00, 'thu': 10:00-20:00, 'fri': 10:00-20:00, 'sat': 10:00-17:00, 'sun': выходной, ",59.958850,30.439800,"4,4",['8 (800) 555-55-50Показать телефон'],"['http://ok.ru/sberbank', 'https://t.me/s/sberbank', 'https://vk.com/sber']",71,59,69,92,,,,,,2024-08-05 16:36:22
148,sberbank/1332871349,СберБанк,"Невский просп., 25, Санкт-Петербург",www.sberbank.com,"'mon': 10:00-18:30, 'tue': 10:00-18:30, 'wed': 10:00-18:30, 'thu': 10:00-18:30, 'fri': 10:00-18:30, 'sat': 10:30-17:00, 'sun': выходной, ",59.935522,30.323583,"4,3",['8 (800) 555-55-50Показать телефон'],"['https://ok.ru/sberbank', 'https://t.me/Sber_Business_Live_bot', 'https://vk.com/careersber']",66,59,,100,,,,,,2024-08-05 16:36:22
149,sberbank/235143703797,СберБанк,"Европейский просп., 5, Кудрово",www.sberbank.ru,"'mon': 10:30-20:00, 'tue': 10:30-20:00, 'wed': 10:30-20:00, 'thu': 10:30-20:00, 'fri': 10:30-20:00, 'sat': 11:00-15:00, 'sun': выходной, ",59.899234,30.511135,"4,5",['8 (800) 555-55-50Показать телефон'],"['https://ok.ru/sberbank', 'https://vk.com/sberbank']",80,49,45,100,33,,,,,2024-08-05 16:36:22
150,sberbank/1067175798,СберБанк,"ул. Осипенко, 2, Санкт-Петербург",www.sberbank.ru,"'mon': 10:00-19:30, 'tue': 10:00-19:30, 'wed': 10:00-19:30, 'thu': 10:00-19:30, 'fri': 10:00-19:30, 'sat': 10:30-17:00, 'sun': выходной, ",59.945680,30.483520,"4,4",['8 (800) 555-55-50Показать телефон'],"['http://ok.ru/sberbank', 'https://vk.com/sberbank']",79,68,68,75,,,,,,2024-08-05 16:36:22
151,sberbank/1017542329,СберБанк,"Каменноостровский просп., 32, Санкт-Петербург",www.sberbank.ru,"'mon': 10:00-19:00, 'tue': 10:00-19:00, 'wed': 10:00-19:00, 'thu': 10:00-19:00, 'fri': 10:00-19:00, 'sat': выходной, 'sun': выходной, ",59.964075,30.312912,"4,0",['8 (800) 555-55-50Показать телефон'],"['http://ok.ru/sberbank', 'https://vk.com/sberbank']",63,48,,,,,,,,2024-08-05 16:36:22
152,sberbank/1080616302,СберБанк,"Тихорецкий просп., 26, Санкт-Петербург",www.sberbank.ru,"'mon': 10:00-19:00, 'tue': 10:00-19:00, 'wed': 10:00-19:00, 'thu': 10:00-19:00, 'fri': 10:00-19:00, 'sat': выходной, 'sun': выходной, ",60.017850,30.366776,"4,3",['8 (800) 555-55-50Показать телефон'],"['http://ok.ru/sberbank', 'https://vk.com/sberbank']",78,73,82,100,32,,,,,2024-08-05 16:36:22
153,sberbank/11609928590,СберБанк,"ул. Маршала Говорова, 12, корп. 1, Санкт-Петербург",www.sberbank.ru,"'mon': 10:00-21:00, 'tue': 10:00-21:00, 'wed': 10:00-21:00, 'thu': 10:00-21:00, 'fri': 10:00-21:00, 'sat': 10:00-19:00, 'sun': 10:00-19:00, ",59.878794,30.266308,"4,4",['8 (800) 555-55-50Показать телефон'],"['http://ok.ru/sberbank', 'https://vk.com/sberbank']",76,56,44,72,31,,61,,,2024-08-05 16:36:22
154,sberbank/1060930003,СберБанк,"ул. Олеко Дундича, 34, Санкт-Петербург",,"'mon': 09:30-19:30, 'tue': 09:30-19:30, 'wed': 09:30-19:30, 'thu': 09:30-19:30, 'fri': 09:30-19:30, 'sat': 09:30-19:30, 'sun': выходной, ",59.833991,30.420683,"4,3",['+7 (495) 500-55-50Показать телефон'],['https://vk.com/sberbank'],79,48,33,,,,,,,2024-08-05 16:36:22
155,sberbank/1063605979,СберБанк,"ул. Олеко Дундича, 34, Санкт-Петербург",,"'mon': 10:00-19:30, 'tue': 10:00-19:30, 'wed': 10:00-19:30, 'thu': 10:00-19:30, 'fri': 10:00-19:30, 'sat': 10:30-16:30, 'sun': выходной, ",59.833991,30.420683,"4,4",['8 (800) 555-55-50Показать телефон'],"['http://ok.ru/sberbank', 'https://vk.com/sberbank']",78,60,39,100,,,,,,2024-08-05 16:36:22
156,sberbank/1112971108,СберБанк,"просп. Стачек, 90, Санкт-Петербург",www.sberbank.ru,"'mon': 10:00-19:00, 'tue': 10:00-19:00, 'wed': 10:00-19:00, 'thu': 10:00-19:00, 'fri': 10:00-19:00, 'sat': 10:00-16:30, 'sun': выходной, ",59.867923,30.261115,"4,3",['8 (800) 555-55-50Показать телефон'],"['http://ok.ru/sberbank', 'https://vk.com/sberbank']",69,56,58,90,,,,,,2024-08-05 16:36:22
157,sberbank/1072942815,СберБанк,"просп. Стачек, 18, Санкт-Петербург",www.sberbank.ru,"'mon': 10:00-19:00, 'tue': 10:00-19:00, 'wed': 10:00-19:00, 'thu': 10:00-19:00, 'fri': 10:00-19:00, 'sat': выходной, 'sun': выходной, ",59.894816,30.277807,"4,3",['8 (800) 555-55-50Показать телефон'],"['http://ok.ru/sberbank', 'https://vk.com/sberbank']",85,69,90,,,,,,,2024-08-05 16:36:22
158,sberbank/1056094810,СберБанк,"просп. Металлистов, 59, Санкт-Петербург",www.sberbank.ru,"'mon': 10:00-19:00, 'tue': 10:00-19:00, 'wed': 10:00-19:00, 'thu': 10:00-19:00, 'fri': 10:00-19:00, 'sat': выходной, 'sun': выходной, ",59.969349,30.408763,"4,4",['8 (800) 555-55-50Показать телефон'],"['https://ok.ru/sberbank', 'https://t.me/sberbank', 'https://vk.com/sberbank']",68,53,57,,,,,,,2024-08-05 16:36:22
159,sberbank/1091458863,СберБанк,"Кондратьевский просп., 53, Санкт-Петербург",www.sberbank.ru,"'mon': 10:00-19:00, 'tue': 10:00-19:00, 'wed': 10:00-19:00, 'thu': 10:00-19:00, 'fri': 10:00-19:00, 'sat': выходной, 'sun': выходной, ",59.974131,30.390419,"4,3",['8 (800) 555-55-50Показать телефон'],"['http://ok.ru/sberbank', 'https://vk.com/sberbank']",76,47,50,93,29,,,,,2024-08-05 16:36:22
160,sberbank/153813805222,СберБанк,"площадь Карла Фаберже, 8Б, Санкт-Петербург",www.sberbank.ru,"'mon': выходной, 'tue': выходной, 'wed': выходной, 'thu': выходной, 'fri': выходной, 'sat': выходной, 'sun': выходной, ",59.935638,30.436053,"4,4",['8 (800) 555-55-50Показать телефон'],['https://vk.com/sberbank'],,,,,,,,,,2024-08-05 16:36:22
161,sberbank/158618734005,СберБанк,"ул. Мира, 10, Санкт-Петербург",www.sberbank.ru,"'mon': 10:30-19:30, 'tue': 10:30-19:30, 'wed': 10:30-19:30, 'thu': 10:30-19:30, 'fri': 10:30-19:30, 'sat': 10:30-16:30, 'sun': выходной, ",59.959949,30.316237,"4,4",['8 (800) 555-55-50Показать телефон'],"['https://ok.ru/sberbank', 'https://t.me/sberbank', 'https://vk.com/sberbank']",81,64,76,91,,,,,,2024-08-05 16:36:22
162,sberbank/1117767711,СберБанк,"Новочеркасский просп., 26/16, Санкт-Петербург",www.sberbank.ru,"'mon': 09:30-20:00, 'tue': 09:30-20:00, 'wed': 09:30-20:00, 'thu': 09:30-20:00, 'fri': 09:30-20:00, 'sat': 09:30-17:30, 'sun': 10:30-16:00, ",59.929831,30.412030,"4,4",['8 (800) 555-55-50Показать телефон'],"['https://ok.ru/sberbank', 'https://vk.com/sberbank']",83,65,37,92,,,,,,2024-08-05 16:36:22
163,sberbank/1380413951,СберБанк,"Первомайская ул., 15, посёлок Шушары",www.sberbank.ru,"'mon': 10:00-19:00, 'tue': 10:00-19:00, 'wed': 10:00-19:00, 'thu': 10:00-19:00, 'fri': 10:00-19:00, 'sat': 10:00-17:30, 'sun': выходной, ",59.807034,30.377564,"4,5",['8 (800) 555-55-50Показать телефон'],"['http://ok.ru/sberbank', 'https://vk.com/sberbank']",74,42,42,100,,,,,,2024-08-05 16:36:22
164,sberbank/1065411964,СберБанк,"Боткинская ул., 4, Санкт-Петербург",www.sberbank.ru,"'mon': 09:30-20:00, 'tue': 09:30-20:00, 'wed': 09:30-20:00, 'thu': 09:30-20:00, 'fri': 09:30-20:00, 'sat': 10:00-17:00, 'sun': 10:30-16:00, ",59.957525,30.354190,"4,4",['8 (800) 555-55-50Показать телефон'],"['http://ok.ru/sberbank', 'https://t.me/sberbank', 'https://vk.com/sberbank']",81,77,88,92,,,64,,,2024-08-05 16:36:22
165,sberbank/1072057945,СберБанк,"ул. Смолячкова, 19, Санкт-Петербург",www.sberbank.ru,"'mon': 10:00-19:00, 'tue': 10:00-19:00, 'wed': 10:00-19:00, 'thu': 10:00-19:00, 'fri': 10:00-19:00, 'sat': 10:00-17:30, 'sun': выходной, ",59.970954,30.346564,"4,4",['8 (800) 555-55-50Показать телефон'],"['http://ok.ru/sberbank', 'https://t.me/s/sberbank', 'https://vk.com/sber']",86,82,62,100,,,,,,2024-08-05 16:36:22
166,sberbank/1070716259,СберБанк,"просп. Науки, 41, Санкт-Петербург",www.sberbank.ru,"'mon': 10:00-19:00, 'tue': 10:00-19:00, 'wed': 10:00-19:00, 'thu': 10:00-19:00, 'fri': 10:00-19:00, 'sat': 11:00-16:30, 'sun': выходной, ",60.008707,30.412652,"4,4",['8 (800) 555-55-50Показать телефон'],"['http://ok.ru/sberbank', 'https://t.me/sberbank', 'https://vk.com/sberbank']",76,64,30,,,,,,,2024-08-05 16:36:22
167,sberbank/1075171831,СберБанк,"ул. Коммуны, 58, Санкт-Петербург",www.sberbank.ru,"'mon': 10:00-19:00, 'tue': 10:00-19:00, 'wed': 10:00-19:00, 'thu': 10:00-19:00, 'fri': 10:00-19:00, 'sat': выходной, 'sun': выходной, ",59.961084,30.488839,"4,4",['8 (800) 555-55-50Показать телефон'],"['http://ok.ru/sberbank', 'https://vk.com/sberbank']",82,60,55,97,18,,,,,2024-08-05 16:36:22
168,sberbank/1059914109,СберБанк,"Лиговский просп., 105, Санкт-Петербург",www.sberbank.ru,"'mon': 10:00-19:30, 'tue': 10:00-19:30, 'wed': 10:00-19:30, 'thu': 10:00-19:30, 'fri': 10:00-19:30, 'sat': 10:00-18:00, 'sun': выходной, ",59.921572,30.354030,"4,3",['8 (800) 555-55-50Показать телефон'],"['http://ok.ru/sberbank', 'https://vk.com/sberbank']",58,38,79,85,60,,,,,2024-08-05 16:36:22
169,sberbank/1015133225,СберБанк,"Индустриальный просп., 26/24, Санкт-Петербург",www.sberbank.com,"'mon': 09:30-19:00, 'tue': 09:30-19:00, 'wed': 09:30-19:00, 'thu': 09:30-19:00, 'fri': 09:30-19:00, 'sat': 10:30-18:30, 'sun': 11:00-16:00, ",59.947983,30.473917,"4,5",['8 (800) 555-55-50Показать телефон'],"['http://ok.ru/sberbank', 'https://vk.com/sberbank']",83,64,58,92,67,,92,,,2024-08-05 16:36:22
170,sberbank/1022285461,СберБанк,"просп. Просвещения, 67, Санкт-Петербург",www.sberbank.ru,"'mon': 10:00-18:30, 'tue': 10:00-18:30, 'wed': 10:00-18:30, 'thu': 10:00-18:30, 'fri': 10:00-18:30, 'sat': 10:00-18:30, 'sun': выходной, ",60.040398,30.393294,"4,5",['8 (800) 555-55-50Показать телефон'],"['http://ok.ru/sberbank', 'https://t.me/sberbank', 'https://vk.com/sberbank']",84,66,71,93,,,,,,2024-08-05 16:36:22
171,sberbank/1100223844,СберБанк,"просп. Стачек, 26, Санкт-Петербург",www.sberbank.ru,"'mon': 10:00-19:00, 'tue': 10:00-19:00, 'wed': 10:00-19:00, 'thu': 10:00-19:00, 'fri': 10:00-19:00, 'sat': выходной, 'sun': выходной, ",59.889972,30.272740,"4,3",['8 (800) 555-55-50Показать телефон'],"['http://ok.ru/sberbank', 'https://vk.com/sberbank']",73,47,72,100,,,,,,2024-08-05 16:36:22
172,sberbank/1031453161,СберБанк,"Ленинский просп., 71, корп. 1, Санкт-Петербург",www.sberbank.ru,"'mon': 10:00-19:00, 'tue': 10:00-19:00, 'wed': 10:00-19:00, 'thu': 10:00-19:00, 'fri': 10:00-19:00, 'sat': 10:00-17:00, 'sun': выходной, ",59.859510,30.185046,"4,4",['8 (800) 555-55-50Показать телефон'],"['http://ok.ru/sberbank', 'https://vk.com/sberbank']",82,56,56,85,44,,,,,2024-08-05 16:36:22
173,sberbank/200691349775,СберБанк,"Московский просп., 75, Санкт-Петербург",www.sberbank.com,"'mon': 10:00-19:00, 'tue': 10:00-19:00, 'wed': 10:00-19:00, 'thu': 10:00-19:00, 'fri': 10:00-19:00, 'sat': выходной, 'sun': выходной, ",59.902998,30.317952,"4,2",['8 (800) 555-55-50Показать телефон'],"['http://ok.ru/sberbank', 'https://vk.com/sberbank']",71,53,77,81,23,,,,,2024-08-05 16:36:22
174,sberbank/1111133173,СберБанк,"Пискарёвский просп., 35, Санкт-Петербург",www.sberbank.ru,"'mon': 10:00-19:00, 'tue': 10:00-19:00, 'wed': 10:00-19:00, 'thu': 10:00-19:00, 'fri': 10:00-19:00, 'sat': выходной, 'sun': выходной, ",59.976963,30.419220,"4,3",['8 (800) 555-55-50Показать телефон'],"['http://ok.ru/sberbank', 'https://t.me/sberbank', 'https://vk.com/sberbank']",75,55,63,92,,,,,,2024-08-05 16:36:22
175,sberbank/1133300622,СберБанк,"ул. Бабушкина, 38, корп. 2, Санкт-Петербург",www.sberbank.ru,"'mon': выходной, 'tue': выходной, 'wed': выходной, 'thu': выходной, 'fri': выходной, 'sat': выходной, 'sun': выходной, ",59.878098,30.442333,"4,3",['8 (800) 555-55-50Показать телефон'],"['http://ok.ru/sberbank', 'https://vk.com/sberbank']",76,56,56,100,,,,,,2024-08-05 16:36:22
176,sberbank/1063861651,СберБанк,"Шоссейная ул., 12, посёлок Бугры",,"'mon': выходной, 'tue': 09:00-17:15, 'wed': 09:00-17:15, 'thu': 09:00-17:15, 'fri': 09:00-17:15, 'sat': 10:00-15:15, 'sun': выходной, ",60.068875,30.393069,"3,7",['8 (800) 555-55-50Показать телефон'],"['http://ok.ru/sberbank', 'https://vk.com/sberbank']",92,38,0,,0,,,,,2024-08-05 16:36:22
177,sberbank/150675268280,,,,"'mon': выходной, 'tue': выходной, 'wed': выходной, 'thu': выходной, 'fri': выходной, 'sat': выходной, 'sun': выходной, ",55.755863,37.617700,,[],[],,,,,,,,,,2024-08-05 16:36:22
178,sberbank/89097608975,СберБанк,"просп. Большевиков, 27, Санкт-Петербург",,"'mon': выходной, 'tue': выходной, 'wed': выходной, 'thu': выходной, 'fri': выходной, 'sat': выходной, 'sun': выходной, ",59.900520,30.485874,"4,3",['8 (800) 555-55-50Показать телефон'],['https://vk.com/sberbank'],,,,,,,,,,2024-08-05 16:36:22
179,sberbank/31785334427,СберБанк,"Садовая ул., 10, посёлок Аннино",www.sberbank.ru,"'mon': выходной, 'tue': 09:00-17:30, 'wed': 09:00-17:30, 'thu': 09:00-17:30, 'fri': 09:00-17:30, 'sat': 09:00-14:15, 'sun': выходной, ",59.775857,30.044559,"3,9",['8 (800) 555-55-50Показать телефон'],"['http://ok.ru/sberbank', 'https://vk.com/sberbank']",90,53,0,,27,,,,,2024-08-05 16:36:22
180,sberbank/1075155954,СберБанк,"ш. Революции, 16, Санкт-Петербург",www.sberbank.ru,"'mon': 10:00-19:00, 'tue': 10:00-19:00, 'wed': 10:00-19:00, 'thu': 10:00-19:00, 'fri': 10:00-19:00, 'sat': 10:00-18:30, 'sun': выходной, ",59.959562,30.416767,"4,3",['8 (800) 555-55-50Показать телефон'],"['http://ok.ru/sberbank', 'https://vk.com/sberbank']",83,51,61,100,58,,,,,2024-08-05 16:36:22
181,sberbank/1049321052,СберБанк,"ул. Коллонтай, 24, корп. 2, Санкт-Петербург",www.sberbank.ru,"'mon': 10:00-19:30, 'tue': 09:45-19:30, 'wed': 09:45-19:30, 'thu': 10:00-19:30, 'fri': 10:00-19:30, 'sat': 10:30-16:30, 'sun': выходной, ",59.921746,30.475588,"4,5",['8 (800) 555-55-50Показать телефон'],"['http://ok.ru/sberbank', 'https://t.me/sberbank', 'https://vk.com/sberbank']",70,57,56,92,40,63,,72,,2024-08-05 16:36:22
182,sberbank/1035696029,СберБанк,"просп. Ветеранов, 114, корп. 1, Санкт-Петербург",www.sberbank.ru,"'mon': выходной, 'tue': выходной, 'wed': выходной, 'thu': выходной, 'fri': выходной, 'sat': выходной, 'sun': выходной, ",59.832548,30.198405,"4,5",['8 (800) 555-55-50Показать телефон'],"['http://ok.ru/sberbank', 'https://vk.com/sberbank']",74,64,83,85,53,46,,53,,2024-08-05 16:36:22
183,sberbank/1499269781,СберБанк,"площадь Карла Фаберже, 8Б, Санкт-Петербург",www.sberbank.ru,"'mon': выходной, 'tue': выходной, 'wed': выходной, 'thu': выходной, 'fri': выходной, 'sat': выходной, 'sun': выходной, ",59.935638,30.436053,"4,3",['8 (800) 555-55-50Показать телефон'],"['http://ok.ru/sberbank', 'https://vk.com/sberbank']",64,53,50,81,,,,,,2024-08-05 16:36:22
184,sberbank/69117683964,СберБанк,"просп. Художников, 13, корп. 1, Санкт-Петербург",www.sberbank.ru,"'mon': 10:00-19:00, 'tue': 10:00-19:00, 'wed': 10:00-19:00, 'thu': 10:00-19:00, 'fri': 10:00-19:00, 'sat': выходной, 'sun': выходной, ",60.036785,30.345916,"4,5",['8 (800) 555-55-50Показать телефон'],"['http://ok.ru/sberbank', 'https://t.me/sberbank', 'https://vk.com/sberbank']",70,64,85,100,,,,,,2024-08-05 16:36:22
