,ID,name,address,website,opening_hours,lat,lon,rating,phone,social,Персонал,Время ожидания,load_time
0,sberbank/1173960667,СберБанк,"Кедровая ул., 9, посёлок Третий Северный",,"'mon': выходной, 'tue': 10:30-16:30, 'wed': 10:30-16:30, 'thu': 10:30-16:30, 'fri': 10:30-16:00, 'sat': выходной, 'sun': выходной, ",60.210011,59.957111,"4,2",['8 (800) 555-55-50Показать телефон'],['https://vk.com/sberbank'],,,2024-08-06 07:03:33
1,sberbank/202962852825,СберБанк,"Клубная ул., 7, посёлок Калья",www.sberbank.ru,"'mon': 09:45-17:30, 'tue': 09:30-17:30, 'wed': 09:30-17:30, 'thu': 09:30-17:30, 'fri': 09:30-17:30, 'sat': выходной, 'sun': выходной, ",60.242187,59.989189,"4,3",['8 (800) 555-55-50Показать телефон'],"['http://ok.ru/sberbank', 'https://vk.com/sberbank']",,,2024-08-06 07:03:33
2,sberbank/72810357670,СберБанк,"Октябрьская ул., 35, посёлок Покровск-Уральский",www.sberbank.ru,"'mon': 09:15-15:30, 'tue': выходной, 'wed': 09:15-15:30, 'thu': выходной, 'fri': 09:15-15:30, 'sat': выходной, 'sun': выходной, ",60.147979,59.826864,"4,0",['8 (800) 555-55-50Показать телефон'],"['http://ok.ru/sberbank', 'https://vk.com/sberbank']",,,2024-08-06 07:03:33
3,sberbank/1068257214,СберБанк,"ул. Мира, 3, Североуральск",www.sberbank.ru,"'mon': 09:00-18:00, 'tue': 09:00-18:00, 'wed': 09:00-18:00, 'thu': 09:00-18:00, 'fri': 09:00-18:00, 'sat': 09:00-14:30, 'sun': выходной, ",60.153640,59.950166,"4,3",['8 (800) 555-55-50Показать телефон'],"['http://ok.ru/sberbank', 'https://vk.com/sberbank']",85,50,2024-08-06 07:03:33
4,sberbank/1131947309,СберБанк,"ул. Будённого, 35, Североуральск",www.sberbank.ru,"'mon': 09:00-18:00, 'tue': 09:00-18:00, 'wed': 09:00-18:00, 'thu': 09:00-18:00, 'fri': 09:00-18:00, 'sat': выходной, 'sun': выходной, ",60.158847,59.970154,"4,7",['8 (800) 555-55-50Показать телефон'],"['http://ok.ru/sberbank', 'https://vk.com/sberbank']",,,2024-08-06 07:03:33
