,ID,name,address,website,opening_hours,lat,lon,rating,phone,social,Персонал,Время ожидания,Банкомат,load_time
0,sberbank/1134633479,СберБанк,"Красная ул., 68, Славянск-на-Кубани",www.sberbank.ru,"'mon': 08:00-17:30, 'tue': 08:00-17:30, 'wed': 08:00-17:30, 'thu': 08:00-17:30, 'fri': 08:00-17:30, 'sat': 08:30-14:00, 'sun': выходной, ",45.255561,38.115194,"4,6",['8 (800) 555-55-50Показать телефон'],"['http://ok.ru/sberbank', 'https://t.me/sberbank', 'https://vk.com/sberbank']",76,64,61,2024-08-06 07:18:10
1,sberbank/1082793186,СберБанк,"ул. Ковтюха, 27, Славянск-на-Кубани",www.sberbank.ru,"'mon': 08:00-17:00, 'tue': 08:00-17:00, 'wed': 08:00-17:00, 'thu': 08:00-17:00, 'fri': 08:00-17:00, 'sat': 09:00-15:00, 'sun': выходной, ",45.259317,38.123359,"4,5",['8 (800) 555-55-50Показать телефон'],"['http://ok.ru/sberbank', 'https://vk.com/sberbank']",78,69,,2024-08-06 07:18:10
2,sberbank/1029865350,СберБанк,"ул. Дзержинского, 247, Славянск-на-Кубани",www.sberbank.ru,"'mon': выходной, 'tue': 08:00-17:00, 'wed': 08:00-17:00, 'thu': 08:00-17:00, 'fri': 08:00-17:00, 'sat': 08:00-17:00, 'sun': выходной, ",45.259247,38.132730,"4,5",['8 (800) 555-55-50Показать телефон'],"['http://ok.ru/sberbank', 'https://vk.com/sberbank']",84,76,56,2024-08-06 07:18:10
3,sberbank/7384130557,СберБанк,"Красная ул., 68, Славянск-на-Кубани",,"'mon': 08:00-17:00, 'tue': 08:00-17:00, 'wed': 08:00-17:00, 'thu': 08:00-17:00, 'fri': 08:00-15:45, 'sat': выходной, 'sun': выходной, ",45.255561,38.115194,"4,6",['8 (800) 555-55-50Показать телефон'],"['http://ok.ru/sberbank', 'https://vk.com/sberbank']",88,73,,2024-08-06 07:18:10
4,sberbank/5667315644,СберБанк,"ул. Ленина, 161, хутор Трудобеликовский",www.sberbank.ru,"'mon': выходной, 'tue': 08:00-16:10, 'wed': 08:00-16:10, 'thu': 08:00-16:10, 'fri': 08:00-16:10, 'sat': выходной, 'sun': выходной, ",45.267583,38.158520,"4,3",['8 (800) 555-55-50Показать телефон'],"['http://ok.ru/sberbank', 'https://vk.com/sberbank']",,,,2024-08-06 07:18:10
5,sberbank/229453817981,СберБанк,"Школьная ул., 607, посёлок Совхозный",www.sberbank.ru,"'mon': выходной, 'tue': выходной, 'wed': выходной, 'thu': выходной, 'fri': выходной, 'sat': выходной, 'sun': выходной, ",45.284168,38.112077,"3,4",['8 (800) 555-55-50Показать телефон'],['https://vk.com/sberbank'],,,,2024-08-06 07:18:10
