,ID,name,address,website,opening_hours,lat,lon,rating,phone,social,Персонал,Время ожидания,Расположение,load_time
0,sberbank/83164945433,СберБанк,"просп. Ленина, 33, Ухта",www.sberbank.com,"'mon': 09:00-18:30, 'tue': 09:00-18:30, 'wed': 09:00-18:30, 'thu': 09:00-18:30, 'fri': 09:00-18:30, 'sat': 10:00-15:00, 'sun': выходной, ",63.565433,53.669200,"4,3",['8 (800) 555-55-50Показать телефон'],"['http://ok.ru/sberbank', 'https://vk.com/sberbank']",81,65,100,2024-07-29 21:42:00
1,sberbank/1074053712,СберБанк,"просп. Ленина, 75, Ухта",www.sberbank.com,"'mon': 09:00-18:30, 'tue': 09:00-18:30, 'wed': 09:00-18:30, 'thu': 09:00-18:30, 'fri': 09:00-18:30, 'sat': 09:00-14:30, 'sun': выходной, ",63.571940,53.644874,"4,5",['8 (800) 555-55-50Показать телефон'],"['http://ok.ru/sberbank', 'https://vk.com/sberbank']",70,75,,2024-07-29 21:42:00
2,sberbank/57496000753,СберБанк,"ул. 30 лет Октября, 5, Ухта",www.sberbank.com,"'mon': 09:00-18:00, 'tue': 09:00-18:00, 'wed': 09:00-18:00, 'thu': 09:00-18:00, 'fri': 09:00-18:00, 'sat': 10:00-14:30, 'sun': выходной, ",63.563467,53.690319,"4,3",['8 (800) 555-55-50Показать телефон'],['https://vk.com/sberbank'],,,,2024-07-29 21:42:00
3,sberbank/1169781455,СберБанк,"ул. Зои Космодемьянской, 2А, Сосногорск",www.sberbank.com,"'mon': 09:00-17:00, 'tue': 09:00-17:00, 'wed': 09:00-17:00, 'thu': 09:00-17:00, 'fri': 09:00-17:00, 'sat': 10:00-14:00, 'sun': выходной, ",63.603858,53.865015,"4,3",['8 (800) 555-55-50Показать телефон'],"['http://ok.ru/sberbank', 'https://vk.com/sberbank']",95,71,,2024-07-29 21:42:00
4,sberbank/1263305007,СберБанк,"Кольцевой пр., 2, п. г. т. Шудаяг",www.sberbank.com,"'mon': 10:00-18:00, 'tue': 10:00-18:00, 'wed': выходной, 'thu': 10:00-17:42, 'fri': 10:00-18:00, 'sat': выходной, 'sun': выходной, ",63.524306,53.603488,"3,7",['8 (800) 555-55-50Показать телефон'],"['http://ok.ru/sberbank', 'https://vk.com/sberbank']",,,,2024-07-29 21:42:00
5,sberbank/1384260208,СберБанк,"18/1, 6-й микрорайон, Сосногорск",www.sberbank.com,"'mon': 09:00-17:30, 'tue': 09:00-17:30, 'wed': 09:00-17:30, 'thu': выходной, 'fri': 09:00-17:30, 'sat': 09:30-14:00, 'sun': выходной, ",63.589290,53.915248,"3,9",['8 (800) 555-55-50Показать телефон'],"['http://ok.ru/sberbank', 'https://vk.com/sberbank']",,,,2024-07-29 21:42:00
6,sberbank/1257063904,СберБанк,"Пионерская ул., 11, Сосногорск",www.sberbank.com,"'mon': 09:00-18:00, 'tue': 09:00-18:00, 'wed': 09:00-18:00, 'thu': 09:00-18:00, 'fri': выходной, 'sat': выходной, 'sun': 10:00-14:00, ",63.591006,53.934283,"4,7",['8 (800) 555-55-50Показать телефон'],"['http://ok.ru/sberbank', 'https://vk.com/sberbank']",,,,2024-07-29 21:42:00
7,sberbank/173861342655,СберБанк,"Центральная ул., 4, село Усть-Ухта",www.sberbank.com,"'mon': 09:00-15:30, 'tue': выходной, 'wed': 09:00-15:30, 'thu': выходной, 'fri': 09:00-15:30, 'sat': выходной, 'sun': выходной, ",63.615101,53.887355,"4,2",['8 (800) 555-55-50Показать телефон'],"['http://ok.ru/sberbank', 'https://vk.com/sberbank']",,,,2024-07-29 21:42:00
