ID,name,address,website,opening_hours,ypage,lat,lon,rating,phone,social
1126609370,СберБанк,"ул. Кондаурова, 63, Азов",,,,47.09518,39.431034,"4,3",,
1238009004,СберБанк,"Петровский бул., 7, Азов",,,,47.110514,39.421508,"4,7",,
1198153462,СберБанк,"ул. Васильева, 89, Азов",,,,47.104022,39.409248,"4,5",,
1000764721,СберБанк,"ул. Ленина, 68, Азов",,,,47.105548,39.426207,"4,4",,
1105416746,СберБанк,"ул. Дзержинского, 8, село Кагальник",,,,47.075234,39.327345,"4,1",,
1175986173,СберБанк,"Октябрьский пер., 15, село Пешково",,,,47.018756,39.398564,"4,0",,
169140681316,СберБанк,"пер. Матросова, 11, село Кулешовка",,,,47.078671,39.536445,"3,5",,
