ID,name,address,website,opening_hours,ypage,lat,lon,rating,phone,social
1144406334,СберБанк,"ул. Ленина, 1А, Альметьевск",,,,54.903859,52.314914,"4,3",,
1049058616,СберБанк,"Советская ул., 153А, Альметьевск",,,,54.911683,52.324505,"4,6",,
47303004126,СберБанк,"ул. Ленина, 16, Альметьевск",,,,54.904536,52.30709,"4,6",,
1240539904,СберБанк,"ул. Ленина, 117, Альметьевск",,,,54.898247,52.27121,"4,5",,
1262293538,СберБанк,"ул. Ленина, 122, Альметьевск",,,,54.903372,52.261621,"4,5",,
1097685356,СберБанк,"ул. Ленина, 201, Альметьевск",,,,54.906757,52.251748,"4,8",,
1102972497,СберБанк,"ул. Гафиатуллина, 8, Альметьевск",,,,54.906389,52.281484,"4,4",,
1208171302,СберБанк,"Заводская ул., 16, п. г. т. Нижняя Мактама",,,,54.867596,52.433046,"4,1",,
