ID,name,address,website,opening_hours,ypage,lat,lon,rating,phone,social
1340405228,СберБанк,"просп. Ленина, 166, Арзамас",,,,55.397163,43.830814,"4,7",,
1060063480,СберБанк,"просп. Ленина, 125, Арзамас",,,,55.401687,43.833678,"4,6",,
1038762954,СберБанк,"ул. Мира, 7, Арзамас",,,,55.406451,43.841801,"4,6",,
1034626291,СберБанк,"ул. Мучной Ряд, 1, Арзамас",,,,55.385647,43.816054,"4,3",,
130416583089,СберБанк,"Зелёная ул., 40/1, Арзамас",,,,55.417897,43.812534,"4,7",,
1169023726,СберБанк,"ул. Куликова, 1В, рабочий посёлок Выездное",,,,55.381158,43.77574,"3,8",,
237171228720,СберБанк,"площадь 1 Мая, 26, село Красное",,,,55.397327,43.743462,"3,9",,
