ID,name,address,website,opening_hours,ypage,lat,lon,rating,phone,social
1213474891,СберБанк,"Привокзальная ул., 1, Балашов",,,,51.535463,43.158793,"4,5",,
1058911372,СберБанк,"ул. Строителей, 9, Балашов",,,,51.556022,43.208015,"4,7",,
15584478221,СберБанк,"ул. Володарского, 39, Балашов",,,,51.554071,43.145307,"4,6",,
1030232513,СберБанк,"ул. Гагарина, 59, Балашов",,,,51.549191,43.149945,"4,8",,
147880154770,СберБанк,"Почтовая ул., 1В, рабочий посёлок Пинеровка",,,,51.557328,43.069448,"3,6",,
