ID,name,address,website,opening_hours,ypage,lat,lon,rating,phone,social
1047129550,СберБанк,"ул. Энгельса, 9, Балахна",,,,56.490983,43.608348,"4,6",,
1027317035,СберБанк,"ул. Горького, 28, Балахна",,,,56.522034,43.550271,"4,5",,
1098522803,СберБанк,"Юбилейная ул., 5, рабочий посёлок Гидроторф",,,,56.462501,43.5403,"2,0",,
1691101842,СберБанк,"ул. Победы, 22, рабочий посёлок Лукино",,,,56.438159,43.623169,"4,0",,
206802093764,СберБанк,"ул. Генерала Маргелова, 60, д. Истомино",,,,56.529263,43.461572,"2,8",,
1172013745,СберБанк,"Садовая ул., 28, рабочий посёлок Первое Мая",,,,56.416381,43.651125,"3,9",,
181891654232,СберБанк,"39, сельский посёлок Совхозный",,,,56.563924,43.484407,"4,1",,
1114768106,СберБанк,"Пионерская ул., 2, рабочий посёлок Большое Козино",,,,56.406431,43.716235,"2,9",,
