ID,name,address,website,opening_hours,ypage,lat,lon,rating,phone,social
232499656275,СберБанк,"Красная ул., 65, Белореченск",,,,44.764954,39.868159,"4,4",,
111051221682,СберБанк,"ул. Гоголя, 51, Белореченск",,,,44.757229,39.870094,"4,7",,
182316380645,Сбербанк,"ул. Ленина, 165, Белореченск",,,,44.770916,39.86282,"4,3",,
2706468686,СберБанк,"ул. Гоголя, 51, Белореченск",,,,44.75724,39.870109,"4,4",,
1106695003,СберБанк,"Центральная ул., 6/1, посёлок Родники",,,,44.752103,39.905994,"3,8",,
91237001218,СберБанк,"Мостовая ул., 17, станица Пшехская",,,,44.695931,39.80258,"4,0",,
