,ID,name,address,website,opening_hours,lat,lon,rating,phone,social,Обслуживание,Отношение к клиентам,Персонал,Время ожидания,Банкомат,Расположение,Ипотека,Кредит,График работы
0,157260844601,СберБанк,"ул. Брянского Фронта, 4, Брянск",www.sberbank.ru,"'mon': выходной, 'tue': выходной, 'wed': выходной, 'thu': выходной, 'fri': выходной, 'sat': выходной, 'sun': выходной",53.258147,34.324540,"4,7",['8 (800) 555-55-50Показать телефон'],"['http://ok.ru/sberbank', 'https://vk.com/sberbank']",75,75,78,66,,,,,
1,1010691698,СберБанк,"Авиационная ул., 6, Брянск",www.sberbank.ru,"'mon': 09:00-19:00, 'tue': 09:00-19:00, 'wed': 09:00-19:00, 'thu': 09:00-19:00, 'fri': 09:00-19:00, 'sat': 09:00-19:00, 'sun': выходной",53.256569,34.328371,"4,5",['8 (800) 555-55-50Показать телефон'],"['http://ok.ru/sberbank', 'https://vk.com/sberbank']",86,83,86,68,60,93,,,
2,1071685052,СберБанк,"городской округ Брянск, Бежицкий район, Харьковская улица, 4",www.sberbank.ru,"'mon': 09:00-19:00, 'tue': 09:00-19:00, 'wed': 09:00-19:00, 'thu': 09:00-19:00, 'fri': 09:00-19:00, 'sat': 09:00-19:00, 'sun': выходной",53.306416,34.307739,"4,7",['8 (800) 555-55-50Показать телефон'],"['http://ok.ru/sberbank', 'https://vk.com/sberbank']",83,85,85,74,63,80,,,
3,1575342368,СберБанк,"просп. Ленина, 10Б, Брянск",www.sberbank.ru,"'mon': 09:00-19:00, 'tue': 09:00-19:00, 'wed': 09:00-19:00, 'thu': 09:00-19:00, 'fri': 09:00-19:00, 'sat': 09:00-19:00, 'sun': выходной",53.236979,34.358693,"4,7",['8 (800) 555-55-50Показать телефон'],"['https://ok.ru/sberbank', 'https://vk.com/sberbank']",78,74,78,65,70,67,55,,
4,1107944464,СберБанк,"просп. Ленина, 70, Брянск",www.sberbank.ru,"'mon': 09:00-18:30, 'tue': 09:00-18:30, 'wed': 09:00-18:30, 'thu': 09:00-18:30, 'fri': 09:00-18:30, 'sat': 09:00-18:30, 'sun': выходной",53.250091,34.372859,"4,7",['8 (800) 555-55-50Показать телефон'],"['http://ok.ru/sberbank', 'https://vk.com/sberbank']",88,86,87,76,,,54,42,
5,98365651255,СберБанк,"ул. Ульянова, 127, Брянск",www.sberbank.ru,"'mon': 09:00-18:30, 'tue': 09:00-18:30, 'wed': 09:00-18:30, 'thu': 09:00-18:30, 'fri': 09:00-18:30, 'sat': 09:00-18:30, 'sun': выходной",53.314999,34.279769,"4,9",['8 (800) 555-55-50Показать телефон'],"['http://ok.ru/sberbank', 'https://vk.com/sberbank']",88,83,88,88,67,,,,
6,1127934703,СберБанк,"просп. Станке Димитрова, 57, Брянск",www.sberbank.ru,"'mon': 09:00-18:30, 'tue': 09:00-18:30, 'wed': 09:00-18:30, 'thu': 09:00-18:30, 'fri': 09:00-18:30, 'sat': 09:00-18:30, 'sun': выходной",53.231627,34.323862,"4,8",['8 (800) 555-55-50Показать телефон'],"['http://ok.ru/sberbank', 'https://vk.com/sberbank']",89,84,91,77,67,89,,,
7,1051124937,СберБанк,"бул. Гагарина, 23, Брянск",www.sberbank.ru,"'mon': 09:30-19:00, 'tue': 09:30-19:00, 'wed': 09:30-19:00, 'thu': 09:30-19:00, 'fri': 09:30-19:00, 'sat': 09:30-19:00, 'sun': выходной",53.243982,34.361272,"4,5",['8 (800) 555-55-50Показать телефон'],"['http://ok.ru/sberbank', 'https://vk.com/sberbank']",78,75,83,52,36,,,,
8,1041363014,СберБанк,"Волгоградский пер., 2, Брянск",www.sberbank.ru,"'mon': 09:00-18:00, 'tue': 09:00-18:00, 'wed': 09:00-18:00, 'thu': 09:00-18:00, 'fri': 09:00-18:00, 'sat': 09:00-18:00, 'sun': выходной",53.263254,34.411064,"4,4",['8 (800) 555-55-50Показать телефон'],"['http://ok.ru/sberbank', 'https://vk.com/sberbank']",78,81,88,44,30,63,,,7
9,1041240868,СберБанк,"ул. 3-го Интернационала, 1, Брянск",www.sberbank.ru,"'mon': 08:30-18:30, 'tue': 08:30-18:30, 'wed': 08:30-18:30, 'thu': 08:30-18:30, 'fri': 08:30-18:30, 'sat': 08:30-18:30, 'sun': выходной",53.312414,34.306938,"4,6",['8 (800) 555-55-50Показать телефон'],"['http://ok.ru/sberbank', 'https://vk.com/sberbank']",84,86,93,55,58,90,,,
10,243461958672,СберБанк,"ул. Пушкина, 81, Брянск",www.sberbank.ru,"'mon': 09:00-18:30, 'tue': 09:00-18:30, 'wed': 09:00-18:30, 'thu': 09:00-18:30, 'fri': 09:00-18:30, 'sat': 09:00-18:30, 'sun': выходной",53.275628,34.397274,"4,6",['8 (800) 555-55-50Показать телефон'],"['http://ok.ru/sberbank', 'https://vk.com/sberbank']",89,84,91,63,42,,,,
11,1055860179,СберБанк,"Литейная ул., 50А, Брянск",www.sberbank.ru,"'mon': 09:00-19:00, 'tue': 09:00-19:00, 'wed': 09:00-19:00, 'thu': 09:00-19:00, 'fri': 09:00-19:00, 'sat': 09:00-19:00, 'sun': выходной",53.327481,34.284512,"4,8",['8 (800) 555-55-50Показать телефон'],"['http://ok.ru/sberbank', 'https://vk.com/sberbank']",79,83,86,59,67,95,,,
12,195992495376,СберБанк,"ул. Чернышевского, 72Б, Брянск",www.sberbank.ru,"'mon': 09:00-18:30, 'tue': 09:00-18:30, 'wed': 09:00-18:30, 'thu': 09:00-18:30, 'fri': 09:00-18:30, 'sat': 09:00-18:30, 'sun': выходной",53.252544,34.442619,"4,8",['8 (800) 555-55-50Показать телефон'],"['http://ok.ru/sberbank', 'https://vk.com/sberbank']",90,87,92,78,87,94,,,
13,1131019412,СберБанк,"Московский просп., 81/1, Брянск",www.sberbank.ru,"'mon': 09:00-18:30, 'tue': 09:00-18:30, 'wed': 09:00-18:30, 'thu': 09:00-18:30, 'fri': 09:00-18:30, 'sat': 09:00-18:30, 'sun': выходной",53.213710,34.427445,"4,6",['8 (800) 555-55-50Показать телефон'],"['http://ok.ru/sberbank', 'https://vk.com/sberbank']",85,84,87,88,86,88,,,
14,1028972561,СберБанк,"Киевская ул., 3А, Брянск",www.sberbank.ru,"'mon': выходной, 'tue': выходной, 'wed': выходной, 'thu': выходной, 'fri': выходной, 'sat': выходной, 'sun': выходной",53.215581,34.398801,"4,7",['8 (800) 555-55-50Показать телефон'],"['http://ok.ru/sberbank', 'https://vk.com/sberbank']",90,88,90,92,78,,,,
15,1052399389,СберБанк,"Почтовая ул., 108, Брянск",www.sberbank.ru,"'mon': 09:00-18:00, 'tue': 09:00-18:00, 'wed': 09:00-18:00, 'thu': 09:00-18:00, 'fri': 09:00-18:00, 'sat': 09:00-18:00, 'sun': выходной",53.342226,34.310784,"4,7",['8 (800) 555-55-50Показать телефон'],"['http://ok.ru/sberbank', 'https://vk.com/sberbank']",80,80,81,56,58,,,,
16,6199076543,СберБанк,"просп. Ленина, 10Б, Брянск",www.sberbank.ru,"'mon': 09:00-18:00, 'tue': 09:00-18:00, 'wed': 09:00-18:00, 'thu': 09:00-18:00, 'fri': 09:00-18:00, 'sat': выходной, 'sun': выходной",53.237014,34.358826,"4,3",['8 (800) 555-55-50Показать телефон'],['https://vk.com/sberbank'],,,,,,,,,
17,1041435438,СберБанк,"Выставочная ул., 2, посёлок Мичуринский",www.sberbank.ru,"'mon': выходной, 'tue': выходной, 'wed': выходной, 'thu': выходной, 'fri': выходной, 'sat': выходной, 'sun': выходной",53.274713,34.234642,"1,1",['8 (800) 555-55-50Показать телефон'],"['http://ok.ru/sberbank', 'https://vk.com/sberbank']",,,,,,,,,
18,92814075528,СберБанк,"Молодёжная ул., 1А, д. Добрунь",www.sberbank.ru,"'mon': выходной, 'tue': 09:00-13:00,13:30-16:05, 'wed': выходной, 'thu': 09:00-13:00,13:30-16:05, 'fri': выходной, 'sat': выходной, 'sun': выходной",53.190899,34.238389,"3,1",['8 (800) 555-55-50Показать телефон'],['https://vk.com/sberbank'],,,,,,,,,
19,1122378814,СберБанк,"ул. Кирова, 43, Сельцо",www.sberbank.ru,"'mon': 09:00-18:00, 'tue': 09:00-18:00, 'wed': 09:00-18:00, 'thu': 09:00-18:00, 'fri': 09:00-18:00, 'sat': 09:00-18:00, 'sun': выходной",53.370995,34.105214,"4,2",['8 (800) 555-55-50Показать телефон'],"['http://ok.ru/sberbank', 'https://vk.com/sberbank']",65,79,80,,,,,,
20,1098063558,СберБанк,"ул. П.М. Яшенина, 10, село Глинищево",www.sberbank.ru,"'mon': 08:45-13:00,13:30-16:40, 'tue': 08:45-13:00,13:30-16:40, 'wed': 08:45-13:00,13:30-16:40, 'thu': выходной, 'fri': 08:45-13:00,13:30-16:40, 'sat': 08:45-14:15, 'sun': выходной",53.301735,34.085855,"2,7",['8 (800) 555-55-50Показать телефон'],"['http://ok.ru/sberbank', 'https://vk.com/sberbank']",,,,,,,,,
21,1086728936,СберБанк,"Советская ул., 4, село Кокино",www.sberbank.ru,"'mon': 09:00-13:00,13:30-15:15, 'tue': выходной, 'wed': 09:00-13:00,13:30-15:15, 'thu': выходной, 'fri': 09:00-13:00,13:30-15:15, 'sat': 09:00-13:00,13:30-15:00, 'sun': выходной",53.157948,34.120628,"4,2",['8 (800) 555-55-50Показать телефон'],['https://vk.com/sberbank'],,,,,,,,,
22,1001655423,СберБанк,"ул. Карла Маркса, 1, Фокино",www.sberbank.ru,"'mon': выходной, 'tue': 08:30-13:00,13:30-17:00, 'wed': 08:30-13:00,13:30-17:00, 'thu': 08:30-13:00,13:30-17:00, 'fri': 08:30-13:00,13:30-17:00, 'sat': 08:30-14:00, 'sun': выходной",53.415526,34.375220,"4,1",['8 (800) 555-55-50Показать телефон'],"['http://ok.ru/sberbank', 'https://vk.com/sberbank']",,,,,,,,,
23,1056191036,СберБанк,"ул. Ломоносова, 1, рабочий посёлок Выгоничи",www.sberbank.ru,"'mon': 08:30-17:30, 'tue': 08:30-17:30, 'wed': 08:30-17:30, 'thu': 08:30-17:30, 'fri': 08:30-17:30, 'sat': 08:30-17:30, 'sun': выходной",53.103725,34.063594,"4,6",['8 (800) 555-55-50Показать телефон'],"['http://ok.ru/sberbank', 'https://vk.com/sberbank']",100,100,100,,,,,,
