ID,name,address,website,opening_hours,ypage,lat,lon,rating,phone,social
1169971264,СберБанк,"Красноармейская ул., 3, Верхняя Пышма",,,,56.968276,60.581718,"4,3",,
29999320507,СберБанк,"Успенский просп., 125, Верхняя Пышма",,,,56.979954,60.548243,"4,7",,
1200019166,СберБанк,"Набережная ул., 4А, село Балтым",,,,57.00178,60.604939,"3,3",,
1255131318,СберБанк,"ул. Кирова, 7, Среднеуральск",,,,56.984571,60.465938,"4,4",,
1616878275,СберБанк,"просп. Космонавтов, 47Д, Екатеринбург",,,,56.903052,60.613157,"4,7",,
1148235401,СберБанк,"ул. Победы, 34, Екатеринбург",,,,56.898848,60.600731,"4,5",,
93330341415,СберБанк,"ул. Красных Командиров, 29, Екатеринбург",,,,56.897672,60.628143,"4,7",,
159973554104,СберБанк,"просп. Космонавтов, 23А, Екатеринбург",,,,56.888345,60.61252,"4,6",,
39823245362,СберБанк,"просп. Орджоникидзе, 20, Екатеринбург",,,,56.896012,60.589801,"4,5",,
