ID,name,address,website,opening_hours,ypage,lat,lon,rating,phone,social
1051204381,СберБанк,"ул. Юрия Гагарина, 25, Волхов",,,,59.928248,32.307361,"4,5",,
213541145934,СберБанк,"ул. Александра Лукьянова, 9, Волхов",,,,59.899875,32.353139,"4,4",,
10109279129,СберБанк,"ул. Мичурина, 1Б, Волхов",,,,59.889906,32.354295,"4,6",,
1085785343,СберБанк,"Советская ул., 3, село Старая Ладога",,,,60.004191,32.289278,"3,1",,
1133007607,СберБанк,"Центральная ул., 5А, д. Кисельня",,,,60.006017,32.143903,"3,0",,
1084142746,СберБанк,"Школьная ул., 1А, д. Вындин Остров",,,,59.812125,32.354128,"3,8",,
