ID,name,address,website,opening_hours,ypage,lat,lon,rating,phone,social
1072259736,СберБанк,"Комсомольская ул., 191, Вольск",,,,52.052851,47.367868,"4,7",,
1010067349,СберБанк,"ул. Пугачёва, 45, Вольск",,,,52.039512,47.388893,"4,8",,
1056562010,СберБанк,"Октябрьская ул., 112А, Вольск",,,,52.040838,47.392466,"4,6",,
1239347353,СберБанк,"Школьная ул., 7, Шиханы",,,,52.11207,47.192338,"4,1",,
73100673171,СберБанк,"ул. Ленина, 6, село Терса",,,,52.078464,47.533401,"4,2",,
221197814125,СберБанк,"Краснознамённая ул., 475, посёлок Шиханы-2",,,,52.104332,47.154833,"3,8",,
