ID,name,address,website,opening_hours,ypage,lat,lon,rating,phone,social
1123251911,СберБанк,"ул. Красные Зори, 7А, Выкса",,,,55.320452,42.167265,"4,4",,
43296375779,СберБанк,"ул. Островского, 33, Выкса",,,,55.328512,42.169032,"4,4",,
1141239721,СберБанк,"6Г, микрорайон Жуковского, Выкса",,,,55.334926,42.201694,"4,4",,
32254976731,СберБанк,"Футбольная ул., 8, рабочий посёлок Ближне-Песочное",,,,55.347546,42.082218,,,
68544833184,СберБанк,"27, микрорайон Дружба, сельский посёлок Дружба",,,,55.418374,42.179639,"3,6",,
229298743579,СберБанк,"площадь Культуры, 8, рабочий посёлок Виля",,,,55.241755,42.210012,"2,4",,
1109932050,СберБанк,"13А, микрорайон Приокский, рабочий посёлок Досчатое",,,,55.404744,42.10595,"3,6",,
1034411720,СберБанк,"ул. Ленина, 5А, рабочий посёлок Шиморское",,,,55.325221,42.009184,"4,0",,
