ID,name,address,website,opening_hours,ypage,lat,lon,rating,phone,social
1559911312,СберБанк,"ул. Пушкина, 51А, Георгиевск",,,,44.152708,43.469057,"4,7",,
1222617609,СберБанк,"ул. Калинина, 11, Георгиевск",,,,44.146197,43.472073,"4,9",,
1084901637,СберБанк,"ул. Салогубова, 12, Георгиевск",,,,44.128718,43.449316,"4,8",,
1082936832,СберБанк,"Трудовая ул., 1, село Краснокумское",,,,44.16939,43.498906,"3,6",,
1021153161,СберБанк,"ул. Ленина, 224А, станица Незлобная",,,,44.116101,43.40832,"4,3",,
159851594697,СберБанк,"пер. Милозовского, 16, станица Георгиевская",,,,44.110296,43.484883,"4,2",,
