ID,name,address,website,opening_hours,ypage,lat,lon,rating,phone,social
23266263667,СберБанк,"Севастопольская ул., 2Б, Губкин",,,,51.282501,37.522868,"4,7",,
1088542674,СберБанк,"ул. Мира, 20, Губкин",,,,51.283633,37.533653,"4,3",,
1257544044,СберБанк,"ул. Королёва, 14А, Губкин",,,,51.274457,37.509933,"4,5",,
1108158428,СберБанк,"ул. Дзержинского, 80, Губкин",,,,51.285308,37.525412,"4,4",,
43330986426,СберБанк,"3, микрорайон Лебединец, Старый Оскол",,,,51.285611,37.799921,"4,6",,
1183349759,СберБанк,"15, микрорайон Горняк, Старый Оскол",,,,51.287224,37.814236,"4,7",,
1016298483,СберБанк,"ул. Натальи Лихачёвой, 15, село Федосеевка",,,,51.353772,37.800371,"3,9",,
