ID,name,address,website,opening_hours,ypage,lat,lon,rating,phone,social
1161485299,СберБанк,"ул. Гагарина, 6, Димитровград",,,,54.217286,49.622747,"4,5",,
193268070421,СберБанк,"ул. М. Тореза, 8, Димитровград",,,,54.235001,49.562004,"4,5",,
1070319644,СберБанк,"ул. Куйбышева, 257, Димитровград",,,,54.228554,49.611164,"4,6",,
1120937600,СберБанк,"Западная ул., 11, Димитровград",,,,54.206024,49.600397,"4,3",,
1002778585,СберБанк,"Свирская ул., 2Г, Димитровград",,,,54.212125,49.588044,"4,6",,
1111591507,СберБанк,"ул. Куйбышева, 36А, Димитровград",,,,54.201164,49.632047,"4,3",,
