ID,name,address,website,opening_hours,ypage,lat,lon,rating,phone,social
128390905174,СберБанк,"ул. Ленина, 16, Железногорск",,,,52.327991,35.360683,"4,7",,
150725932708,СберБанк,"ул. Гайдара, 5, Железногорск",,,,52.340776,35.352355,"4,7",,
1263856196,СберБанк,"ул. Димитрова, 14, корп. 1, Железногорск",,,,52.350101,35.359041,"4,5",,
1086398648,СберБанк,"ул. Ленина, 56, Железногорск",,,,52.342786,35.348765,"4,4",,
1093458342,СберБанк,"ул. Ленина, 90А, Железногорск",,,,52.358743,35.342963,"4,7",,
1129844570,СберБанк,"ул. Ленина, 56, Железногорск",,,,52.342793,35.348749,"4,3",,
218147126023,СберБанк,"Советская ул., 2А, д. Студенок",,,,52.35563,35.312433,"2,4",,
61134140649,СберБанк,"Советская ул., 163, слобода Михайловка",,,,52.227385,35.372979,"3,9",,
1213378068,СберБанк,"Железнодорожная ул., 1, рабочий посёлок Магнитный",,,,52.432052,35.553487,"3,4",,
