ID,name,address,website,opening_hours,ypage,lat,lon,rating,phone,social
1114990316,СберБанк,"ул. Комарова, 23, Зеленодольск",,,,55.857407,48.563616,"4,4",,
1101618506,СберБанк,"Столичная ул., 18А, Зеленодольск",,,,55.851282,48.564461,"4,4",,
1020962258,СберБанк,"ул. Ленина, 70, Зеленодольск",,,,55.845592,48.524872,"4,5",,
1120255562,СберБанк,"Школьная ул., 10И, село Айша",,,,55.870324,48.631016,"4,0",,
1830723681,СберБанк,"Спортивная ул., 18, п. г. т. Васильево",,,,55.835049,48.662411,"4,4",,
1015074699,СберБанк,"Школьная ул., 25, п. г. т. Васильево",,,,55.830023,48.687287,"4,3",,
94526176797,СберБанк,"ул. Татарстан, 10, Зеленодольск",,,,55.848516,48.501818,"4,4",,
1084877492,СберБанк,"Паратская ул., 13, Зеленодольск",,,,55.85195,48.488768,"4,3",,
215252238175,СберБанк,"Первомайская ул., 2, посёлок Октябрьский",,,,55.831757,48.800601,"3,0",,
