ID,name,address,website,opening_hours,ypage,lat,lon,rating,phone,social
1248670065,СберБанк,"просп. имени Ю.А. Гагарина, 1-я линия, 12А, Златоуст",,,,55.147737,59.669767,"4,4",,
53127490436,СберБанк,"43, 3-й микрорайон проспекта имени Ю.А. Гагарина, Златоуст",,,,55.138188,59.668226,"4,5",,
1243311186,СберБанк,"просп. Мира, 22А, Златоуст",,,,55.11348,59.708133,"4,3",,
1049012994,СберБанк,"ул. 40-летия Победы, 26, Златоуст",,,,55.125859,59.719609,"4,5",,
131303603282,СберБанк,"43, 3-й микрорайон проспекта имени Ю.А. Гагарина, Златоуст",,,,55.138262,59.668301,"4,3",,
1074991395,СберБанк,"ул. Ленина, 14, Златоуст",,,,55.173122,59.66564,"4,3",,
1178520862,СберБанк,"ул. Аносова, 178, Златоуст",,,,55.199051,59.715918,"4,4",,
1013631384,СберБанк,"ул. Карла Маркса, 26, Златоуст",,,,55.180012,59.654285,"4,3",,
1083932789,СберБанк,"ул. Строителей, 13, Златоуст",,,,55.184498,59.638046,"4,1",,
