ID,name,address,website,opening_hours,ypage,lat,lon,rating,phone,social
1103571858,СберБанк,"4, микрорайон Подгорный, Искитим",,,,54.631641,83.288271,"4,4",,
97325586759,СберБанк,"Советская ул., 201, Искитим",,,,54.643613,83.308382,"4,5",,
1105480747,СберБанк,"Нагорная ул., 9, Искитим",,,,54.57553,83.328184,"4,8",,
1022787468,СберБанк,"Кооперативная ул., 1, посёлок Чернореченский",,,,54.652319,83.28025,"3,6",,
1078425207,СберБанк,"Коммунистический просп., 5, рабочий поселок Линёво",,,,54.458296,83.378014,"4,3",,
1013075429,СберБанк,"ул. Гагарина, 38А, станция Евсино",,,,54.509972,83.339961,"2,7",,
