,ID,name,address,website,opening_hours,lat,lon,rating,phone,social,Обслуживание,Отношение к клиентам,Персонал,Время ожидания,Банкомат,Расположение
0,1207523189,СберБанк,"2, микрорайон 60 лет Октября, Каменск-Шахтинский",www.sberbank.ru,"'mon': 08:30-17:30, 'tue': 08:30-17:30, 'wed': 08:30-17:30, 'thu': 08:30-17:30, 'fri': 08:30-17:30, 'sat': 08:30-17:30, 'sun': выходной",48.303934,40.297408,"4,8",['8 (800) 555-55-50Показать телефон'],"['http://ok.ru/sberbank', 'https://vk.com/sberbank']",76,69,79,53,85,
1,1109847271,СберБанк,"просп. Карла Маркса, 54, Каменск-Шахтинский",www.sberbank.ru,"'mon': 08:30-17:30, 'tue': 08:30-17:30, 'wed': 08:30-17:30, 'thu': 08:30-17:30, 'fri': 08:30-17:30, 'sat': 08:30-17:30, 'sun': выходной",48.322609,40.269387,"4,7",['8 (800) 555-55-50Показать телефон'],"['http://ok.ru/sberbank', 'https://vk.com/sberbank']",94,92,95,78,,
2,1039895010,СберБанк,"просп. Карла Маркса, 9, Каменск-Шахтинский",www.sberbank.ru,"'mon': 08:30-17:30, 'tue': 08:30-17:30, 'wed': 08:30-17:30, 'thu': 08:30-17:30, 'fri': 08:30-17:30, 'sat': 08:30-17:30, 'sun': выходной",48.331967,40.274116,"4,7",['8 (800) 555-55-50Показать телефон'],"['http://ok.ru/sberbank', 'https://vk.com/sberbank']",83,79,83,79,,
3,1040566298,СберБанк,"просп. Карла Маркса, 70, Каменск-Шахтинский",www.sberbank.ru,"'mon': 08:30-17:30, 'tue': 08:30-17:30, 'wed': 08:30-17:30, 'thu': 08:30-17:30, 'fri': 08:30-17:30, 'sat': 08:30-17:30, 'sun': выходной",48.316502,40.266926,"4,4",['8 (800) 555-55-50Показать телефон'],"['http://ok.ru/sberbank', 'https://vk.com/sberbank']",74,78,76,27,,
4,1035423418,СберБанк,"Коммунистический пер., 82, Каменск-Шахтинский",www.sberbank.ru,"'mon': 08:30-17:30, 'tue': 08:30-17:30, 'wed': 08:30-17:30, 'thu': 08:30-17:30, 'fri': 08:30-17:30, 'sat': 08:30-17:30, 'sun': выходной",48.324342,40.261965,"4,7",['8 (800) 555-55-50Показать телефон'],"['http://ok.ru/sberbank', 'https://vk.com/sberbank']",93,91,92,86,,90
5,1091911030,СберБанк,"ул. Будённого, 101, хутор Старая Станица",www.sberbank.ru,"'mon': выходной, 'tue': 09:00-13:00,13:40-17:00, 'wed': 09:00-13:00,13:40-17:00, 'thu': 09:00-13:00,13:40-17:00, 'fri': 09:00-13:00,13:40-17:00, 'sat': 09:00-12:30, 'sun': выходной",48.347007,40.287096,"4,3",['8 (800) 555-55-50Показать телефон'],"['http://ok.ru/sberbank', 'https://vk.com/sberbank']",100,100,100,82,,
6,1076212125,СберБанк,"Советская ул., 19, микрорайон Лиховской, Каменск-Шахтинский",www.sberbank.ru,"'mon': 08:30-17:30, 'tue': 08:30-17:30, 'wed': 08:30-17:30, 'thu': 08:30-17:30, 'fri': 08:30-17:30, 'sat': 08:30-17:30, 'sun': выходной",48.156095,40.202811,"4,3",['8 (800) 555-55-50Показать телефон'],"['http://ok.ru/sberbank', 'https://vk.com/sberbank']",71,69,75,35,,
