ID,name,address,website,opening_hours,ypage,lat,lon,rating,phone,social
121315211464,СберБанк,"Зелёная ул., 24, Кстово",,,,56.146263,44.178268,"4,3",,
1009694740,СберБанк,"площадь Мира, 3, Кстово",,,,56.146559,44.199862,"4,5",,
1172334319,СберБанк,"Магистральная ул., 22, Кстово",,,,56.148494,44.211448,"4,6",,
1190330406,СберБанк,"ул. Ленина, 3, д. Новоликеево",,,,56.118802,44.244525,"2,7",,
1091002558,СберБанк,"Школьная ул., 20А, сельский посёлок Ждановский",,,,56.20895,44.100966,"4,0",,
1152572394,СберБанк,"38, сельский посёлок Селекционной Станции",,,,56.208625,44.023432,"4,0",,
1263704589,СберБанк,"просп. Гагарина, 101, корп. 5, Нижний Новгород",,,,56.236476,43.953794,"4,4",,
1064632986,СберБанк,"ул. Маршала Рокоссовского, 17, Советский район, жилой район Кузнечиха, Нижний Новгород",,,,56.283945,44.041111,"4,6",,
