ID,name,address,website,opening_hours,ypage,lat,lon,rating,phone,social
216564658115,СберБанк,"ул. Свердлова, 70, Кунгур",,,,57.431549,56.93656,"4,3",,
59702236376,СберБанк,"ул. Свободы, 46, Кунгур",,,,57.427426,56.964267,"4,4",,
221198346784,СберБанк,"ул. Ленина, 7, село Моховое",,,,57.458027,56.891807,"3,7",,
1129738040,СберБанк,"Центральная ул., 1, село Плеханово",,,,57.47989,56.975459,"3,7",,
185298565964,СберБанк,"ул. Ленина, 9, посёлок Комсомольский",,,,57.461474,57.132053,"4,1",,
120362693492,СберБанк,"Советская ул., 1, посёлок Шадейка",,,,57.451272,56.795257,"4,0",,
1130496460,СберБанк,"Парковая ул., 3, д. Тёплая",,,,57.338057,56.791393,"3,7",,
1151857392,СберБанк,"Советская ул., 5, посёлок Голдыревский",,,,57.261476,57.037882,"4,0",,
