ID,name,address,website,opening_hours,ypage,lat,lon,rating,phone,social
175946692359,СберБанк,"ул. Кирова, 117, Моздок",,,,43.741313,44.650372,"5,0",,
1120538071,СберБанк,"Грозненская ул., 1, Моздок",,,,43.737061,44.655091,"4,7",,
1093509420,СберБанк,"ул. Ленина, 15, станица Терская",,,,43.722802,44.726956,"4,4",,
1028871587,СберБанк,"Колхозная ул., 16, село Раздольное",,,,43.696033,44.536127,"4,1",,
1582407072,СберБанк,"Моздокская ул., 72, станица Павлодольская",,,,43.716359,44.473632,"4,3",,
