ID,name,address,website,opening_hours,ypage,lat,lon,rating,phone,social
1133774753,СберБанк,"Социалистическая ул., 47, Нефтекамск",,,,56.091986,54.253826,"4,4",,
1558233348,СберБанк,"ул. Ленина, 21В, Нефтекамск",,,,56.093041,54.23514,"4,7",,
1156680316,СберБанк,"ул. Карла Маркса, 11, Нефтекамск",,,,56.079632,54.24082,"4,4",,
1073519942,СберБанк,"Берёзовское ш., 10Б, Нефтекамск",,,,56.10529,54.233162,"4,7",,
146179658483,СберБанк,"Юбилейный просп., 1, Нефтекамск",,,,56.098151,54.245459,"4,4",,
1141796673,СберБанк,"Парковая ул., 27, Нефтекамск",,,,56.085819,54.237923,"4,4",,
94802035922,СберБанк,"ул. Ленина, 21В, Нефтекамск",,,,56.093044,54.235139,"4,0",,
1015983718,СберБанк,"ул. Карла Маркса, 9, село Николо-Берёзовка",,,,56.126132,54.17478,"4,2",,
