ID,name,address,website,opening_hours,ypage,lat,lon,rating,phone,social
1671754158,СберБанк,"Таёжная ул., 30А, Новый Уренгой",,,,66.078836,76.660825,"4,7",,
51052061631,СберБанк,"ул. 26-го съезда КПСС, 15Б, Новый Уренгой",,,,66.088082,76.68738,"4,6",,
1123945578,СберБанк,"2, корп. 2, район Северная Жилая Часть, микрорайон Советский, Новый Уренгой",,,,66.118337,76.677529,"4,4",,
1124090847,СберБанк,"3, корп. 1, район Южная Жилая Часть, микрорайон Оптимистов, Новый Уренгой",,,,66.081918,76.650485,"4,7",,
36627877632,СберБанк,"Спортивная ул., 3, район Коротчаево, Новый Уренгой",,,,65.921088,78.196558,"4,3",,
99420360938,СберБанк,"Таёжная ул., 30А, Новый Уренгой",,,,66.078856,76.660773,"4,6",,
1062258148,СберБанк,"ул. Геологов, 20А, п. г. т. Уренгой",,,,65.963114,78.363034,"4,2",,
