ID,name,address,website,opening_hours,ypage,lat,lon,rating,phone,social
1167258152,СберБанк,"ул. Фрунзе, 9, Новоуральск",,,,57.246044,60.086389,"4,5",,
37611178074,СберБанк,"ул. Мичурина, 25, Новоуральск",,,,57.248278,60.098291,"4,3",,
1256839780,СберБанк,"Комсомольская ул., 23, Новоуральск",,,,57.24922,60.073595,"4,3",,
1021413281,СберБанк,"ул. 8 Марта, 5, п. г. т. Верх-Нейвинский",,,,57.264538,60.135731,"3,8",,
94229683681,СберБанк,"ул. Ржанникова, 14, посёлок Нейво-Рудянка",,,,57.33883,60.134276,"4,2",,
178492448119,СберБанк,"Советская ул., 22А, посёлок Калиново",,,,57.137373,60.14935,"3,9",,
1080315186,СберБанк,"ул. Ленина, 45, село Тарасково",,,,57.126935,60.063489,"1,8",,
