ID,name,address,website,opening_hours,ypage,lat,lon,rating,phone,social
43254850909,СберБанк,"ул. Свердлова, 20, Павловский Посад",,,,55.780006,38.65641,,,
1164528854,СберБанк,"ул. Кирова, 75, Павловский Посад",,,,55.780005,38.662086,,,
137977651875,СберБанк,"ул. Герцена, 11, Павловский Посад",,,,55.779047,38.672623,,,
1016295355,СберБанк,"ул. Кирова, 5, Павловский Посад",,,,55.778823,38.649956,,,
1079586849,СберБанк,"пер. Каляева, 1, Павловский Посад",,,,55.776766,38.678471,,,
62602297309,СберБанк,"Южная ул., 69, Павловский Посад",,,,55.764944,38.661967,,,
173059665005,СберБанк,"Большая Покровская ул., 35, Павловский Посад",,,,55.771788,38.651666,,,
1066607596,СберБанк,"ул. Кузьмина, 31, Павловский Посад",,,,55.765949,38.670607,,,
1029702600,СберБанк,"ул. Маяковского, 140, рабочий посёлок Большие Дворы",,,,55.819282,38.645838,,,
