ID,name,address,website,opening_hours,ypage,lat,lon,rating,phone,social
1034988321,СберБанк,"ул. Чапаева, 38, Павлово",,,,55.966468,43.084282,"4,3",,
227048999604,СберБанк,"Базарная площадь, 3, Павлово",,,,55.966907,43.068258,"4,3",,
1066291351,СберБанк,"Коммунистическая ул., 14, Павлово",,,,55.957233,43.068553,"4,3",,
2866692060,СберБанк,"ул. Пушкина, 3, рабочий посёлок Тумботино",,,,55.988721,43.00874,"3,9",,
41643114246,СберБанк,"Школьная ул., 10А, село Таремское",,,,55.923649,43.036982,"2,6",,
1135961605,СберБанк,"Центральная ул., 286, село Абабково",,,,56.026704,43.156944,"2,6",,
135138454531,СберБанк,"15, село Ярымово",,,,55.897261,43.118254,"3,4",,
1248048800,СберБанк,"Школьная ул., 19, д. Ясенцы",,,,55.963622,43.215307,"3,9",,
