ID,name,address,website,opening_hours,ypage,lat,lon,rating,phone,social
1257344799,СберБанк,"ул. Духова, 1, Саров",,,,54.925206,43.347223,"4,3",,
245388683483,СберБанк,"ул. Курчатова, 3, Саров",,,,54.943711,43.327831,"4,6",,
1071973124,СберБанк,"ул. Шверника, 22, Саров",,,,54.916154,43.343511,"4,1",,
129686738988,СберБанк,"ул. Зернова, 34, Саров",,,,54.938495,43.31128,"4,5",,
1081045634,СберБанк,"просп. Мира, 7, Саров",,,,54.923668,43.337818,"4,4",,
48072843739,СберБанк,"Советская ул., 3, сельский посёлок Сатис",,,,54.91957,43.23013,"4,0",,
172330319984,СберБанк,"Октябрьская ул., 35, село Дивеево",,,,55.03573,43.247772,"4,7",,
