ID,name,address,website,opening_hours,ypage,lat,lon,rating,phone,social
1022232861,СберБанк,"ул. Луначарского, 33А, Серпухов",,,,54.922567,37.413662,"4,6",,
1202775617,СберБанк,"Борисовское ш., 1, Серпухов",,,,54.917161,37.426417,"4,7",,
1076940063,СберБанк,"Советская ул., 71, Серпухов",,,,54.924831,37.433555,"4,6",,
1051372083,СберБанк,"ул. Чернышевского, 31, Серпухов",,,,54.909789,37.387676,"4,6",,
1106119347,СберБанк,"Новая ул., 23, Серпухов",,,,54.936352,37.400108,"4,2",,
13123329107,СберБанк,"ул. Луначарского, 33А, Серпухов",,,,54.922693,37.414216,"4,7",,
1148229848,СберБанк,"ул. Ворошилова, 163, Серпухов",,,,54.928965,37.449681,"4,6",,
1030011867,СберБанк,"ул. Ленина, 9, посёлок Большевик",,,,54.901497,37.358983,"4,3",,
1152549549,СберБанк,"площадь 178 авиаполка, 1, село Липицы",,,,54.847913,37.484037,"3,1",,
