ID,name,address,website,opening_hours,ypage,lat,lon,rating,phone,social
1134633479,СберБанк,"Красная ул., 68, Славянск-на-Кубани",,,,45.255615,38.115514,"4,6",,
1082793186,СберБанк,"ул. Ковтюха, 27, Славянск-на-Кубани",,,,45.259061,38.122717,"4,5",,
1029865350,СберБанк,"ул. Дзержинского, 247, Славянск-на-Кубани",,,,45.259247,38.132729,"4,5",,
7384130557,СберБанк,"Красная ул., 68, Славянск-на-Кубани",,,,45.255718,38.115584,"4,5",,
5667315644,СберБанк,"ул. Ленина, 161, хутор Трудобеликовский",,,,45.267583,38.15852,"4,3",,
229453817981,СберБанк,"Школьная ул., 607, посёлок Совхозный",,,,45.284168,38.112077,"3,4",,
