ID,name,address,website,opening_hours,ypage,lat,lon,rating,phone,social
1230652315,СберБанк,"Советская ул., 42, Сызрань",,,,53.150741,48.463544,"4,7",,
1219594853,СберБанк,"просп. 50 лет Октября, 54, Сызрань",,,,53.12151,48.398658,"4,7",,
1187542488,СберБанк,"просп. 50 лет Октября, 4Б, Сызрань",,,,53.128497,48.424758,"4,7",,
1170051798,СберБанк,"Советская ул., 89, Сызрань",,,,53.157373,48.477763,"4,5",,
1073830314,СберБанк,"Гидротурбинная ул., 12, Сызрань",,,,53.175498,48.497401,"4,6",,
1219293758,СберБанк,"Кемеровский пер., 2А, посёлок Новокашпирский, Сызрань",,,,53.028348,48.433046,"4,3",,
1061879788,СберБанк,"ул. Дзержинского, 41А, Октябрьск",,,,53.163208,48.668875,"4,3",,
1009384603,СберБанк,"Больничная ул., 4, село Приволжье",,,,52.867084,48.609177,"4,3",,
