ID,name,address,website,opening_hours,ypage,lat,lon,rating,phone,social
1120474325,СберБанк,"Октябрьская ул., 137, корп. 1, Темрюк",,,,45.272111,37.377897,"4,6",,
1062142314,СберБанк,"Таманская ул., 58, Темрюк",,,,45.275735,37.376386,"4,6",,
1219038036,СберБанк,"Таманская ул., 16, Темрюк",,,,45.279759,37.370401,"4,3",,
1105076353,СберБанк,"Красная ул., 141, станица Голубицкая",,,,45.320139,37.276401,"3,8",,
1099992569,СберБанк,"Красная ул., 122, станица Курчанская",,,,45.224513,37.571704,"1,6",,
1053630804,СберБанк,"ул. Ленина, 2Г, посёлок Стрелка",,,,45.211587,37.286265,"3,6",,
1268114798,СберБанк,"Октябрьская ул., 40, село Джигинка",,,,45.129107,37.33427,"4,1",,
