ID,name,address,website,opening_hours,ypage,lat,lon,rating,phone,social
83164945433,СберБанк,"просп. Ленина, 33, Ухта",,,,63.565438,53.669444,"4,3",,
1074053712,СберБанк,"просп. Ленина, 75, Ухта",,,,63.572138,53.644437,"4,5",,
57496000753,СберБанк,"ул. 30 лет Октября, 5, Ухта",,,,63.563467,53.690319,"4,1",,
1169781455,СберБанк,"ул. Зои Космодемьянской, 2А, Сосногорск",,,,63.603779,53.865072,"4,4",,
1263305007,СберБанк,"Кольцевой пр., 2, п. г. т. Шудаяг",,,,63.524306,53.603488,"3,6",,
1384260208,СберБанк,"18/1, 6-й микрорайон, Сосногорск",,,,63.589281,53.91519,"3,8",,
1257063904,СберБанк,"Пионерская ул., 11, Сосногорск",,,,63.590959,53.934179,"4,7",,
173861342655,СберБанк,"Центральная ул., 4, село Усть-Ухта",,,,63.615101,53.887383,"4,2",,
