ID,name,address,website,opening_hours,ypage,lat,lon,rating,phone,social
1265320489,СберБанк,"ул. Декабристов, 3, Чайковский",,,,56.74606,54.163247,"4,3",,
1203132537,СберБанк,"ул. Ленина, 61Б, Чайковский",,,,56.771377,54.157289,"4,4",,
1047699184,СберБанк,"Советская ул., 11, Чайковский",,,,56.762066,54.101273,"4,5",,
196323140436,СберБанк,"ул. Ленина, 39А, Чайковский",,,,56.77813,54.150262,"4,3",,
1104079398,СберБанк,"ул. Мира, 19, Чайковский",,,,56.775624,54.143352,"4,4",,
179161532639,СберБанк,"Солнечная ул., 1, посёлок Прикамский",,,,56.724973,54.048316,"4,1",,
44302317084,СберБанк,"Центральная ул., 5, посёлок Новый",,,,56.811059,54.034787,"4,0",,
1058751704,СберБанк,"74, посёлок Марковский",,,,56.632214,54.090564,"4,1",,
