,ID,name,address,website,opening_hours,lat,lon,rating,phone,social,Персонал,Время ожидания,Кредит,Расположение,Банкомат,load_time
0,{bank_name}/158072099704,Альфа-Банк,"Павловский тракт, 251А, Барнаул",alfabank.ru,"'mon': 09:00-20:00, 'tue': 09:00-20:00, 'wed': 09:00-20:00, 'thu': 09:00-20:00, 'fri': 09:00-20:00, 'sat': 10:00-18:00, 'sun': выходной",53.342936,83.680396,"4,9",['8 (800) 200-00-00Показать телефон'],"['https://ok.ru/alfabank', 'https://t.me/alfabank', 'https://vk.com/alfabank', 'https://www.youtube.com/user/alfabankru']",89,77,93,,,2024-08-06 13:09:37
1,{bank_name}/64447174094,Альфа-Банк,"ул. Антона Петрова, 219Б, Барнаул",alfabank.ru,"'mon': 09:00-20:00, 'tue': 09:00-20:00, 'wed': 09:00-20:00, 'thu': 09:00-20:00, 'fri': 09:00-20:00, 'sat': 10:00-18:00, 'sun': выходной",53.359055,83.697679,"4,4",['8 (800) 200-00-00Показать телефон'],"['https://ok.ru/alfabank', 'https://t.me/alfabank', 'https://vk.com/alfabank', 'https://www.youtube.com/user/alfabankru']",80,67,55,,,2024-08-06 13:09:37
2,{bank_name}/101800212967,Альфа-Банк,"Красноармейский просп., 58Б, Барнаул",alfabank.ru,"'mon': 09:00-20:00, 'tue': 09:00-20:00, 'wed': 09:00-20:00, 'thu': 09:00-20:00, 'fri': 09:00-20:00, 'sat': 10:00-18:00, 'sun': выходной",53.337710,83.775095,"4,7",['8 (800) 200-00-00Показать телефон'],"['https://ok.ru/alfabank', 'https://t.me/alfabank', 'https://vk.com/alfabank', 'https://www.youtube.com/user/alfabankru']",94,90,92,100,,2024-08-06 13:09:37
3,{bank_name}/9028783175,Альфа-Банк,"Социалистический просп., 130, Барнаул",alfabank.ru,"'mon': 09:00-18:00, 'tue': 09:00-18:00, 'wed': 09:00-18:00, 'thu': 09:00-18:00, 'fri': 09:00-18:00, 'sat': выходной, 'sun': выходной",53.349790,83.763669,"4,8",['8 (800) 200-00-00Показать телефон'],"['https://ok.ru/alfabank', 'https://t.me/alfabank', 'https://vk.com/alfabank', 'https://www.youtube.com/user/alfabankru']",95,92,91,100,90,2024-08-06 13:09:37
4,{bank_name}/150990504689,Альфа-Банк,"просп. Ленина, 58, Барнаул",alfabank.ru,"'mon': 09:00-20:00, 'tue': 09:00-20:00, 'wed': 09:00-20:00, 'thu': 09:00-20:00, 'fri': 09:00-20:00, 'sat': 10:00-18:00, 'sun': выходной",53.348156,83.777548,"4,5",['8 (800) 200-00-00Показать телефон'],"['https://ok.ru/alfabank', 'https://t.me/alfabank', 'https://vk.com/alfabank', 'https://www.youtube.com/user/alfabankru']",81,85,78,100,92,2024-08-06 13:09:37
5,{bank_name}/161086873792,Альфа-Банк,"просп. Ленина, 106, Барнаул",alfabank.ru,"'mon': 09:00-18:00, 'tue': 09:00-18:00, 'wed': 09:00-18:00, 'thu': 09:00-18:00, 'fri': 09:00-18:00, 'sat': выходной, 'sun': выходной",53.365434,83.758926,"4,7",['8 (800) 200-00-00Показать телефон'],"['https://ok.ru/alfabank', 'https://t.me/alfabank', 'https://vk.com/alfabank', 'https://www.youtube.com/user/alfabankru']",93,96,100,,,2024-08-06 13:09:37
6,{bank_name}/187227407399,Альфа-Банк,"Октябрьская ул., 13, Новоалтайск",,"'mon': 10:00-19:00, 'tue': 10:00-19:00, 'wed': 10:00-19:00, 'thu': 10:00-19:00, 'fri': 10:00-19:00, 'sat': выходной, 'sun': выходной",53.392372,83.934528,"4,4",['8 (800) 200-00-00Показать телефон'],"['http://vk.com/alfabank', 'https://ok.ru/alfabank', 'https://www.youtube.com/user/alfabankru']",90,83,,,,2024-08-06 13:09:37
