,ID,name,address,website,opening_hours,lat,lon,rating,phone,social,Обслуживание,Отношение к клиентам,Персонал,Время ожидания,Кредит,Расположение,Банкомат,Вклад,load_time
0,158072099704,Альфа-Банк,"Павловский тракт, 251А, Барнаул",alfabank.ru,"'mon': 09:00-20:00, 'tue': 09:00-20:00, 'wed': 09:00-20:00, 'thu': 09:00-20:00, 'fri': 09:00-20:00, 'sat': 10:00-18:00, 'sun': выходной",53.342936,83.680396,"4,9",['8 (800) 200-00-00Показать телефон'],"['https://ok.ru/alfabank', 'https://t.me/alfabank', 'https://vk.com/alfabank', 'https://www.youtube.com/user/alfabankru']",88,88,89,78,92,,,,2024-06-23 16:41:14
1,64447174094,Альфа-Банк,"ул. Антона Петрова, 219Б, Барнаул",alfabank.ru,"'mon': 09:00-20:00, 'tue': 09:00-20:00, 'wed': 09:00-20:00, 'thu': 09:00-20:00, 'fri': 09:00-20:00, 'sat': 10:00-18:00, 'sun': выходной",53.359055,83.697679,"4,4",['8 (800) 200-00-00Показать телефон'],"['https://ok.ru/alfabank', 'https://t.me/alfabank', 'https://vk.com/alfabank', 'https://www.youtube.com/user/alfabankru']",76,69,80,68,55,,,,2024-06-23 16:41:14
2,101800212967,Альфа-Банк,"Красноармейский просп., 58Б, Барнаул",alfabank.ru,"'mon': 09:00-20:00, 'tue': 09:00-20:00, 'wed': 09:00-20:00, 'thu': 09:00-20:00, 'fri': 09:00-20:00, 'sat': 10:00-18:00, 'sun': выходной",53.337710,83.775095,"4,7",['8 (800) 200-00-00Показать телефон'],"['https://ok.ru/alfabank', 'https://t.me/alfabank', 'https://vk.com/alfabank', 'https://www.youtube.com/user/alfabankru']",93,89,95,90,92,100,,,2024-06-23 16:41:14
3,9028783175,Альфа-Банк,"Социалистический просп., 130, Барнаул",alfabank.ru,"'mon': 09:00-18:00, 'tue': 09:00-18:00, 'wed': 09:00-18:00, 'thu': 09:00-18:00, 'fri': 09:00-18:00, 'sat': выходной, 'sun': выходной",53.349790,83.763669,"4,8",['8 (800) 200-00-00Показать телефон'],"['https://ok.ru/alfabank', 'https://t.me/alfabank', 'https://vk.com/alfabank', 'https://www.youtube.com/user/alfabankru']",94,91,95,92,91,100,90,100,2024-06-23 16:41:14
4,150990504689,Альфа-Банк,"просп. Ленина, 58, Барнаул",alfabank.ru,"'mon': 09:00-20:00, 'tue': 09:00-20:00, 'wed': 09:00-20:00, 'thu': 09:00-20:00, 'fri': 09:00-20:00, 'sat': 10:00-18:00, 'sun': выходной",53.348156,83.777548,"4,5",['8 (800) 200-00-00Показать телефон'],"['https://ok.ru/alfabank', 'https://t.me/alfabank', 'https://vk.com/alfabank', 'https://www.youtube.com/user/alfabankru']",79,74,80,85,77,100,92,,2024-06-23 16:41:14
5,161086873792,Альфа-Банк,"просп. Ленина, 106, Барнаул",alfabank.ru,"'mon': 09:00-18:00, 'tue': 09:00-17:00, 'wed': выходной, 'thu': 09:00-18:00, 'fri': 09:00-18:00, 'sat': выходной, 'sun': выходной",53.365434,83.758926,"4,7",['8 (800) 200-00-00Показать телефон'],"['https://ok.ru/alfabank', 'https://t.me/alfabank', 'https://vk.com/alfabank', 'https://www.youtube.com/user/alfabankru']",90,89,93,98,100,,,100,2024-06-23 16:41:14
6,187227407399,Альфа-Банк,"Октябрьская ул., 13, Новоалтайск",,"'mon': 10:00-19:00, 'tue': 10:00-19:00, 'wed': 10:00-19:00, 'thu': 10:00-19:00, 'fri': 10:00-19:00, 'sat': выходной, 'sun': выходной",53.392372,83.934528,"4,4",['8 (800) 200-00-00Показать телефон'],"['http://vk.com/alfabank', 'https://ok.ru/alfabank', 'https://www.youtube.com/user/alfabankru']",85,85,88,80,,,,,2024-06-23 16:41:14
