,ID,name,address,website,opening_hours,lat,lon,rating,phone,social,Персонал,Время ожидания,Кредит,Банкомат,Расположение,load_time
0,alfa_bank/104151060354,Альфа-Банк,"просп. Карла Маркса, 55, Новосибирск",alfabank.ru,"'mon': 09:00-18:00, 'tue': 09:00-18:00, 'wed': 09:00-18:00, 'thu': 09:00-18:00, 'fri': 09:00-18:00, 'sat': выходной, 'sun': выходной",54.991801,82.910162,"4,6",['8 (800) 200-00-00Показать телефон'],"['https://ok.ru/alfabank', 'https://t.me/alfabank', 'https://vk.com/alfabank', 'https://www.youtube.com/user/alfabankru']",90,89,92,70,100,2024-08-06 18:51:47
1,alfa_bank/224681779681,Альфа-Банк,"ул. Ильича, 6, Советский район, микрорайон Академгородок, Новосибирск",alfabank.ru,"'mon': 09:00-20:00, 'tue': 09:00-20:00, 'wed': 09:00-20:00, 'thu': 09:00-20:00, 'fri': 09:00-20:00, 'sat': 10:00-18:00, 'sun': выходной",54.839313,83.095359,"4,8",['8 (800) 200-00-00Показать телефон'],"['https://ok.ru/alfabank', 'https://t.me/alfabank', 'https://vk.com/alfabank', 'https://www.youtube.com/user/alfabankru']",84,77,80,80,,2024-08-06 18:51:47
2,alfa_bank/35340132727,Альфа-Банк,"площадь Карла Маркса, 5, Новосибирск",alfabank.ru,"'mon': 09:00-20:00, 'tue': 09:00-20:00, 'wed': 09:00-19:00, 'thu': 09:00-20:00, 'fri': 10:00-18:00, 'sat': 10:00-18:00, 'sun': выходной",54.982507,82.892339,"4,6",['8 (800) 200-00-00Показать телефон'],"['https://ok.ru/alfabank', 'https://t.me/alfabank', 'https://vk.com/alfabank', 'https://www.youtube.com/user/alfabankru']",76,72,71,73,100,2024-08-06 18:51:47
3,alfa_bank/227633141770,Альфа-Банк,"ул. Ленина, 42, Бердск",alfabank.ru,"'mon': выходной, 'tue': выходной, 'wed': выходной, 'thu': выходной, 'fri': выходной, 'sat': выходной, 'sun': выходной",54.761233,83.100605,"4,3",['8 (800) 200-00-00Показать телефон'],"['https://ok.ru/alfabank', 'https://t.me/alfabank', 'https://vk.com/alfabank']",68,52,65,44,,2024-08-06 18:51:47
4,alfa_bank/74979444632,Альфа-Банк,"ул. Пушкина, 40А, Искитим",alfabank.ru,"'mon': 10:00-19:00, 'tue': 10:00-19:00, 'wed': 10:00-19:00, 'thu': 10:00-19:00, 'fri': 10:00-19:00, 'sat': выходной, 'sun': выходной",54.639419,83.303947,"4,6",['8 (800) 200-00-00Показать телефон'],"['https://ok.ru/alfabank', 'https://t.me/alfabank', 'https://vk.com/alfabank', 'https://www.youtube.com/user/alfabankru']",,,,,,2024-08-06 18:51:47
