,ID,name,address,website,opening_hours,lat,lon,rating,phone,social,load_time
0,129400118515,Альфа-Банк,"Рождественская ул., 3, микрорайон Железнодорожный, Балашиха",alfabank.ru,"'mon': 08:00-00:00, 'tue': 08:00-00:00, 'wed': 08:00-00:00, 'thu': 08:00-00:00, 'fri': 08:00-00:00, 'sat': 08:00-00:00, 'sun': 08:00-00:00",55.743102,38.001486,,['8 (800) 200-00-00Показать телефон'],"['https://ok.ru/alfabank', 'https://t.me/alfabank', 'https://vk.com/alfabank']",2024-06-24 06:37:10
1,236549194734,Альфа-Банк,"ул. Свердлова, 1А, Балашиха",alfabank.ru,"'mon': 10:00-21:00, 'tue': 10:00-21:00, 'wed': 10:00-21:00, 'thu': 10:00-21:00, 'fri': 10:00-21:00, 'sat': 10:00-21:00, 'sun': 10:00-21:00",55.818271,37.965373,,['8 (800) 200-00-00Показать телефон'],"['https://ok.ru/alfabank', 'https://t.me/alfabank', 'https://vk.com/alfabank']",2024-06-24 06:37:10
2,182740673341,Альфа-Банк,"9-я Парковая ул., 23, Москва",alfabank.ru,"'mon': 00:00-23:59, 'tue': 00:00-23:59, 'wed': 00:00-23:59, 'thu': 00:00-23:59, 'fri': 00:00-23:59, 'sat': 00:00-23:59, 'sun': 00:00-23:59",55.795044,37.798799,,['8 (800) 200-00-00Показать телефон'],"['https://ok.ru/alfabank', 'https://t.me/alfabank', 'https://vk.com/alfabank']",2024-06-24 06:37:10
3,205250900258,Альфа-Банк,"Шараповский пр., вл2с3, Мытищи",alfabank.ru,"'mon': 07:00-00:00, 'tue': 07:00-00:00, 'wed': 07:00-00:00, 'thu': 07:00-00:00, 'fri': 07:00-00:00, 'sat': 07:00-00:00, 'sun': 07:00-00:00",55.916860,37.758185,,['8 (800) 200-00-00Показать телефон'],"['https://ok.ru/alfabank', 'https://t.me/alfabank', 'https://vk.com/alfabank']",2024-06-24 06:37:10
4,233062051662,Альфа-Банк,"Носовихинское ш., 7, Реутов",alfabank.ru,"'mon': 00:00-23:59, 'tue': 00:00-23:59, 'wed': 00:00-23:59, 'thu': 00:00-23:59, 'fri': 00:00-23:59, 'sat': 00:00-23:59, 'sun': 00:00-23:59",55.745477,37.859150,,['8 (800) 200-00-00Показать телефон'],"['https://ok.ru/alfabank', 'https://t.me/alfabank', 'https://vk.com/alfabank']",2024-06-24 06:37:10
5,215373654748,Альфа-Банк,"Пролетарский просп., 9, Щёлково",alfabank.ru,"'mon': 00:00-23:59, 'tue': 00:00-23:59, 'wed': 00:00-23:59, 'thu': 00:00-23:59, 'fri': 00:00-23:59, 'sat': 00:00-23:59, 'sun': 00:00-23:59",55.919937,37.996823,,['8 (800) 200-00-00Показать телефон'],"['https://ok.ru/alfabank', 'https://t.me/alfabank', 'https://vk.com/alfabank']",2024-06-24 06:37:10
6,62159081324,Альфа-Банк,"ул. Свердлова, 20, корп. 1, Балашиха",alfabank.ru,"'mon': 08:00-23:00, 'tue': 08:00-23:00, 'wed': 08:00-23:00, 'thu': 08:00-23:00, 'fri': 08:00-23:00, 'sat': 08:00-23:00, 'sun': 08:00-23:00",55.822898,37.970385,,['8 (800) 200-00-00Показать телефон'],"['https://ok.ru/alfabank', 'https://t.me/alfabank', 'https://vk.com/alfabank']",2024-06-24 06:37:10
7,1742547926,Альфа-Банк,"Первомайская ул., 110, стр. 1, Москва",alfabank.ru,"'mon': 08:00-23:00, 'tue': 08:00-23:00, 'wed': 08:00-23:00, 'thu': 08:00-23:00, 'fri': 08:00-23:00, 'sat': 08:00-23:00, 'sun': 08:00-23:00",55.793267,37.815363,,['8 (800) 200-00-00Показать телефон'],"['https://ok.ru/alfabank', 'https://t.me/alfabank', 'https://vk.com/alfabank']",2024-06-24 06:37:10
8,47436011489,Альфа-Банк,"Носовихинское ш., 45, Реутов",alfabank.ru,"'mon': 08:00-23:00, 'tue': 08:00-23:00, 'wed': 08:00-23:00, 'thu': 08:00-23:00, 'fri': 08:00-23:00, 'sat': 08:00-23:00, 'sun': 08:00-23:00",55.752090,37.887183,,['8 (800) 200-00-00Показать телефон'],"['https://ok.ru/alfabank', 'https://t.me/alfabank', 'https://vk.com/alfabank']",2024-06-24 06:37:10
9,209128637029,Альфа-Банк,"Советская ул., 1/7, Балашиха",alfabank.ru,"'mon': 00:00-23:59, 'tue': 00:00-23:59, 'wed': 00:00-23:59, 'thu': 00:00-23:59, 'fri': 00:00-23:59, 'sat': 00:00-23:59, 'sun': 00:00-23:59",55.794977,37.933998,,['8 (800) 200-00-00Показать телефон'],"['https://ok.ru/alfabank', 'https://t.me/alfabank', 'https://vk.com/alfabank']",2024-06-24 06:37:10
10,43345128407,Альфа-Банк,"Советская ул., 1/7, Балашиха",alfabank.ru,"'mon': выходной, 'tue': выходной, 'wed': выходной, 'thu': выходной, 'fri': выходной, 'sat': выходной, 'sun': выходной",55.795469,37.933977,,['8 (800) 200-00-00Показать телефон'],"['https://ok.ru/alfabank', 'https://t.me/alfabank', 'https://vk.com/alfabank']",2024-06-24 06:37:10
11,3942288240,Альфа-Банк,"Пролетарская ул., 2, корп. 2, микрорайон Железнодорожный, Балашиха",alfabank.ru,"'mon': 09:00-23:00, 'tue': 09:00-23:00, 'wed': 09:00-23:00, 'thu': 09:00-23:00, 'fri': 09:00-23:00, 'sat': 09:00-23:00, 'sun': 09:00-23:00",55.750282,38.006831,,['8 (800) 200-00-00Показать телефон'],"['https://ok.ru/alfabank', 'https://t.me/alfabank', 'https://vk.com/alfabank']",2024-06-24 06:37:10
12,88388055106,Альфа-Банк,"Октябрьский просп., 146, Люберцы",alfabank.ru,"'mon': 10:00-21:00, 'tue': 10:00-21:00, 'wed': 10:00-21:00, 'thu': 10:00-21:00, 'fri': 10:00-21:00, 'sat': 10:00-21:00, 'sun': 10:00-21:00",55.679854,37.889466,,['8 (800) 200-00-00Показать телефон'],"['https://ok.ru/alfabank', 'https://t.me/alfabank', 'https://vk.com/alfabank']",2024-06-24 06:37:10
13,171799484219,Альфа-Банк,"ш. Энтузиастов, 66А, Балашиха",alfabank.ru,"'mon': 08:00-22:00, 'tue': 08:00-22:00, 'wed': 08:00-22:00, 'thu': 08:00-22:00, 'fri': 08:00-22:00, 'sat': 08:00-22:00, 'sun': 08:00-22:00",55.796871,37.971059,,['8 (800) 200-00-00Показать телефон'],"['https://ok.ru/alfabank', 'https://t.me/alfabank', 'https://vk.com/alfabank']",2024-06-24 06:37:10
14,149734823002,Альфа-Банк,"Советская ул., 1/7, Балашиха",alfabank.ru,"'mon': 00:00-23:59, 'tue': 00:00-23:59, 'wed': 00:00-23:59, 'thu': 00:00-23:59, 'fri': 00:00-23:59, 'sat': 00:00-23:59, 'sun': 00:00-23:59",55.794871,37.934017,,['8 (800) 200-00-00Показать телефон'],"['https://ok.ru/alfabank', 'https://t.me/alfabank', 'https://vk.com/alfabank']",2024-06-24 06:37:10
15,167078249841,Альфа-Банк,"Пролетарская ул., 2, корп. 2, микрорайон Железнодорожный, Балашиха",alfabank.ru,"'mon': 10:00-22:00, 'tue': 10:00-22:00, 'wed': 10:00-22:00, 'thu': 10:00-22:00, 'fri': 10:00-22:00, 'sat': 10:00-22:00, 'sun': 10:00-22:00",55.750282,38.006831,,['8 (800) 200-00-00Показать телефон'],"['https://ok.ru/alfabank', 'https://t.me/alfabank', 'https://vk.com/alfabank']",2024-06-24 06:37:10
16,18874909568,Альфа-Банк,"Святоозёрская ул., 1А, Москва",alfabank.ru,"'mon': 08:00-00:00, 'tue': 08:00-00:00, 'wed': 08:00-00:00, 'thu': 08:00-00:00, 'fri': 08:00-00:00, 'sat': 08:00-00:00, 'sun': 08:00-00:00",55.714653,37.883581,,['8 (800) 200-00-00Показать телефон'],"['https://ok.ru/alfabank', 'https://t.me/alfabank', 'https://vk.com/alfabank']",2024-06-24 06:37:10
17,25002198849,Альфа-Банк,"Центральная ул., 40, микрорайон Кучино, Балашиха",alfabank.ru,"'mon': 10:00-21:00, 'tue': 10:00-21:00, 'wed': 10:00-21:00, 'thu': 10:00-21:00, 'fri': 10:00-21:00, 'sat': 10:00-21:00, 'sun': 10:00-21:00",55.751437,37.955824,,['8 (800) 200-00-00Показать телефон'],"['https://ok.ru/alfabank', 'https://t.me/alfabank', 'https://vk.com/alfabank']",2024-06-24 06:37:10
18,83318742910,Альфа-Банк,"Кольцевая ул., 3, корп. 3, микрорайон Янтарный, Балашиха",alfabank.ru,"'mon': 07:00-00:00, 'tue': 07:00-00:00, 'wed': 07:00-00:00, 'thu': 07:00-00:00, 'fri': 07:00-00:00, 'sat': 07:00-00:00, 'sun': 07:00-00:00",55.822706,37.876206,,['8 (800) 200-00-00Показать телефон'],"['https://ok.ru/alfabank', 'https://t.me/alfabank', 'https://vk.com/alfabank']",2024-06-24 06:37:10
19,211609116315,Альфа-Банк,"Южная ул., 10А, Реутов",alfabank.ru,"'mon': 10:00-21:00, 'tue': 10:00-21:00, 'wed': 10:00-21:00, 'thu': 10:00-21:00, 'fri': 10:00-21:00, 'sat': 10:00-21:00, 'sun': 10:00-21:00",55.747176,37.862130,,['8 (800) 200-00-00Показать телефон'],"['https://ok.ru/alfabank', 'https://t.me/alfabank', 'https://vk.com/alfabank']",2024-06-24 06:37:10
20,31673486693,Альфа-Банк,"Покровская ул., 20, Москва",alfabank.ru,"'mon': 00:00-23:59, 'tue': 00:00-23:59, 'wed': 00:00-23:59, 'thu': 00:00-23:59, 'fri': 00:00-23:59, 'sat': 00:00-23:59, 'sun': 00:00-23:59",55.701866,37.931650,,['8 (800) 200-00-00Показать телефон'],"['https://ok.ru/alfabank', 'https://t.me/alfabank', 'https://vk.com/alfabank']",2024-06-24 06:37:10
21,147927753067,Альфа-Банк,"Щёлковское ш., 75, Москва",alfabank.ru,"'mon': 10:00-22:00, 'tue': 10:00-22:00, 'wed': 10:00-22:00, 'thu': 10:00-22:00, 'fri': 10:00-23:00, 'sat': 10:00-23:00, 'sun': 10:00-22:00",55.810967,37.801081,,['8 (800) 200-00-00Показать телефон'],"['https://ok.ru/alfabank', 'https://t.me/alfabank', 'https://vk.com/alfabank']",2024-06-24 06:37:10
22,1700313069,Альфа-Банк,"Новокосинская ул., 32, Москва",alfabank.ru,"'mon': 00:00-23:59, 'tue': 00:00-23:59, 'wed': 00:00-23:59, 'thu': 00:00-23:59, 'fri': 00:00-23:59, 'sat': выходной, 'sun': выходной",55.742007,37.867179,,['8 (800) 200-00-00Показать телефон'],"['https://ok.ru/alfabank', 'https://t.me/alfabank', 'https://vk.com/alfabank']",2024-06-24 06:37:10
23,147940348096,Альфа-Банк,"Зелёный просп., 62А, Москва",alfabank.ru,"'mon': 10:00-22:00, 'tue': 10:00-22:00, 'wed': 10:00-22:00, 'thu': 10:00-22:00, 'fri': 10:00-22:00, 'sat': 10:00-22:00, 'sun': 10:00-22:00",55.750834,37.820331,,['8 (800) 200-00-00Показать телефон'],"['https://ok.ru/alfabank', 'https://t.me/alfabank', 'https://vk.com/alfabank']",2024-06-24 06:37:10
24,45666403800,Альфа-Банк,"Центральная ул., 68, стр. 1, микрорайон Кучино, Балашиха",alfabank.ru,"'mon': 08:00-23:00, 'tue': 08:00-23:00, 'wed': 08:00-23:00, 'thu': 08:00-23:00, 'fri': 08:00-23:00, 'sat': 08:00-23:00, 'sun': 08:00-23:00",55.751685,37.952438,,['8 (800) 200-00-00Показать телефон'],"['https://ok.ru/alfabank', 'https://t.me/alfabank', 'https://vk.com/alfabank', 'https://youtube.com/user/alfabankru']",2024-06-24 06:37:10
25,1274136686,Альфа-Банк,"Саянская ул., 8А, Москва",alfabank.ru,"'mon': 00:00-23:59, 'tue': 00:00-23:59, 'wed': 00:00-23:59, 'thu': 00:00-23:59, 'fri': 00:00-23:59, 'sat': 00:00-23:59, 'sun': 00:00-23:59",55.767104,37.829027,,['8 (800) 200-00-00Показать телефон'],"['https://ok.ru/alfabank', 'https://t.me/alfabank', 'https://vk.com/alfabank']",2024-06-24 06:37:10
26,66673281046,Альфа-Банк,"Советская ул., 1/7, Балашиха",alfabank.ru,"'mon': 00:00-23:59, 'tue': 00:00-23:59, 'wed': 00:00-23:59, 'thu': 00:00-23:59, 'fri': 00:00-23:59, 'sat': 00:00-23:59, 'sun': 00:00-23:59",55.794952,37.934023,,['8 (800) 200-00-00Показать телефон'],"['https://ok.ru/alfabank', 'https://t.me/alfabank', 'https://vk.com/alfabank']",2024-06-24 06:37:10
