,ID,name,address,website,opening_hours,lat,lon,rating,phone,social,Обслуживание,Отношение к клиентам,load_time
0,1749059104,Альфа-Банк,"Комсомольский просп., 113, Челябинск",alfabank.ru,"'mon': 08:00-23:00, 'tue': 08:00-23:00, 'wed': 08:00-23:00, 'thu': 08:00-23:00, 'fri': 08:00-23:00, 'sat': 08:00-23:00, 'sun': 08:00-23:00",55.185497,61.285871,,['8 (800) 200-00-00Показать телефон'],"['https://ok.ru/alfabank', 'https://t.me/alfabank', 'https://vk.com/alfabank']",,,2024-06-24 12:14:37
1,1016505835,Альфа-Банк,"ул. Кирова, 2А, Челябинск",alfabank.ru,"'mon': 09:00-20:00, 'tue': 09:00-20:00, 'wed': 09:00-20:00, 'thu': 09:00-20:00, 'fri': 09:00-20:00, 'sat': 09:00-20:00, 'sun': 09:00-20:00",55.183770,61.398232,,['8 (800) 200-00-00Показать телефон'],"['https://ok.ru/alfabank', 'https://t.me/alfabank', 'https://vk.com/alfabank']",,,2024-06-24 12:14:37
2,195139340619,Альфа-Банк,"ул. Труда, 37А, Псков",alfabank.ru,"'mon': 08:30-23:00, 'tue': 08:30-23:00, 'wed': 08:30-23:00, 'thu': 08:30-23:00, 'fri': 08:30-23:00, 'sat': 08:30-23:00, 'sun': 08:30-23:00",57.832205,28.345063,,['8 (800) 200-00-00Показать телефон'],"['https://ok.ru/alfabank', 'https://t.me/alfabank', 'https://vk.com/alfabank']",,,2024-06-24 12:14:37
3,1728725988,Альфа-Банк,"Сормовская ул., 108/1, Краснодар",alfabank.ru,"'mon': 07:00-01:00, 'tue': 07:00-01:00, 'wed': 07:00-01:00, 'thu': 07:00-01:00, 'fri': 07:00-01:00, 'sat': 07:00-01:00, 'sun': 07:00-01:00",45.031757,39.092418,,['8 (800) 200-00-00Показать телефон'],"['https://ok.ru/alfabank', 'https://t.me/alfabank', 'https://vk.com/alfabank']",,,2024-06-24 12:14:37
4,184550851844,Альфа-Банк,"просп. 25 Октября, 42А, Гатчина",alfabank.ru,"'mon': 10:00-21:00, 'tue': 10:00-21:00, 'wed': 10:00-21:00, 'thu': 10:00-21:00, 'fri': 10:00-21:00, 'sat': 10:00-21:00, 'sun': 10:00-21:00",59.575283,30.126835,,['8 (800) 200-00-00Показать телефон'],"['https://ok.ru/alfabank', 'https://t.me/alfabank', 'https://vk.com/alfabank']",,,2024-06-24 12:14:37
5,187798824407,Альфа-Банк,"ул. Куйбышева, 25, Чапаевск",alfabank.ru,"'mon': 08:00-23:00, 'tue': 08:00-23:00, 'wed': 08:00-23:00, 'thu': 08:00-23:00, 'fri': 08:00-23:00, 'sat': 08:00-23:00, 'sun': 08:00-23:00",52.978803,49.707926,,['8 (800) 200-00-00Показать телефон'],"['https://ok.ru/alfabank', 'https://t.me/alfabank', 'https://vk.com/alfabank']",,,2024-06-24 12:14:37
6,1602589175,Альфа-Банк,"ул. Декабристов, 12, Москва",alfabank.ru,"'mon': 08:00-23:00, 'tue': 08:00-23:00, 'wed': 08:00-23:00, 'thu': 08:00-23:00, 'fri': 08:00-23:00, 'sat': 08:00-23:00, 'sun': 08:00-23:00",55.863172,37.602148,,['8 (800) 200-00-00Показать телефон'],"['https://ok.ru/alfabank', 'https://t.me/alfabank', 'https://vk.com/alfabank']",,,2024-06-24 12:14:37
7,50616556600,Альфа-Банк,"Полковая ул., 1/25, Пушкин",alfabank.ru,"'mon': 07:00-23:00, 'tue': 07:00-23:00, 'wed': 07:00-23:00, 'thu': 07:00-23:00, 'fri': 07:00-23:00, 'sat': 07:00-23:00, 'sun': 07:00-23:00",59.702323,30.381553,,['8 (800) 200-00-00Показать телефон'],"['https://ok.ru/alfabank', 'https://t.me/alfabank', 'https://vk.com/alfabank']",,,2024-06-24 12:14:37
8,1122898734,Альфа-Банк,"ул. Мастеркова, 4, Москва",alfabank.ru,"'mon': 00:00-23:59, 'tue': 00:00-23:59, 'wed': 00:00-23:59, 'thu': 00:00-23:59, 'fri': 00:00-23:59, 'sat': 00:00-23:59, 'sun': 00:00-23:59",55.708486,37.656640,,['8 (800) 200-00-00Показать телефон'],"['https://ok.ru/alfabank', 'https://t.me/alfabank', 'https://vk.com/alfabank']",,,2024-06-24 12:14:37
9,1779598614,Альфа-Банк,"ул. Маршала Катукова, 11, корп. 1, Москва",alfabank.ru,"'mon': 09:00-22:00, 'tue': 09:00-22:00, 'wed': 09:00-22:00, 'thu': 09:00-22:00, 'fri': 09:00-22:00, 'sat': 09:00-22:00, 'sun': 09:00-22:00",55.810982,37.403737,,['8 (800) 200-00-00Показать телефон'],"['https://ok.ru/alfabank', 'https://t.me/alfabank', 'https://vk.com/alfabank']",,,2024-06-24 12:14:37
10,1358381683,Альфа-Банк,"просп. Андропова, 18, корп. 3, Москва",alfabank.ru,"'mon': 08:00-22:00, 'tue': 08:00-22:00, 'wed': 08:00-22:00, 'thu': 08:00-22:00, 'fri': 08:00-22:00, 'sat': 08:00-22:00, 'sun': 08:00-22:00",55.694459,37.661994,,['8 (800) 200-00-00Показать телефон'],"['https://ok.ru/alfabank', 'https://t.me/alfabank', 'https://vk.com/alfabank']",,,2024-06-24 12:14:37
11,56124087539,Альфа-Банк,"ул. Пискунова, 45, Нижний Новгород",alfabank.ru,"'mon': выходной, 'tue': выходной, 'wed': выходной, 'thu': выходной, 'fri': выходной, 'sat': выходной, 'sun': выходной",56.326088,44.014314,,['8 (800) 200-00-00Показать телефон'],"['https://ok.ru/alfabank', 'https://t.me/alfabank', 'https://vk.com/alfabank']",,,2024-06-24 12:14:37
12,1149922716,Альфа-Банк,"ул. Революции, 60/1, Пермь",alfabank.ru,"'mon': 10:00-21:00, 'tue': 10:00-21:00, 'wed': 10:00-21:00, 'thu': 10:00-21:00, 'fri': 10:00-21:00, 'sat': 10:00-21:00, 'sun': 10:00-21:00",58.003112,56.235885,,['8 (800) 200-00-00Показать телефон'],"['https://ok.ru/alfabank', 'https://t.me/alfabank', 'https://vk.com/alfabank']",,,2024-06-24 12:14:37
13,18961396609,Альфа-Банк,"ул. Свободы, 82, Челябинск",alfabank.ru,"'mon': 00:00-23:59, 'tue': 00:00-23:59, 'wed': 00:00-23:59, 'thu': 00:00-23:59, 'fri': 00:00-23:59, 'sat': 00:00-23:59, 'sun': 00:00-23:59",55.156194,61.412938,,['8 (800) 200-00-00Показать телефон'],"['https://ok.ru/alfabank', 'https://t.me/alfabank', 'https://vk.com/alfabank']",,,2024-06-24 12:14:37
14,130020282606,Альфа-Банк,"Московская ул., 81, Ростов-на-Дону",alfabank.ru,"'mon': 00:00-23:59, 'tue': 00:00-23:59, 'wed': 00:00-23:59, 'thu': 00:00-23:59, 'fri': 00:00-23:59, 'sat': 00:00-23:59, 'sun': 00:00-23:59",47.219752,39.719082,,['8 (800) 200-00-00Показать телефон'],"['https://ok.ru/alfabank', 'https://t.me/alfabank', 'https://vk.com/alfabank']",,,2024-06-24 12:14:37
15,72737766896,Альфа-Банк,"Московский просп., 129/1, Воронеж",alfabank.ru,"'mon': 10:00-22:00, 'tue': 10:00-22:00, 'wed': 10:00-22:00, 'thu': 10:00-22:00, 'fri': 10:00-22:00, 'sat': 10:00-22:00, 'sun': 10:00-22:00",51.717747,39.177532,,['8 (800) 200-00-00Показать телефон'],"['https://ok.ru/alfabank', 'https://t.me/alfabank', 'https://vk.com/alfabank']",,,2024-06-24 12:14:37
16,1166670200,Альфа-Банк,"Большая Серпуховская ул., 45, Подольск",alfabank.ru,"'mon': 10:00-22:00, 'tue': 10:00-22:00, 'wed': 10:00-22:00, 'thu': 10:00-22:00, 'fri': 10:00-22:00, 'sat': 10:00-22:00, 'sun': 10:00-22:00",55.420157,37.547711,,['8 (800) 200-00-00Показать телефон'],"['https://ok.ru/alfabank', 'https://t.me/alfabank', 'https://vk.com/alfabank']",,,2024-06-24 12:14:37
17,1692346032,Альфа-Банк,"Ульяновский просп., 1, Ульяновск",alfabank.ru,"'mon': 10:00-21:00, 'tue': 10:00-21:00, 'wed': 10:00-21:00, 'thu': 10:00-21:00, 'fri': 10:00-21:00, 'sat': 10:00-21:00, 'sun': 10:00-21:00",54.369156,48.587242,,['8 (800) 200-00-00Показать телефон'],"['https://ok.ru/alfabank', 'https://t.me/alfabank', 'https://vk.com/alfabank']",,,2024-06-24 12:14:37
18,147940348096,Альфа-Банк,"Зелёный просп., 62А, Москва",alfabank.ru,"'mon': 10:00-22:00, 'tue': 10:00-22:00, 'wed': 10:00-22:00, 'thu': 10:00-22:00, 'fri': 10:00-22:00, 'sat': 10:00-22:00, 'sun': 10:00-22:00",55.750834,37.820331,,['8 (800) 200-00-00Показать телефон'],"['https://ok.ru/alfabank', 'https://t.me/alfabank', 'https://vk.com/alfabank']",,,2024-06-24 12:14:37
19,3605216224,Альфа-Банк,"ул. Красного Маяка, 2Б, Москва",alfabank.ru,"'mon': 10:00-22:00, 'tue': 10:00-22:00, 'wed': 10:00-22:00, 'thu': 10:00-22:00, 'fri': 10:00-22:00, 'sat': 10:00-22:00, 'sun': 10:00-22:00",55.611119,37.606622,,['8 (800) 200-00-00Показать телефон'],"['https://ok.ru/alfabank', 'https://t.me/alfabank', 'https://vk.com/alfabank']",,,2024-06-24 12:14:37
20,1790713052,Альфа-Банк,"Заневский просп., 67, корп. 3, Санкт-Петербург",alfabank.ru,"'mon': 10:00-22:00, 'tue': 10:00-22:00, 'wed': 10:00-22:00, 'thu': 10:00-22:00, 'fri': 10:00-22:00, 'sat': 10:00-22:00, 'sun': 10:00-22:00",59.932684,30.438598,,['8 (800) 200-00-00Показать телефон'],"['https://ok.ru/alfabank', 'https://t.me/alfabank', 'https://vk.com/alfabank']",,,2024-06-24 12:14:37
21,1751929721,Альфа-Банк,"просп. Маршала Жукова, 100Б, Волгоград",alfabank.ru,"'mon': 08:00-23:00, 'tue': 08:00-23:00, 'wed': 08:00-23:00, 'thu': 08:00-23:00, 'fri': 08:00-23:00, 'sat': 08:00-23:00, 'sun': 08:00-23:00",48.745799,44.489496,,['8 (800) 200-00-00Показать телефон'],"['https://ok.ru/alfabank', 'https://t.me/alfabank', 'https://vk.com/alfabank']",,,2024-06-24 12:14:37
22,237020969917,Альфа-Банк,"Кавказский бул., 57, Москва",alfabank.ru,"'mon': 09:00-20:00, 'tue': 09:00-20:00, 'wed': 09:00-20:00, 'thu': 09:00-20:00, 'fri': 09:00-20:00, 'sat': 09:00-20:00, 'sun': 09:00-20:00",55.628871,37.633742,,['8 (800) 200-00-00Показать телефон'],"['https://ok.ru/alfabank', 'https://t.me/alfabank', 'https://vk.com/alfabank']",,,2024-06-24 12:14:37
23,13759452098,Альфа-Банк,"ул. Савушкина, 116, Санкт-Петербург",alfabank.ru,"'mon': 00:00-23:59, 'tue': 00:00-23:59, 'wed': 00:00-23:59, 'thu': 00:00-23:59, 'fri': 00:00-23:59, 'sat': 00:00-23:59, 'sun': 00:00-23:59",59.985998,30.218365,,['8 (800) 200-00-00Показать телефон'],"['https://ok.ru/alfabank', 'https://t.me/alfabank', 'https://vk.com/alfabank']",,,2024-06-24 12:14:37
24,48149710278,Альфа-Банк,"просп. Ленина, 12, Конаково",alfabank.ru,"'mon': 10:00-19:00, 'tue': 10:00-19:00, 'wed': 10:00-19:00, 'thu': 10:00-19:00, 'fri': 10:00-19:00, 'sat': выходной, 'sun': выходной",56.714927,36.774099,,['8 (800) 200-00-00Показать телефон'],"['https://ok.ru/alfabank', 'https://t.me/alfabank', 'https://vk.com/alfabank']",,,2024-06-24 12:14:37
25,1117693830,Альфа-Банк,"ул. Сулимова, 50, Екатеринбург",alfabank.ru,"'mon': 10:00-22:00, 'tue': 10:00-22:00, 'wed': 10:00-22:00, 'thu': 10:00-22:00, 'fri': 10:00-22:00, 'sat': 10:00-22:00, 'sun': 10:00-22:00",56.863488,60.630766,,['8 (800) 200-00-00Показать телефон'],"['https://ok.ru/alfabank', 'https://t.me/AlfaBank', 'https://vk.com/alfabank']",,,2024-06-24 12:14:37
26,90954709075,Альфа-Банк,"ул. Авиаконструктора Микояна, 12, Москва",alfabank.ru,"'mon': 00:00-23:59, 'tue': 00:00-23:59, 'wed': 00:00-23:59, 'thu': 00:00-23:59, 'fri': 00:00-23:59, 'sat': 00:00-23:59, 'sun': 00:00-23:59",55.792362,37.527615,,['8 (800) 200-00-00Показать телефон'],"['https://ok.ru/alfabank', 'https://t.me/alfabank', 'https://vk.com/alfabank']",,,2024-06-24 12:14:37
27,1734391175,Альфа-Банк,"просп. Космонавтов, 86, Екатеринбург",alfabank.ru,"'mon': 09:00-21:00, 'tue': 09:00-21:00, 'wed': 09:00-21:00, 'thu': 09:00-21:00, 'fri': 09:00-21:00, 'sat': 09:00-21:00, 'sun': 09:00-21:00",56.906497,60.614848,,['8 (800) 200-00-00Показать телефон'],"['https://ok.ru/alfabank', 'https://t.me/alfabank', 'https://vk.com/alfabank']",,,2024-06-24 12:14:37
28,113822699143,Альфа-Банк,"просп. Наставников, 35, корп. 1, Санкт-Петербург",alfabank.ru,"'mon': 09:00-23:00, 'tue': 09:00-23:00, 'wed': 09:00-23:00, 'thu': 09:00-23:00, 'fri': 09:00-23:00, 'sat': 09:00-23:00, 'sun': 09:00-23:00",59.950245,30.488237,,['8 (800) 200-00-00Показать телефон'],"['https://ok.ru/alfabank', 'https://t.me/alfabank', 'https://vk.com/alfabank']",,,2024-06-24 12:14:37
29,243972568425,Альфа-Банк,"ул. Металлургов, 62А, Тула",alfabank.ru,"'mon': 10:00-20:00, 'tue': 10:00-20:00, 'wed': 10:00-20:00, 'thu': 10:00-20:00, 'fri': 10:00-20:00, 'sat': 10:00-20:00, 'sun': 10:00-20:00",54.191879,37.688486,,['8 (800) 200-00-00Показать телефон'],"['https://ok.ru/alfabank', 'https://t.me/alfabank', 'https://vk.com/alfabank']",,,2024-06-24 12:14:37
30,1795225222,Альфа-Банк,"Парковая ул., с2, Лыткарино",alfabank.ru,"'mon': 10:00-22:00, 'tue': 10:00-22:00, 'wed': 10:00-22:00, 'thu': 10:00-22:00, 'fri': 10:00-22:00, 'sat': 10:00-22:00, 'sun': 10:00-22:00",55.582014,37.912228,,['+7 (495) 788-88-78Показать телефон'],"['https://ok.ru/alfabank', 'https://t.me/alfabank', 'https://vk.com/alfabank']",,,2024-06-24 12:14:37
31,1139981591,Альфа-Банк,"просп. Победы, 1Ж, Новокуйбышевск",alfabank.ru,"'mon': 10:00-22:00, 'tue': 10:00-22:00, 'wed': 10:00-22:00, 'thu': 10:00-22:00, 'fri': 10:00-22:00, 'sat': 10:00-22:00, 'sun': 10:00-22:00",53.101778,49.958574,,['8 (800) 200-00-00Показать телефон'],"['https://ok.ru/alfabank', 'https://t.me/alfabank', 'https://vk.com/alfabank']",,,2024-06-24 12:14:37
32,87491480020,Альфа-Банк,"Лесная ул., 12, микрорайон Юбилейный, Королёв",alfabank.ru,"'mon': 08:00-23:00, 'tue': 08:00-23:00, 'wed': 08:00-23:00, 'thu': 08:00-23:00, 'fri': 08:00-23:00, 'sat': 08:00-23:00, 'sun': 08:00-23:00",55.933953,37.843203,,['8 (800) 200-00-00Показать телефон'],"['https://ok.ru/alfabank', 'https://t.me/alfabank', 'https://vk.com/alfabank']",,,2024-06-24 12:14:37
33,1007169421,Альфа-Банк,"Московский просп., 44, Санкт-Петербург",alfabank.ru,"'mon': 00:00-23:59, 'tue': 00:00-23:59, 'wed': 00:00-23:59, 'thu': 00:00-23:59, 'fri': 00:00-23:59, 'sat': 00:00-23:59, 'sun': 00:00-23:59",59.912483,30.319521,,['8 (800) 200-00-00Показать телефон'],"['https://ok.ru/alfabank', 'https://t.me/alfabank', 'https://vk.com/alfabank']",,,2024-06-24 12:14:37
34,1388352424,Альфа-Банк,"Озёрная ул., 42, Москва",alfabank.ru,"'mon': 09:00-22:00, 'tue': 09:00-22:00, 'wed': 09:00-22:00, 'thu': 09:00-22:00, 'fri': 09:00-22:00, 'sat': 09:00-22:00, 'sun': 09:00-22:00",55.671431,37.446324,,['8 (800) 200-00-00Показать телефон'],"['https://ok.ru/alfabank', 'https://t.me/alfabank', 'https://vk.com/alfabank']",,,2024-06-24 12:14:37
35,17940138785,Альфа-Банк,"Дмитровское ш., 73, стр. 2, Москва",alfabank.ru,"'mon': 10:00-22:00, 'tue': 10:00-22:00, 'wed': 10:00-22:00, 'thu': 10:00-22:00, 'fri': 10:00-22:00, 'sat': 10:00-22:00, 'sun': 10:00-22:00",55.856876,37.559092,,['8 (800) 200-00-00Показать телефон'],"['https://ok.ru/alfabank', 'https://t.me/alfabank', 'https://vk.com/alfabank']",,,2024-06-24 12:14:37
36,141610314224,Альфа-Банк,"просп. Металлургов, 32, Новокузнецк",alfabank.ru,"'mon': 00:00-23:59, 'tue': 00:00-23:59, 'wed': 00:00-23:59, 'thu': 00:00-23:59, 'fri': 00:00-23:59, 'sat': 00:00-23:59, 'sun': 00:00-23:59",53.759246,87.118957,,['8 (800) 200-00-00Показать телефон'],"['https://ok.ru/alfabank', 'https://t.me/alfabank', 'https://vk.com/alfabank']",,,2024-06-24 12:14:37
37,103738470679,Альфа-Банк,"ул. Генерала Белова, 35, Москва",alfabank.ru,"'mon': 00:00-23:59, 'tue': 00:00-23:59, 'wed': 00:00-23:59, 'thu': 00:00-23:59, 'fri': 00:00-23:59, 'sat': 00:00-23:59, 'sun': 00:00-23:59",55.610830,37.723951,,['8 (800) 200-00-00Показать телефон'],"['https://ok.ru/alfabank', 'https://t.me/alfabank', 'https://vk.com/alfabank']",,,2024-06-24 12:14:37
38,80298967181,Альфа-Банк,"Аксайский просп., 23, Аксай",alfabank.ru,"'mon': 00:00-23:59, 'tue': 00:00-23:59, 'wed': 00:00-23:59, 'thu': 00:00-23:59, 'fri': 00:00-23:59, 'sat': 00:00-23:59, 'sun': 00:00-23:59",47.290057,39.846535,,['8 (800) 200-00-00Показать телефон'],"['https://ok.ru/alfabank', 'https://t.me/alfabank', 'https://vk.com/alfabank']",,,2024-06-24 12:14:37
39,245494862531,Альфа-Банк,"Каширское ш., 14, Москва",alfabank.ru,"'mon': 08:00-23:00, 'tue': 08:00-23:00, 'wed': 08:00-23:00, 'thu': 08:00-23:00, 'fri': 08:00-23:00, 'sat': 08:00-23:00, 'sun': 08:00-23:00",55.664457,37.627059,,['8 (800) 200-00-00Показать телефон'],"['https://ok.ru/alfabank', 'https://t.me/alfabank', 'https://vk.com/alfabank']",,,2024-06-24 12:14:37
40,1706334343,Альфа-Банк,"ул. Тургеневское ш., 27, аул Новая Адыгея",alfabank.ru,"'mon': 10:00-22:00, 'tue': 10:00-22:00, 'wed': 10:00-22:00, 'thu': 10:00-22:00, 'fri': 10:00-22:00, 'sat': 10:00-22:00, 'sun': 10:00-22:00",45.013103,38.929103,,['8 (800) 200-00-00Показать телефон'],"['https://ok.ru/alfabank', 'https://t.me/alfabank', 'https://vk.com/alfabank']",,,2024-06-24 12:14:37
41,1745471990,Альфа-Банк,"3-я Дачная ул., 1, Саратов",alfabank.ru,"'mon': 08:00-23:00, 'tue': 08:00-23:00, 'wed': 08:00-23:00, 'thu': 08:00-23:00, 'fri': 08:00-23:00, 'sat': 08:00-23:00, 'sun': 08:00-23:00",51.576834,45.973059,,['8 (800) 200-00-00Показать телефон'],"['https://ok.ru/alfabank', 'https://t.me/alfabank', 'https://vk.com/alfabank']",,,2024-06-24 12:14:37
42,1756373432,Альфа-Банк,"Звёздная ул., 1, Санкт-Петербург",alfabank.ru,"'mon': 10:00-22:00, 'tue': 10:00-22:00, 'wed': 10:00-22:00, 'thu': 10:00-22:00, 'fri': 10:00-22:00, 'sat': 10:00-22:00, 'sun': 10:00-22:00",59.831680,30.345395,,['8 (800) 200-00-00Показать телефон'],"['https://ok.ru/alfabank', 'https://t.me/alfabank', 'https://vk.com/alfabank']",,,2024-06-24 12:14:37
43,24625190488,Альфа-Банк,"Дмитровское ш., 2Б, стр. 1, д. Шолохово",alfabank.ru,"'mon': 00:00-23:59, 'tue': 00:00-23:59, 'wed': 00:00-23:59, 'thu': 00:00-23:59, 'fri': 00:00-23:59, 'sat': 00:00-23:59, 'sun': 00:00-23:59",56.056242,37.531298,,['8 (800) 200-00-00Показать телефон'],"['https://ok.ru/alfabank', 'https://t.me/alfabank', 'https://vk.com/alfabank']",,,2024-06-24 12:14:37
44,1186380460,Альфа-Банк,"Бухарестская ул., 30, Санкт-Петербург",alfabank.ru,"'mon': 10:00-22:00, 'tue': 10:00-22:00, 'wed': 10:00-22:00, 'thu': 10:00-22:00, 'fri': 10:00-22:00, 'sat': 10:00-22:00, 'sun': 10:00-22:00",59.883616,30.369570,,['8 (800) 200-00-00Показать телефон'],"['https://ok.ru/alfabank', 'https://t.me/alfabank', 'https://vk.com/alfabank']",,,2024-06-24 12:14:37
45,101868773881,Альфа-Банк,"бул. Ветеранов, с2, Мытищи",alfabank.ru,"'mon': 09:00-21:00, 'tue': 09:00-21:00, 'wed': 09:00-21:00, 'thu': 09:00-21:00, 'fri': 09:00-21:00, 'sat': 09:00-21:00, 'sun': 09:00-21:00",55.909531,37.720027,,['8 (800) 200-00-00Показать телефон'],"['https://ok.ru/alfabank', 'https://t.me/alfabank', 'https://vk.com/alfabank']",,,2024-06-24 12:14:37
46,1245867523,Альфа-Банк,"просп. Ленина, 48, Новороссийск",alfabank.ru,"'mon': 08:00-23:00, 'tue': 08:00-23:00, 'wed': 08:00-23:00, 'thu': 08:00-23:00, 'fri': 08:00-23:00, 'sat': 08:00-23:00, 'sun': 08:00-23:00",44.692003,37.789294,,['8 (800) 200-00-00Показать телефон'],"['https://ok.ru/alfabank', 'https://t.me/alfabank', 'https://vk.com/alfabank']",,,2024-06-24 12:14:37
47,112746658033,Альфа-Банк,"Шарикоподшипниковская ул., 11, стр. 5, Москва",alfabank.ru,"'mon': 08:00-23:00, 'tue': 08:00-23:00, 'wed': 08:00-23:00, 'thu': 08:00-23:00, 'fri': 08:00-23:00, 'sat': 08:00-23:00, 'sun': 08:00-23:00",55.718568,37.676807,,['8 (800) 200-00-00Показать телефон'],"['https://ok.ru/alfabank', 'https://t.me/alfabank', 'https://vk.com/alfabank']",,,2024-06-24 12:14:37
48,34174699959,Альфа-Банк,"ул. Черняховского, 40, Екатеринбург",alfabank.ru,"'mon': 08:00-23:00, 'tue': 08:00-23:00, 'wed': 08:00-23:00, 'thu': 08:00-23:00, 'fri': 08:00-23:00, 'sat': 09:00-23:00, 'sun': 09:00-23:00",56.752575,60.706637,,['8 (800) 200-00-00Показать телефон'],"['https://ok.ru/alfabank', 'https://t.me/alfabank', 'https://vk.com/alfabank']",,,2024-06-24 12:14:37
49,40710975652,Альфа-Банк,"ул. Декабристов, 129, Казань",alfabank.ru,"'mon': 00:00-23:59, 'tue': 00:00-23:59, 'wed': 00:00-23:59, 'thu': 00:00-23:59, 'fri': 00:00-23:59, 'sat': 00:00-23:59, 'sun': 00:00-23:59",55.826761,49.083426,,['8 (800) 200-00-00Показать телефон'],"['https://ok.ru/alfabank', 'https://t.me/alfabank', 'https://vk.com/alfabank']",,,2024-06-24 12:14:37
50,1806717031,Альфа-Банк,"Можайское ш., 32, Москва",alfabank.ru,"'mon': 00:00-23:59, 'tue': 00:00-23:59, 'wed': 00:00-23:59, 'thu': 00:00-23:59, 'fri': 00:00-23:59, 'sat': 00:00-23:59, 'sun': 00:00-23:59",55.719627,37.418505,,['8 (800) 200-00-00Показать телефон'],"['https://ok.ru/alfabank', 'https://t.me/alfabank', 'https://vk.com/alfabank']",,,2024-06-24 12:14:37
51,133948245174,Альфа-Банк,"1А, Южный административный округ, район Чертаново Северное, микрорайон Северное Чертаново, Москва",alfabank.ru,"'mon': 10:00-22:00, 'tue': 10:00-22:00, 'wed': 10:00-22:00, 'thu': 10:00-22:00, 'fri': 10:00-22:00, 'sat': 10:00-22:00, 'sun': 10:00-22:00",55.636738,37.598968,,['8 (800) 200-00-00Показать телефон'],"['https://ok.ru/alfabank', 'https://t.me/alfabank', 'https://vk.com/alfabank']",,,2024-06-24 12:14:37
52,1638482658,Альфа-Банк,"просп. Ветеранов, 101, Санкт-Петербург",alfabank.ru,"'mon': 00:00-23:59, 'tue': 00:00-23:59, 'wed': 00:00-23:59, 'thu': 00:00-23:59, 'fri': 00:00-23:59, 'sat': 00:00-23:59, 'sun': 00:00-23:59",59.834140,30.204836,,['8 (800) 200-00-00Показать телефон'],"['https://ok.ru/alfabank', 'https://t.me/alfabank', 'https://vk.com/alfabank']",,,2024-06-24 12:14:37
53,1323072212,Альфа-Банк,"МКАД, 41-й километр, с1, Москва",alfabank.ru,"'mon': 10:00-00:00, 'tue': 10:00-00:00, 'wed': 10:00-00:00, 'thu': 10:00-00:00, 'fri': 10:00-00:00, 'sat': 10:00-00:00, 'sun': 10:00-00:00",55.604483,37.489527,,['8 (800) 200-00-00Показать телефон'],"['https://ok.ru/alfabank', 'https://t.me/alfabank', 'https://vk.com/alfabank']",,,2024-06-24 12:14:37
54,52153247464,Альфа-Банк,"Московский просп., 129, Ярославль",alfabank.ru,"'mon': 00:00-23:59, 'tue': 00:00-23:59, 'wed': 00:00-23:59, 'thu': 00:00-23:59, 'fri': 00:00-23:59, 'sat': 00:00-23:59, 'sun': 00:00-23:59",57.594367,39.867691,,['8 (800) 200-00-00Показать телефон'],"['https://ok.ru/alfabank', 'https://t.me/alfabank', 'https://vk.com/alfabank']",,,2024-06-24 12:14:37
55,38628356708,Альфа-Банк,"Таганская ул., 2, Москва",alfabank.ru,"'mon': 09:00-21:00, 'tue': 09:00-21:00, 'wed': 09:00-21:00, 'thu': 09:00-21:00, 'fri': 09:00-21:00, 'sat': 09:00-21:00, 'sun': 09:00-21:00",55.740887,37.657691,,['8 (800) 200-00-00Показать телефон'],"['https://ok.ru/alfabank', 'https://t.me/alfabank', 'https://vk.com/alfabank']",,,2024-06-24 12:14:37
56,1227990416,Альфа-Банк,"просп. Победы, 33А, Каменск-Уральский",alfabank.ru,"'mon': 08:00-00:00, 'tue': 08:00-00:00, 'wed': 08:00-00:00, 'thu': 08:00-00:00, 'fri': 08:00-00:00, 'sat': 08:00-00:00, 'sun': 08:00-00:00",56.422923,61.914746,,['8 (800) 200-00-00Показать телефон'],"['https://ok.ru/alfabank', 'https://t.me/alfabank', 'https://vk.com/alfabank']",,,2024-06-24 12:14:37
57,108576864779,Альфа-Банк,"ул. Кадырова, 1, Москва",alfabank.ru,"'mon': 09:00-23:00, 'tue': 09:00-23:00, 'wed': 09:00-23:00, 'thu': 09:00-23:00, 'fri': 09:00-23:00, 'sat': 09:00-23:00, 'sun': 09:00-23:00",55.537307,37.512397,,['8 (800) 200-00-00Показать телефон'],"['https://ok.ru/alfabank', 'https://t.me/alfabank', 'https://vk.com/alfabank']",,,2024-06-24 12:14:37
58,1700395753,Альфа-Банк,"Новорязанское ш., 8, стр. 2, Котельники",alfabank.ru,"'mon': 10:00-22:00, 'tue': 10:00-22:00, 'wed': 10:00-22:00, 'thu': 10:00-22:00, 'fri': 10:00-22:00, 'sat': 10:00-22:00, 'sun': 10:00-22:00",55.661191,37.879072,,['8 (800) 200-00-00Показать телефон'],"['https://ok.ru/alfabank', 'https://t.me/alfabank', 'https://vk.com/alfabank']",,,2024-06-24 12:14:37
59,118048034381,Альфа-Банк,"ул. Шевченко, 11А, Калининград",alfabank.ru,"'mon': 10:00-20:00, 'tue': 10:00-20:00, 'wed': 10:00-20:00, 'thu': 10:00-20:00, 'fri': 10:00-20:00, 'sat': 10:00-18:00, 'sun': выходной",54.711619,20.511044,,['8 (800) 200-00-00Показать телефон'],"['http://vk.com/alfabank', 'https://ok.ru/alfabank', 'https://t.me/alfabank']",,,2024-06-24 12:14:37
60,1786936461,Альфа-Банк,"Аэродромная ул., 47А, Самара",alfabank.ru,"'mon': 08:00-00:00, 'tue': 08:00-00:00, 'wed': 08:00-00:00, 'thu': 08:00-00:00, 'fri': 08:00-00:00, 'sat': 08:00-00:00, 'sun': 08:00-00:00",53.191330,50.188929,,['8 (800) 200-00-00Показать телефон'],"['https://ok.ru/alfabank', 'https://t.me/alfabank', 'https://vk.com/alfabank']",,,2024-06-24 12:14:37
61,1330470371,Альфа-Банк,"Южное ш., 35, Нижний Новгород",alfabank.ru,"'mon': 08:00-22:00, 'tue': 08:00-22:00, 'wed': 08:00-22:00, 'thu': 08:00-22:00, 'fri': 08:00-22:00, 'sat': 08:00-22:00, 'sun': 08:00-22:00",56.227945,43.863675,,['8 (800) 200-00-00Показать телефон'],"['https://ok.ru/alfabank', 'https://t.me/alfabank', 'https://vk.com/alfabank']",,,2024-06-24 12:14:37
62,197783268953,Альфа-Банк,"Приреченская ул., 2/5, п. г. т. Сириус",alfabank.ru,"'mon': 00:00-23:59, 'tue': 00:00-23:59, 'wed': 00:00-23:59, 'thu': 00:00-23:59, 'fri': 00:00-23:59, 'sat': 00:00-23:59, 'sun': 00:00-23:59",43.423534,39.935334,,['8 (800) 200-00-00Показать телефон'],"['https://ok.ru/alfabank', 'https://t.me/alfabank', 'https://vk.com/alfabank']",,,2024-06-24 12:14:37
63,54673437616,Альфа-Банк,"Космический просп., 17Б, посёлок Чкаловский, Омск",alfabank.ru,"'mon': 08:00-22:00, 'tue': 08:00-22:00, 'wed': 08:00-22:00, 'thu': 08:00-22:00, 'fri': 08:00-22:00, 'sat': 08:00-22:00, 'sun': 08:00-22:00",54.968918,73.447084,,['8 (800) 200-00-00Показать телефон'],"['http://vk.com/alfabank', 'https://ok.ru/alfabank', 'https://t.me/alfabank']",,,2024-06-24 12:14:37
64,1795635897,Альфа-Банк,"Ярцевская ул., 19, Москва",alfabank.ru,"'mon': 08:00-00:00, 'tue': 08:00-00:00, 'wed': 08:00-00:00, 'thu': 08:00-00:00, 'fri': 08:00-00:00, 'sat': 08:00-00:00, 'sun': 08:00-00:00",55.738596,37.411013,,['8 (800) 200-00-00Показать телефон'],"['https://ok.ru/alfabank', 'https://t.me/alfabank', 'https://vk.com/alfabank']",,,2024-06-24 12:14:37
65,194237430912,Альфа-Банк,"Советская ул., 9, Одинцово",alfabank.ru,"'mon': 10:00-21:00, 'tue': 10:00-21:00, 'wed': 10:00-21:00, 'thu': 10:00-21:00, 'fri': 10:00-21:00, 'sat': 10:00-21:00, 'sun': 10:00-21:00",55.673269,37.277458,,['8 (800) 200-00-00Показать телефон'],"['https://ok.ru/alfabank', 'https://t.me/alfabank', 'https://vk.com/alfabank']",,,2024-06-24 12:14:37
66,1592710811,Альфа-Банк,"1-я Останкинская ул., 55, Москва",alfabank.ru,"'mon': 10:00-22:00, 'tue': 10:00-22:00, 'wed': 10:00-22:00, 'thu': 10:00-22:00, 'fri': 10:00-22:00, 'sat': 10:00-22:00, 'sun': 10:00-22:00",55.824258,37.634524,,['8 (800) 200-00-00Показать телефон'],"['https://ok.ru/alfabank', 'https://t.me/alfabank', 'https://vk.com/alfabank']",,,2024-06-24 12:14:37
67,117892941214,Альфа-Банк,"ул. Наркомвод, 3, Жуковский",alfabank.ru,"'mon': 00:00-23:59, 'tue': 00:00-23:59, 'wed': 00:00-23:59, 'thu': 00:00-23:59, 'fri': 00:00-23:59, 'sat': 00:00-23:59, 'sun': 00:00-23:59",55.561976,38.118078,,['8 (800) 200-00-00Показать телефон'],"['https://ok.ru/alfabank', 'https://t.me/alfabank', 'https://vk.com/alfabank']",,,2024-06-24 12:14:37
68,1708784369,Альфа-Банк,"Митинская ул., 51, Москва",alfabank.ru,"'mon': 09:00-22:00, 'tue': 09:00-22:00, 'wed': 09:00-22:00, 'thu': 09:00-22:00, 'fri': 09:00-22:00, 'sat': 09:00-22:00, 'sun': 09:00-22:00",55.852556,37.351805,,['8 (800) 200-00-00Показать телефон'],"['https://ok.ru/alfabank', 'https://t.me/alfabank', 'https://vk.com/alfabank']",,,2024-06-24 12:14:37
69,1166758359,Альфа-Банк,"просп. Мира, 91, корп. 2, Москва",alfabank.ru,"'mon': 00:00-23:59, 'tue': 00:00-23:59, 'wed': 00:00-23:59, 'thu': 00:00-23:59, 'fri': 00:00-23:59, 'sat': 00:00-23:59, 'sun': 00:00-23:59",55.806120,37.635440,,['8 (800) 200-00-00Показать телефон'],"['https://ok.ru/alfabank', 'https://t.me/alfabank', 'https://vk.com/alfabank']",,,2024-06-24 12:14:37
70,1319914264,Альфа-Банк,"ул. Мира, 33, Советский район, посёлок Дербышки, Казань",alfabank.ru,"'mon': 08:00-22:00, 'tue': 08:00-22:00, 'wed': 08:00-22:00, 'thu': 08:00-22:00, 'fri': 08:00-22:00, 'sat': 08:00-22:00, 'sun': 08:00-22:00",55.863667,49.222512,,['8 (800) 200-00-00Показать телефон'],"['https://ok.ru/alfabank', 'https://t.me/alfabank', 'https://vk.com/alfabank']",,,2024-06-24 12:14:37
71,132236990139,Альфа-Банк,"Большая Разночинная ул., 16, Санкт-Петербург",alfabank.ru,"'mon': 07:00-23:00, 'tue': 07:00-23:00, 'wed': 07:00-23:00, 'thu': 07:00-23:00, 'fri': 07:00-23:00, 'sat': 07:00-23:00, 'sun': 07:00-23:00",59.959472,30.289557,,['8 (800) 200-00-00Показать телефон'],"['https://ok.ru/alfabank', 'https://t.me/alfabank', 'https://vk.com/alfabank']",,,2024-06-24 12:14:37
72,10559127089,Альфа-Банк,"Крылатая ул., 2, жилой массив Пашковский, Краснодар",alfabank.ru,"'mon': 10:00-22:00, 'tue': 10:00-22:00, 'wed': 10:00-22:00, 'thu': 10:00-22:00, 'fri': 10:00-22:00, 'sat': 10:00-22:00, 'sun': 10:00-22:00",45.011440,39.122574,,['8 (800) 200-00-00Показать телефон'],"['https://ok.ru/alfabank', 'https://t.me/alfabank', 'https://vk.com/alfabank']",,,2024-06-24 12:14:37
73,1770970531,Альфа-Банк,"Светлановский просп., 40, корп. 1, Санкт-Петербург",alfabank.ru,"'mon': 00:00-23:59, 'tue': 00:00-23:59, 'wed': 00:00-23:59, 'thu': 00:00-23:59, 'fri': 00:00-23:59, 'sat': 00:00-23:59, 'sun': 00:00-23:59",60.023196,30.376559,,['8 (800) 200-00-00Показать телефон'],"['https://ok.ru/alfabank', 'https://t.me/alfabank', 'https://vk.com/alfabank']",,,2024-06-24 12:14:37
74,1780395307,Альфа-Банк,"Ленинский просп., 117, Воронеж",alfabank.ru,"'mon': 08:00-22:00, 'tue': 08:00-22:00, 'wed': 08:00-22:00, 'thu': 08:00-22:00, 'fri': 08:00-22:00, 'sat': 08:00-22:00, 'sun': 08:00-22:00",51.672193,39.251715,,['8 (800) 200-00-00Показать телефон'],"['https://ok.ru/alfabank', 'https://t.me/alfabank', 'https://vk.com/alfabank']",,,2024-06-24 12:14:37
75,1534371710,Альфа-Банк,"7-я линия Васильевского острова, 54, Санкт-Петербург",alfabank.ru,"'mon': 00:00-23:59, 'tue': 00:00-23:59, 'wed': 00:00-23:59, 'thu': 00:00-23:59, 'fri': 00:00-23:59, 'sat': 00:00-23:59, 'sun': 00:00-23:59",59.943616,30.277564,,['8 (800) 200-00-00Показать телефон'],"['https://ok.ru/alfabank', 'https://t.me/alfabank', 'https://vk.com/alfabank']",,,2024-06-24 12:14:37
76,1250319728,Альфа-Банк,"Алтуфьевское ш., 44, Москва",alfabank.ru,"'mon': 09:00-21:00, 'tue': 09:00-21:00, 'wed': 09:00-21:00, 'thu': 09:00-21:00, 'fri': 09:00-21:00, 'sat': выходной, 'sun': выходной",55.874622,37.587847,,['8 (800) 200-00-00Показать телефон'],"['https://ok.ru/alfabank', 'https://t.me/alfabank', 'https://vk.com/alfabank']",,,2024-06-24 12:14:37
77,1734929444,Альфа-Банк,"Привокзальная площадь, 1, Пушкин",alfabank.ru,"'mon': 00:00-23:59, 'tue': 00:00-23:59, 'wed': 00:00-23:59, 'thu': 00:00-23:59, 'fri': 00:00-23:59, 'sat': 00:00-23:59, 'sun': 00:00-23:59",59.722967,30.429254,,['8 (800) 200-00-00Показать телефон'],"['https://ok.ru/alfabank', 'https://t.me/alfabank', 'https://vk.com/alfabank']",,,2024-06-24 12:14:37
78,46871571564,Альфа-Банк,"ул. П.И. Смородина, 13А, Липецк",alfabank.ru,"'mon': 08:00-22:00, 'tue': 08:00-22:00, 'wed': 08:00-22:00, 'thu': 08:00-22:00, 'fri': 08:00-22:00, 'sat': 08:00-22:00, 'sun': 08:00-22:00",52.588675,39.535673,,['8 (800) 200-00-00Показать телефон'],"['https://ok.ru/alfabank', 'https://t.me/alfabank', 'https://vk.com/alfabank', 'https://www.youtube.com/channel/UCRKc2vCbyuaOYfo86L7g-sA']",,,2024-06-24 12:14:37
79,240399855804,Альфа-Банк,"Москва, Зеленоградский административный округ, Крюковская площадь, 1",alfabank.ru,"'mon': 08:00-22:00, 'tue': 08:00-22:00, 'wed': 08:00-22:00, 'thu': 08:00-22:00, 'fri': 08:00-22:00, 'sat': 08:00-22:00, 'sun': 08:00-22:00",55.982669,37.175008,,['8 (800) 200-00-00Показать телефон'],"['https://ok.ru/alfabank', 'https://t.me/alfabank', 'https://vk.com/alfabank']",,,2024-06-24 12:14:37
80,1148968250,Альфа-Банк,"Экспериментальная ул., 7, Пенза",alfabank.ru,"'mon': 09:00-21:00, 'tue': 09:00-21:00, 'wed': 09:00-21:00, 'thu': 09:00-21:00, 'fri': 09:00-21:00, 'sat': 09:00-21:00, 'sun': 09:00-21:00",53.131898,45.020912,,['8 (800) 200-00-00Показать телефон'],"['https://ok.ru/alfabank', 'https://t.me/alfabank', 'https://vk.com/alfabank']",,,2024-06-24 12:14:37
81,1232792809,Альфа-Банк,"ул. Побратимов, 7, Люберцы",alfabank.ru,"'mon': 10:00-22:00, 'tue': 10:00-22:00, 'wed': 10:00-22:00, 'thu': 10:00-22:00, 'fri': 10:00-22:00, 'sat': 10:00-22:00, 'sun': 10:00-22:00",55.692115,37.896401,,['8 (800) 200-00-00Показать телефон'],"['https://ok.ru/alfabank', 'https://t.me/alfabank', 'https://vk.com/alfabank']",,,2024-06-24 12:14:37
82,122074770698,Альфа-Банк,"Москва, поселение Воскресенское, Чечёрский проезд, 51",alfabank.ru,"'mon': 10:00-22:00, 'tue': 10:00-22:00, 'wed': 10:00-22:00, 'thu': 10:00-22:00, 'fri': 10:00-22:00, 'sat': 10:00-22:00, 'sun': 10:00-22:00",55.524432,37.517778,,['8 (800) 200-00-00Показать телефон'],"['https://ok.ru/alfabank', 'https://t.me/alfabank', 'https://vk.com/alfabank']",,,2024-06-24 12:14:37
83,234984367162,Альфа-Банк,"наб. Чёрной речки, 47, стр. 2, Санкт-Петербург",alfabank.ru,"'mon': 09:00-18:00, 'tue': 09:00-18:00, 'wed': 09:00-18:00, 'thu': 09:00-18:00, 'fri': 09:00-18:00, 'sat': выходной, 'sun': выходной",59.985570,30.307918,,['8 (800) 200-00-00Показать телефон'],"['https://ok.ru/alfabank', 'https://t.me/alfabank', 'https://vk.com/alfabank']",,,2024-06-24 12:14:37
84,1216248769,Альфа-Банк,"ул. Пришвина, 26, Москва",alfabank.ru,"'mon': 09:00-21:00, 'tue': 09:00-21:00, 'wed': 09:00-21:00, 'thu': 09:00-21:00, 'fri': 09:00-21:00, 'sat': 09:00-21:00, 'sun': 09:00-21:00",55.884722,37.603721,,['8 (800) 200-00-00Показать телефон'],"['https://ok.ru/alfabank', 'https://t.me/alfabank', 'https://vk.com/alfabank']",,,2024-06-24 12:14:37
85,1118508415,Альфа-Банк,"Опалихинская ул., 27, Екатеринбург",alfabank.ru,"'mon': 10:00-22:00, 'tue': 10:00-22:00, 'wed': 10:00-22:00, 'thu': 10:00-22:00, 'fri': 10:00-22:00, 'sat': 10:00-22:00, 'sun': 10:00-22:00",56.854079,60.559530,,['8 (800) 200-00-00Показать телефон'],"['https://ok.ru/alfabank', 'https://t.me/alfabank', 'https://vk.com/alfabank']",,,2024-06-24 12:14:37
86,144065590950,Альфа-Банк,"Лихачёвский просп., 64, Долгопрудный",alfabank.ru,"'mon': 10:00-22:00, 'tue': 10:00-22:00, 'wed': 10:00-22:00, 'thu': 10:00-22:00, 'fri': 10:00-22:00, 'sat': 10:00-22:00, 'sun': 10:00-22:00",55.931270,37.494377,,['8 (800) 200-00-00Показать телефон'],"['https://ok.ru/alfabank', 'https://t.me/alfabank', 'https://vk.com/alfabank']",,,2024-06-24 12:14:37
87,174360234966,Альфа-Банк,"ул. Вавилова, 63, Ростов-на-Дону",alfabank.ru,"'mon': 10:00-19:00, 'tue': 10:00-19:00, 'wed': 10:00-19:00, 'thu': 10:00-19:00, 'fri': 10:00-19:00, 'sat': 10:00-19:00, 'sun': 10:00-19:00",47.273271,39.685234,,['8 (800) 200-00-00Показать телефон'],"['https://ok.ru/alfabank', 'https://t.me/alfabank', 'https://vk.com/alfabank']",,,2024-06-24 12:14:37
88,1698575452,Альфа-Банк,"ул. 9 Января, 219А, Ижевск",alfabank.ru,"'mon': 09:00-23:00, 'tue': 09:00-23:00, 'wed': 09:00-23:00, 'thu': 09:00-23:00, 'fri': 09:00-23:00, 'sat': 09:00-23:00, 'sun': 09:00-23:00",56.878375,53.255642,,['8 (800) 200-00-00Показать телефон'],"['https://ok.ru/alfabank', 'https://t.me/alfabank', 'https://vk.com/alfabank']",,,2024-06-24 12:14:37
89,1107297072,Альфа-Банк,"Тверская ул., 58/6, Колпино",alfabank.ru,"'mon': 09:00-23:00, 'tue': 09:00-23:00, 'wed': 09:00-23:00, 'thu': 09:00-23:00, 'fri': 09:00-23:00, 'sat': 09:00-23:00, 'sun': 09:00-23:00",59.735042,30.612438,,['8 (800) 200-00-00Показать телефон'],"['https://ok.ru/alfabank', 'https://t.me/alfabank', 'https://vk.com/alfabank']",,,2024-06-24 12:14:37
90,1227412648,Альфа-Банк,"1-й Митинский пер., 12, корп. 1, Москва",alfabank.ru,"'mon': 09:00-21:00, 'tue': 09:00-21:00, 'wed': 09:00-21:00, 'thu': 09:00-21:00, 'fri': 09:00-21:00, 'sat': 09:00-21:00, 'sun': 09:00-21:00",55.845961,37.380731,,['8 (800) 200-00-00Показать телефон'],"['https://ok.ru/alfabank', 'https://t.me/alfabank', 'https://vk.com/alfabank']",,,2024-06-24 12:14:37
91,1076341767,Альфа-Банк,"ул. Бетанкура, 1, Нижний Новгород",alfabank.ru,"'mon': 10:00-22:00, 'tue': 10:00-22:00, 'wed': 10:00-22:00, 'thu': 10:00-22:00, 'fri': 10:00-22:00, 'sat': 10:00-22:00, 'sun': 10:00-22:00",56.339402,43.956211,,['8 (800) 200-00-00Показать телефон'],"['https://ok.ru/alfabank', 'https://t.me/alfabank', 'https://vk.com/alfabank']",,,2024-06-24 12:14:37
92,67586606297,Альфа-Банк,"ул. Энтузиастов, 34, Чебоксары",alfabank.ru,"'mon': 09:00-20:00, 'tue': 09:00-20:00, 'wed': 09:00-20:00, 'thu': 09:00-20:00, 'fri': 09:00-20:00, 'sat': 09:00-20:00, 'sun': 09:00-20:00",56.118792,47.183615,,['8 (800) 200-00-00Показать телефон'],"['https://ok.ru/alfabank', 'https://t.me/alfabank', 'https://vk.com/alfabank']",,,2024-06-24 12:14:37
93,12232279798,Альфа-Банк,"ул. Генерала Хазова, 14, Пушкин",alfabank.ru,"'mon': 08:00-22:00, 'tue': 08:00-22:00, 'wed': 08:00-22:00, 'thu': 08:00-22:00, 'fri': 08:00-22:00, 'sat': 08:00-22:00, 'sun': 08:00-22:00",59.738290,30.407658,,['8 (800) 200-00-00Показать телефон'],"['https://ok.ru/alfabank', 'https://t.me/alfabank', 'https://vk.com/alfabank']",,,2024-06-24 12:14:37
94,1264274430,Альфа-Банк,"ул. Героя Фильченкова, 10, Нижний Новгород",alfabank.ru,"'mon': 00:00-23:59, 'tue': 00:00-23:59, 'wed': 00:00-23:59, 'thu': 00:00-23:59, 'fri': 00:00-23:59, 'sat': 00:00-23:59, 'sun': 00:00-23:59",56.320218,43.946338,,['8 (800) 200-00-00Показать телефон'],"['https://ok.ru/alfabank', 'https://t.me/alfabank', 'https://vk.com/alfabank']",,,2024-06-24 12:14:37
95,233949905640,Альфа-Банк,"Пулковское ш., 41, лит.ЗА, Санкт-Петербург",alfabank.ru,"'mon': 00:00-23:59, 'tue': 00:00-23:59, 'wed': 00:00-23:59, 'thu': 00:00-23:59, 'fri': 00:00-23:59, 'sat': 00:00-23:59, 'sun': 00:00-23:59",59.799987,30.271195,,['8 (800) 200-00-00Показать телефон'],"['https://ok.ru/alfabank', 'https://t.me/alfabank', 'https://vk.com/alfabank']",,,2024-06-24 12:14:37
96,130143253547,Альфа-Банк,"просп. Космонавтов, 6В, Барнаул",alfabank.ru,"'mon': 08:00-21:00, 'tue': 08:00-21:00, 'wed': 08:00-21:00, 'thu': 08:00-21:00, 'fri': 08:00-21:00, 'sat': 08:00-21:00, 'sun': 08:00-21:00",53.389198,83.732210,,['8 (800) 200-00-00Показать телефон'],"['https://ok.ru/alfabank', 'https://t.me/alfabank', 'https://vk.com/alfabank']",,,2024-06-24 12:14:37
97,1714868517,Альфа-Банк,"Ореховый бул., 15, Москва",alfabank.ru,"'mon': 10:00-22:00, 'tue': 10:00-22:00, 'wed': 10:00-22:00, 'thu': 10:00-22:00, 'fri': 10:00-22:00, 'sat': 10:00-22:00, 'sun': 10:00-22:00",55.612838,37.719918,,['8 (800) 200-00-00Показать телефон'],"['https://ok.ru/alfabank', 'https://t.me/alfabank', 'https://vk.com/alfabank']",,,2024-06-24 12:14:37
98,1205848160,Альфа-Банк,"ул. Шаболовка, 10, Москва",alfabank.ru,"'mon': 10:00-22:00, 'tue': 10:00-22:00, 'wed': 10:00-22:00, 'thu': 10:00-22:00, 'fri': 10:00-22:00, 'sat': 10:00-22:00, 'sun': 10:00-22:00",55.723232,37.609793,,['8 (800) 200-00-00Показать телефон'],"['https://ok.ru/alfabank', 'https://t.me/alfabank', 'https://vk.com/alfabank']",,,2024-06-24 12:14:37
99,174893983459,Альфа-Банк,"Ленинский просп., 54, Москва",alfabank.ru,"'mon': 10:00-22:00, 'tue': 10:00-22:00, 'wed': 10:00-22:00, 'thu': 10:00-22:00, 'fri': 10:00-22:00, 'sat': 10:00-22:00, 'sun': 10:00-22:00",55.697915,37.560376,,['8 (800) 200-00-00Показать телефон'],"['https://ok.ru/alfabank', 'https://t.me/alfabank', 'https://vk.com/alfabank']",,,2024-06-24 12:14:37
100,1734029402,Альфа-Банк,"ул. Героев Панфиловцев, 7, Москва",alfabank.ru,"'mon': 09:00-23:00, 'tue': 09:00-23:00, 'wed': 09:00-23:00, 'thu': 09:00-23:00, 'fri': 09:00-23:00, 'sat': 09:00-23:00, 'sun': 09:00-23:00",55.857144,37.432070,,['8 (800) 200-00-00Показать телефон'],"['https://ok.ru/alfabank', 'https://t.me/alfabank', 'https://vk.com/alfabank']",,,2024-06-24 12:14:37
101,200161420539,Альфа-Банк,"ул. Тельмана, 23В, Энгельс",alfabank.ru,"'mon': 00:00-23:59, 'tue': 00:00-23:59, 'wed': 00:00-23:59, 'thu': 00:00-23:59, 'fri': 00:00-23:59, 'sat': 00:00-23:59, 'sun': 00:00-23:59",51.488253,46.124093,,['8 (800) 200-00-00Показать телефон'],"['https://ok.ru/alfabank', 'https://t.me/alfabank', 'https://vk.com/alfabank']",,,2024-06-24 12:14:37
102,186593632796,Альфа-Банк,"Огородный пр., 10, Москва",alfabank.ru,"'mon': 10:00-22:00, 'tue': 10:00-22:00, 'wed': 10:00-22:00, 'thu': 10:00-22:00, 'fri': 10:00-22:00, 'sat': 10:00-22:00, 'sun': 10:00-22:00",55.813547,37.604026,,['8 (800) 200-00-00Показать телефон'],"['https://ok.ru/alfabank', 'https://t.me/alfabank', 'https://vk.com/alfabank']",,,2024-06-24 12:14:37
103,20793475417,Альфа-Банк,,alfabank.ru,"'mon': 08:00-23:00, 'tue': 08:00-23:00, 'wed': 08:00-23:00, 'thu': 08:00-23:00, 'fri': 08:00-23:00, 'sat': 08:00-23:00, 'sun': 08:00-23:00",56.718637,55.958727,,['8 (800) 200-00-00Показать телефон'],"['https://ok.ru/alfabank', 'https://t.me/alfabank', 'https://vk.com/alfabank']",,,2024-06-24 12:14:37
104,139837583838,Альфа-Банк,"Бирюлёвская ул., 51, Москва",alfabank.ru,"'mon': 07:30-00:00, 'tue': 07:30-00:00, 'wed': 07:30-00:00, 'thu': 07:30-00:00, 'fri': 07:30-00:00, 'sat': 07:30-00:00, 'sun': 07:30-00:00",55.582549,37.671246,,['8 (800) 200-00-00Показать телефон'],"['https://ok.ru/alfabank', 'https://t.me/alfabank', 'https://vk.com/alfabank']",,,2024-06-24 12:14:37
105,1696836122,Альфа-Банк,"Енисейская ул., 19, корп. 1, Москва",alfabank.ru,"'mon': 10:00-22:00, 'tue': 10:00-22:00, 'wed': 10:00-22:00, 'thu': 10:00-22:00, 'fri': 10:00-22:00, 'sat': 10:00-22:00, 'sun': 10:00-22:00",55.869269,37.663072,,['8 (800) 200-00-00Показать телефон'],"['https://ok.ru/alfabank', 'https://t.me/alfabank', 'https://vk.com/alfabank']",,,2024-06-24 12:14:37
106,70507341255,Альфа-Банк,"Школьная ул., 2, рабочий посёлок Нахабино",alfabank.ru,"'mon': 09:00-21:00, 'tue': 09:00-21:00, 'wed': 09:00-21:00, 'thu': 09:00-21:00, 'fri': 09:00-21:00, 'sat': 09:00-21:00, 'sun': 09:00-21:00",55.841812,37.145804,,['8 (800) 200-00-00Показать телефон'],"['https://ok.ru/alfabank', 'https://t.me/alfabank', 'https://vk.com/alfabank']",,,2024-06-24 12:14:37
107,10379652854,Альфа-Банк,"Советская ул., 194, Тамбов",alfabank.ru,"'mon': 10:00-22:00, 'tue': 10:00-22:00, 'wed': 10:00-22:00, 'thu': 10:00-22:00, 'fri': 10:00-22:00, 'sat': 10:00-22:00, 'sun': 10:00-22:00",52.754539,41.447144,,['8 (800) 200-00-00Показать телефон'],"['https://ok.ru/alfabank', 'https://t.me/alfabank', 'https://vk.com/alfabank']",,,2024-06-24 12:14:37
108,1782693628,Альфа-Банк,"ул. Маршала Чуйкова, 3, Москва",alfabank.ru,"'mon': 00:00-23:59, 'tue': 00:00-23:59, 'wed': 00:00-23:59, 'thu': 00:00-23:59, 'fri': 00:00-23:59, 'sat': 00:00-23:59, 'sun': 00:00-23:59",55.703885,37.764986,,['8 (800) 200-00-00Показать телефон'],"['https://ok.ru/alfabank', 'https://t.me/alfabank', 'https://vk.com/alfabank']",,,2024-06-24 12:14:37
109,1715303176,Альфа-Банк,"ул. Скворцова-Степанова, 7, Тверь",alfabank.ru,"'mon': 09:00-21:00, 'tue': 09:00-21:00, 'wed': 09:00-21:00, 'thu': 09:00-21:00, 'fri': 09:00-21:00, 'sat': 09:00-21:00, 'sun': 09:00-21:00",56.871158,35.887264,,['8 (800) 200-00-00Показать телефон'],"['https://ok.ru/alfabank', 'https://t.me/alfabank', 'https://vk.com/alfabank']",,,2024-06-24 12:14:37
110,38087246842,Альфа-Банк,"к1446, Зеленоград",alfabank.ru,"'mon': 08:00-00:00, 'tue': 08:00-00:00, 'wed': 08:00-00:00, 'thu': 08:00-00:00, 'fri': 08:00-00:00, 'sat': 08:00-00:00, 'sun': 08:00-00:00",55.984675,37.151720,,['8 (800) 200-00-00Показать телефон'],"['https://ok.ru/alfabank', 'https://t.me/alfabank', 'https://vk.com/alfabank']",,,2024-06-24 12:14:37
111,1756182813,Альфа-Банк,"Астраханская ул., 99, Анапа",alfabank.ru,"'mon': 10:00-22:00, 'tue': 10:00-22:00, 'wed': 10:00-22:00, 'thu': 10:00-22:00, 'fri': 10:00-22:00, 'sat': 10:00-22:00, 'sun': 10:00-22:00",44.880086,37.339148,,['8 (800) 200-00-00Показать телефон'],"['https://ok.ru/alfabank', 'https://t.me/alfabank', 'https://vk.com/alfabank']",0,0,2024-06-24 12:14:37
112,172007817947,Альфа-Банк,"ул. Мичурина, 1А, Волхов",alfabank.ru,"'mon': 10:00-22:00, 'tue': 10:00-22:00, 'wed': 10:00-22:00, 'thu': 10:00-22:00, 'fri': 10:00-22:00, 'sat': 10:00-22:00, 'sun': 10:00-22:00",59.891313,32.354406,,['8 (800) 200-00-00Показать телефон'],"['https://ok.ru/alfabank', 'https://t.me/alfabank', 'https://vk.com/alfabank']",,,2024-06-24 12:14:37
113,91697975507,Альфа-Банк,"ул. Лукашевича, 14, Омск",alfabank.ru,"'mon': 08:00-22:00, 'tue': 08:00-22:00, 'wed': 08:00-22:00, 'thu': 08:00-22:00, 'fri': 08:00-22:00, 'sat': 08:00-22:00, 'sun': 08:00-22:00",54.997357,73.274841,,['8 (800) 200-00-00Показать телефон'],"['https://ok.ru/alfabank', 'https://t.me/alfabank', 'https://vk.com/alfabank']",,,2024-06-24 12:14:37
114,1788613082,Альфа-Банк,"Дунайский просп., 31, корп. 1, Санкт-Петербург",alfabank.ru,"'mon': 00:00-23:59, 'tue': 00:00-23:59, 'wed': 00:00-23:59, 'thu': 00:00-23:59, 'fri': 00:00-23:59, 'sat': 00:00-23:59, 'sun': 00:00-23:59",59.834809,30.383628,,['8 (800) 200-00-00Показать телефон'],"['https://ok.ru/alfabank', 'https://t.me/alfabank', 'https://vk.com/alfabank']",,,2024-06-24 12:14:37
115,37780363436,Альфа-Банк,"Сормовская ул., 208, корп. 1, Краснодар",alfabank.ru,"'mon': 07:30-23:00, 'tue': 07:30-23:00, 'wed': 07:30-23:00, 'thu': 07:30-23:00, 'fri': 07:30-23:00, 'sat': 07:30-23:00, 'sun': 07:30-23:00",45.038993,39.112360,,['8 (800) 200-00-00Показать телефон'],"['https://ok.ru/alfabank', 'https://t.me/alfabank', 'https://vk.com/alfabank']",,,2024-06-24 12:14:37
116,1710026597,Альфа-Банк,"ул. 50 лет Октября, 12, Красногорск",alfabank.ru,"'mon': 09:00-22:00, 'tue': 09:00-22:00, 'wed': 09:00-22:00, 'thu': 09:00-22:00, 'fri': 09:00-22:00, 'sat': 09:00-22:00, 'sun': 09:00-22:00",55.817871,37.311076,,['8 (800) 200-00-00Показать телефон'],"['https://ok.ru/alfabank', 'https://t.me/alfabank', 'https://vk.com/alfabank']",,,2024-06-24 12:14:37
117,1055347942,Альфа-Банк,"ул. Маршала Бирюзова, 32, Москва",alfabank.ru,"'mon': 00:00-23:59, 'tue': 00:00-23:59, 'wed': 00:00-23:59, 'thu': 00:00-23:59, 'fri': 00:00-23:59, 'sat': 00:00-23:59, 'sun': 00:00-23:59",55.799588,37.483023,,['8 (800) 200-00-00Показать телефон'],"['https://ok.ru/alfabank', 'https://t.me/alfabank', 'https://vk.com/alfabank']",,,2024-06-24 12:14:37
118,1042029419,Альфа-Банк,"Комсомольская площадь, 2, Нижний Новгород",alfabank.ru,"'mon': 08:00-22:00, 'tue': 08:00-22:00, 'wed': 08:00-22:00, 'thu': 08:00-22:00, 'fri': 08:00-22:00, 'sat': 08:00-22:00, 'sun': 08:00-22:00",56.297104,43.946805,,['8 (800) 200-00-00Показать телефон'],"['https://ok.ru/alfabank', 'https://t.me/alfabank', 'https://vk.com/alfabank']",,,2024-06-24 12:14:37
119,241041013089,Альфа-Банк,"ул. Менжинского, 23, корп. 1, Москва",alfabank.ru,"'mon': 00:00-23:59, 'tue': 00:00-23:59, 'wed': 00:00-23:59, 'thu': 00:00-23:59, 'fri': 00:00-23:59, 'sat': 00:00-23:59, 'sun': 00:00-23:59",55.869764,37.660377,,['8 (800) 200-00-00Показать телефон'],"['https://ok.ru/alfabank', 'https://t.me/alfabank', 'https://vk.com/alfabank']",,,2024-06-24 12:14:37
120,12688553713,Альфа-Банк,"Шоссейная ул., 34, Москва",alfabank.ru,"'mon': 00:00-23:59, 'tue': 00:00-23:59, 'wed': 00:00-23:59, 'thu': 00:00-23:59, 'fri': 00:00-23:59, 'sat': 00:00-23:59, 'sun': 00:00-23:59",55.682483,37.722864,,['8 (800) 200-00-00Показать телефон'],"['https://ok.ru/alfabank', 'https://t.me/alfabank', 'https://vk.com/alfabank']",,,2024-06-24 12:14:37
121,1189544197,Альфа-Банк,"Комсомольская ул., 112, Уфа",alfabank.ru,"'mon': выходной, 'tue': выходной, 'wed': выходной, 'thu': выходной, 'fri': выходной, 'sat': выходной, 'sun': выходной",54.752516,56.008008,,['8 (800) 200-00-00Показать телефон'],"['https://ok.ru/alfabank', 'https://t.me/alfabank', 'https://vk.com/alfabank']",,,2024-06-24 12:14:37
122,1711360401,Альфа-Банк,"ул. Репина, 94, Екатеринбург",alfabank.ru,"'mon': 10:00-22:00, 'tue': 10:00-22:00, 'wed': 10:00-22:00, 'thu': 10:00-22:00, 'fri': 10:00-22:00, 'sat': 10:00-22:00, 'sun': 10:00-22:00",56.817183,60.538536,,['8 (800) 200-00-00Показать телефон'],"['https://ok.ru/alfabank', 'https://t.me/alfabank', 'https://vk.com/alfabank']",,,2024-06-24 12:14:37
123,167071406773,Альфа-Банк,"с20, 2-й микрорайон, рабочий посёлок Ржавки",alfabank.ru,"'mon': 10:00-22:00, 'tue': 10:00-22:00, 'wed': 10:00-22:00, 'thu': 10:00-22:00, 'fri': 10:00-22:00, 'sat': 10:00-22:00, 'sun': 10:00-22:00",55.998786,37.258687,,['8 (800) 200-00-00Показать телефон'],"['https://ok.ru/alfabank', 'https://t.me/alfabank', 'https://vk.com/alfabank']",,,2024-06-24 12:14:37
124,5104125267,Альфа-Банк,"Цветной бул., 15, стр. 1, Москва",alfabank.ru,"'mon': 10:00-22:00, 'tue': 10:00-22:00, 'wed': 10:00-22:00, 'thu': 10:00-22:00, 'fri': 10:00-22:00, 'sat': 10:00-22:00, 'sun': 11:00-22:00",55.771145,37.620177,,['8 (800) 200-00-00Показать телефон'],"['https://ok.ru/alfabank', 'https://t.me/alfabank', 'https://vk.com/alfabank']",,,2024-06-24 12:14:37
125,1349813737,Альфа-Банк,"Коломяжский просп., 17, корп. 1, Санкт-Петербург",alfabank.ru,"'mon': 00:00-23:59, 'tue': 00:00-23:59, 'wed': 00:00-23:59, 'thu': 00:00-23:59, 'fri': 00:00-23:59, 'sat': 00:00-23:59, 'sun': 00:00-23:59",60.005482,30.299060,,['8 (800) 200-00-00Показать телефон'],"['https://ok.ru/alfabank', 'https://t.me/alfabank', 'https://vk.com/alfabank']",,,2024-06-24 12:14:37
126,1691858716,Альфа-Банк,"9-я Парковая ул., 68, корп. 5, Москва",alfabank.ru,"'mon': 08:00-23:00, 'tue': 08:00-23:00, 'wed': 08:00-23:00, 'thu': 08:00-23:00, 'fri': 08:00-23:00, 'sat': 08:00-23:00, 'sun': 08:00-23:00",55.808118,37.799428,,['8 (800) 200-00-00Показать телефон'],"['https://ok.ru/alfabank', 'https://t.me/alfabank', 'https://vk.com/alfabank']",,,2024-06-24 12:14:37
127,113057875352,Альфа-Банк,,alfabank.ru,"'mon': 10:00-21:00, 'tue': 10:00-21:00, 'wed': 10:00-21:00, 'thu': 10:00-21:00, 'fri': 10:00-21:00, 'sat': 10:00-21:00, 'sun': 10:00-21:00",57.819276,28.332458,,['8 (800) 200-00-00Показать телефон'],"['https://ok.ru/alfabank', 'https://t.me/alfabank', 'https://vk.com/alfabank']",,,2024-06-24 12:14:37
128,1080166801,Альфа-Банк,"просп. Космонавтов, 2/2, микрорайон Северный, Ростов-на-Дону",alfabank.ru,"'mon': 10:00-22:00, 'tue': 10:00-22:00, 'wed': 10:00-22:00, 'thu': 10:00-22:00, 'fri': 10:00-22:00, 'sat': 10:00-22:00, 'sun': 10:00-22:00",47.281219,39.717555,,['8 (800) 200-00-00Показать телефон'],"['https://ok.ru/alfabank', 'https://t.me/alfabank', 'https://vk.com/alfabank']",,,2024-06-24 12:14:37
129,67842613694,Альфа-Банк,"Волжский бул., 7, Москва",alfabank.ru,"'mon': 08:00-23:00, 'tue': 08:00-23:00, 'wed': 08:00-23:00, 'thu': 08:00-23:00, 'fri': 08:00-23:00, 'sat': 08:00-23:00, 'sun': 08:00-23:00",55.716585,37.745708,,['8 (800) 200-00-00Показать телефон'],"['http://vk.com/alfabank', 'https://ok.ru/alfabank', 'https://t.me/alfabank']",,,2024-06-24 12:14:37
130,77475839779,Альфа-Банк,"Радиотехническая ул., 1А, корп. 2, Елец",alfabank.ru,"'mon': 09:00-22:00, 'tue': 09:00-22:00, 'wed': 09:00-22:00, 'thu': 09:00-22:00, 'fri': 09:00-22:00, 'sat': 09:00-22:00, 'sun': 09:00-22:00",52.609537,38.469750,,['8 (800) 200-00-00Показать телефон'],"['https://ok.ru/alfabank', 'https://t.me/alfabank', 'https://vk.com/alfabank']",,,2024-06-24 12:14:37
131,1046695686,Альфа-Банк,"Смольная ул., 24А, Москва",alfabank.ru,"'mon': 10:00-19:00, 'tue': 10:00-19:00, 'wed': 10:00-19:00, 'thu': 10:00-19:00, 'fri': 10:00-19:00, 'sat': 10:00-19:00, 'sun': 10:00-19:00",55.860565,37.483265,,['8 (800) 200-00-00Показать телефон'],"['https://ok.ru/alfabank', 'https://t.me/alfabank', 'https://vk.com/alfabank']",,,2024-06-24 12:14:37
132,144474829723,Альфа-Банк,"Россошанский пр., 3, Москва",alfabank.ru,"'mon': 00:00-23:59, 'tue': 00:00-23:59, 'wed': 00:00-23:59, 'thu': 00:00-23:59, 'fri': 00:00-23:59, 'sat': 00:00-23:59, 'sun': 00:00-23:59",55.600918,37.609272,,['8 (800) 200-00-00Показать телефон'],"['https://ok.ru/alfabank', 'https://t.me/alfabank', 'https://vk.com/alfabank']",,,2024-06-24 12:14:37
133,1096550179,Альфа-Банк,"Новосмоленская наб., 1Б, Санкт-Петербург",alfabank.ru,"'mon': 08:00-23:00, 'tue': 08:00-23:00, 'wed': 08:00-23:00, 'thu': 08:00-23:00, 'fri': 08:00-23:00, 'sat': 08:00-23:00, 'sun': 08:00-23:00",59.949231,30.229271,,['8 (800) 200-00-00Показать телефон'],"['https://ok.ru/alfabank', 'https://t.me/alfabank', 'https://vk.com/alfabank']",,,2024-06-24 12:14:37
134,1073691217,Альфа-Банк,"ул. Литвинова, 74, корп. 30, Нижний Новгород",alfabank.ru,"'mon': 08:00-19:00, 'tue': 08:00-19:00, 'wed': 08:00-19:00, 'thu': 08:00-19:00, 'fri': 08:00-19:00, 'sat': 08:00-19:00, 'sun': 08:00-19:00",56.315627,43.946976,,['8 (800) 200-00-00Показать телефон'],"['https://ok.ru/alfabank', 'https://t.me/alfabank', 'https://vk.com/alfabank']",,,2024-06-24 12:14:37
135,1682536518,Альфа-Банк,"Советская ул., 15, Новочебоксарск",alfabank.ru,"'mon': 09:00-20:00, 'tue': 09:00-20:00, 'wed': 09:00-20:00, 'thu': 09:00-20:00, 'fri': 09:00-20:00, 'sat': 09:00-20:00, 'sun': 09:00-20:00",56.116077,47.481497,,['8 (800) 200-00-00Показать телефон'],"['https://ok.ru/alfabank', 'https://t.me/alfabank', 'https://vk.com/alfabank']",,,2024-06-24 12:14:37
136,1170491658,Альфа-Банк,,alfabank.ru,"'mon': 08:00-23:00, 'tue': 08:00-23:00, 'wed': 08:00-23:00, 'thu': 08:00-23:00, 'fri': 08:00-23:00, 'sat': 08:00-23:00, 'sun': 08:00-23:00",56.998985,82.920430,,['8 (800) 200-00-00Показать телефон'],"['https://ok.ru/alfabank', 'https://t.me/alfabank', 'https://vk.com/alfabank']",,,2024-06-24 12:14:37
137,13891744776,Альфа-Банк,"Московская область, городской округ Домодедово, аэропорт Домодедово имени М.В. Ломоносова, 1",alfabank.ru,"'mon': 00:00-23:59, 'tue': 00:00-23:59, 'wed': 00:00-23:59, 'thu': 00:00-23:59, 'fri': 00:00-23:59, 'sat': 00:00-23:59, 'sun': 00:00-23:59",55.414077,37.899186,,['8 (800) 200-00-00Показать телефон'],"['https://ok.ru/alfabank', 'https://t.me/alfabank', 'https://vk.com/alfabank']",,,2024-06-24 12:14:37
138,49123422545,Альфа-Банк,"Вербная ул., 21, Санкт-Петербург",alfabank.ru,"'mon': 00:00-23:59, 'tue': 00:00-23:59, 'wed': 00:00-23:59, 'thu': 00:00-23:59, 'fri': 00:00-23:59, 'sat': 00:00-23:59, 'sun': 00:00-23:59",60.022544,30.293249,,['8 (800) 200-00-00Показать телефон'],"['https://ok.ru/alfabank', 'https://t.me/alfabank', 'https://vk.com/alfabank']",,,2024-06-24 12:14:37
139,1001873133,Альфа-Банк,"ул. Орджоникидзе, 23, Новосибирск",alfabank.ru,"'mon': 00:00-23:59, 'tue': 00:00-23:59, 'wed': 00:00-23:59, 'thu': 00:00-23:59, 'fri': 00:00-23:59, 'sat': 00:00-23:59, 'sun': 00:00-23:59",55.031257,82.917970,,['8 (800) 200-00-00Показать телефон'],"['https://ok.ru/alfabank', 'https://t.me/alfabank', 'https://vk.com/alfabank']",,,2024-06-24 12:14:37
140,1296244475,Альфа-Банк,"1, микрорайон ИКЕА, Химки",alfabank.ru,"'mon': 10:00-23:00, 'tue': 10:00-23:00, 'wed': 10:00-23:00, 'thu': 10:00-23:00, 'fri': 10:00-23:00, 'sat': 10:00-23:00, 'sun': 10:00-23:00",55.910876,37.396092,,['8 (800) 200-00-00Показать телефон'],"['https://ok.ru/alfabank', 'https://t.me/alfabank', 'https://vk.com/alfabank']",,,2024-06-24 12:14:37
141,1011221814,Альфа-Банк,"Ленинградский просп., 74, корп. 1, Москва",alfabank.ru,"'mon': 00:00-23:59, 'tue': 00:00-23:59, 'wed': 00:00-23:59, 'thu': 00:00-23:59, 'fri': 00:00-23:59, 'sat': 00:00-23:59, 'sun': 00:00-23:59",55.805133,37.516952,,['8 (800) 200-00-00Показать телефон'],"['https://ok.ru/alfabank', 'https://t.me/alfabank', 'https://vk.com/alfabank']",,,2024-06-24 12:14:37
142,1244264885,Альфа-Банк,"ул. Весны, 16А, микрорайон Взлётка, Красноярск",alfabank.ru,"'mon': 09:00-21:00, 'tue': 09:00-21:00, 'wed': 09:00-21:00, 'thu': 09:00-21:00, 'fri': 09:00-21:00, 'sat': 09:00-21:00, 'sun': 09:00-21:00",56.037775,92.911807,,['8 (800) 200-00-00Показать телефон'],"['https://ok.ru/alfabank', 'https://t.me/alfabank', 'https://vk.com/alfabank']",,,2024-06-24 12:14:37
143,3631623661,Альфа-Банк,"Профсоюзная ул., 104Д, Москва",alfabank.ru,"'mon': 00:00-23:59, 'tue': 00:00-23:59, 'wed': 00:00-23:59, 'thu': 00:00-23:59, 'fri': 00:00-23:59, 'sat': 00:00-23:59, 'sun': 00:00-23:59",55.641929,37.524470,,['8 (800) 200-00-00Показать телефон'],"['https://ok.ru/alfabank', 'https://t.me/alfabank', 'https://vk.com/alfabank']",,,2024-06-24 12:14:37
144,1718435630,Альфа-Банк,"Комсомольский просп., 24, стр. 1, Москва",alfabank.ru,"'mon': 00:00-23:59, 'tue': 00:00-23:59, 'wed': 00:00-23:59, 'thu': 00:00-23:59, 'fri': 00:00-23:59, 'sat': 00:00-23:59, 'sun': 00:00-23:59",55.728256,37.580311,,['8 (800) 200-00-00Показать телефон'],"['https://ok.ru/alfabank', 'https://t.me/alfabank', 'https://vk.com/alfabank']",,,2024-06-24 12:14:37
145,1477828702,Альфа-Банк,"Кубовая ул., 103/2, Новосибирск",alfabank.ru,"'mon': 09:00-22:00, 'tue': 09:00-22:00, 'wed': 09:00-22:00, 'thu': 09:00-22:00, 'fri': 09:00-22:00, 'sat': 09:00-22:00, 'sun': 09:00-22:00",55.128743,82.898582,,['8 (800) 200-00-00Показать телефон'],"['https://ok.ru/alfabank', 'https://t.me/alfabank', 'https://vk.com/alfabank']",,,2024-06-24 12:14:37
146,14817031772,Альфа-Банк,"Кировоградская ул., 13А, Москва",alfabank.ru,"'mon': 08:00-00:00, 'tue': 08:00-00:00, 'wed': 08:00-00:00, 'thu': 08:00-00:00, 'fri': 08:00-00:00, 'sat': 08:00-00:00, 'sun': 08:00-00:00",55.612147,37.606999,,['8 (800) 200-00-00Показать телефон'],"['https://ok.ru/alfabank', 'https://t.me/alfabank', 'https://vk.com/alfabank']",,,2024-06-24 12:14:37
147,81416786492,Альфа-Банк,"ул. Николая Ершова, 1А, Казань",alfabank.ru,"'mon': 00:00-23:59, 'tue': 00:00-23:59, 'wed': 00:00-23:59, 'thu': 00:00-23:59, 'fri': 00:00-23:59, 'sat': 00:00-23:59, 'sun': 00:00-23:59",55.793900,49.149506,,['8 (800) 200-00-00Показать телефон'],"['https://ok.ru/alfabank', 'https://t.me/alfabank', 'https://vk.com/alfabank']",,,2024-06-24 12:14:37
148,1457747208,Альфа-Банк,"просп. Ямашева, 82, Казань",alfabank.ru,"'mon': 09:00-20:00, 'tue': 09:00-20:00, 'wed': 09:00-20:00, 'thu': 09:00-20:00, 'fri': 09:00-20:00, 'sat': 10:00-18:00, 'sun': выходной",55.827768,49.146748,,['8 (800) 100-77-33Показать телефон'],"['https://ok.ru/alfabank', 'https://t.me/alfabank', 'https://vk.com/alfabank']",,,2024-06-24 12:14:37
149,225716957892,Альфа-Банк,"Московская ул., 31, Казань",alfabank.ru,"'mon': 09:00-18:00, 'tue': 09:00-18:00, 'wed': 09:00-18:00, 'thu': 09:00-18:00, 'fri': 09:00-18:00, 'sat': выходной, 'sun': выходной",55.789380,49.107761,,['8 (800) 200-00-00Показать телефон'],"['https://ok.ru/alfabank', 'https://t.me/alfabank', 'https://vk.com/alfabank']",,,2024-06-24 12:14:37
150,1385804354,Альфа-Банк,"ул. Декабристов, 79, Казань",alfabank.ru,"'mon': 10:00-22:00, 'tue': 10:00-22:00, 'wed': 10:00-22:00, 'thu': 10:00-22:00, 'fri': 10:00-22:00, 'sat': 10:00-22:00, 'sun': 10:00-22:00",55.817456,49.093523,,['8 (800) 200-00-00Показать телефон'],"['https://ok.ru/alfabank', 'https://t.me/alfabank', 'https://vk.com/alfabank']",,,2024-06-24 12:14:37
151,1756186620,Альфа-Банк,"просп. Большевиков, 10, корп. 1, Санкт-Петербург",alfabank.ru,"'mon': 09:00-23:00, 'tue': 09:00-23:00, 'wed': 09:00-23:00, 'thu': 09:00-23:00, 'fri': 09:00-23:00, 'sat': 09:00-23:00, 'sun': 09:00-23:00",59.912035,30.480116,,['8 (800) 200-00-00Показать телефон'],"['https://ok.ru/alfabank', 'https://t.me/alfabank', 'https://vk.com/alfabank']",,,2024-06-24 12:14:37
152,1682661054,Альфа-Банк,"ул. Ленинского Комсомола, 21А, Чебоксары",alfabank.ru,"'mon': 08:00-02:00, 'tue': 08:00-02:00, 'wed': 08:00-02:00, 'thu': 08:00-02:00, 'fri': 08:00-02:00, 'sat': 08:00-02:00, 'sun': 08:00-02:00",56.107564,47.280966,,['8 (800) 200-00-00Показать телефон'],"['https://ok.ru/alfabank', 'https://t.me/alfabank', 'https://vk.com/alfabank']",,,2024-06-24 12:14:37
153,101948427562,Альфа-Банк,"Черкасская ул., 72/1, Краснодар",alfabank.ru,"'mon': 07:00-23:45, 'tue': 07:00-23:45, 'wed': 07:00-23:45, 'thu': 07:00-23:45, 'fri': 07:00-23:45, 'sat': 07:00-23:45, 'sun': 07:00-23:45",45.065622,39.041303,,['8 (800) 200-00-00Показать телефон'],"['https://ok.ru/alfabank', 'https://t.me/alfabank', 'https://vk.com/alfabank']",,,2024-06-24 12:14:37
154,1748483900,Альфа-Банк,"Хорошёвское ш., 16, стр. 3, Москва",alfabank.ru,"'mon': 10:00-22:00, 'tue': 10:00-22:00, 'wed': 10:00-22:00, 'thu': 10:00-22:00, 'fri': 10:00-00:00, 'sat': 10:00-22:00, 'sun': 10:00-22:00",55.774274,37.545932,,['8 (800) 200-00-00Показать телефон'],"['https://ok.ru/alfabank', 'https://t.me/alfabank', 'https://vk.com/alfabank']",,,2024-06-24 12:14:37
155,1073388788,Альфа-Банк,"ул. Большая Ордынка, 21, стр. 2, Москва",alfabank.ru,"'mon': 00:00-23:59, 'tue': 00:00-23:59, 'wed': 00:00-23:59, 'thu': 00:00-23:59, 'fri': 00:00-23:59, 'sat': 00:00-23:59, 'sun': 00:00-23:59",55.740988,37.625405,,['8 (800) 200-00-00Показать телефон'],"['https://ok.ru/alfabank', 'https://t.me/alfabank', 'https://vk.com/alfabank']",,,2024-06-24 12:14:37
156,1200794047,Альфа-Банк,"Авангардная ул., 3, Москва",alfabank.ru,"'mon': 09:00-21:00, 'tue': 09:00-21:00, 'wed': 09:00-21:00, 'thu': 09:00-21:00, 'fri': 09:00-21:00, 'sat': 09:00-21:00, 'sun': 09:00-21:00",55.843106,37.491126,,['8 (800) 200-00-00Показать телефон'],"['https://ok.ru/alfabank', 'https://t.me/alfabank', 'https://vk.com/alfabank']",,,2024-06-24 12:14:37
157,171799484219,Альфа-Банк,"ш. Энтузиастов, 66А, Балашиха",alfabank.ru,"'mon': 08:00-22:00, 'tue': 08:00-22:00, 'wed': 08:00-22:00, 'thu': 08:00-22:00, 'fri': 08:00-22:00, 'sat': 08:00-22:00, 'sun': 08:00-22:00",55.796871,37.971059,,['8 (800) 200-00-00Показать телефон'],"['https://ok.ru/alfabank', 'https://t.me/alfabank', 'https://vk.com/alfabank']",,,2024-06-24 12:14:37
158,101520737729,Альфа-Банк,"Варшавское ш., 26, стр. 5, Москва",alfabank.ru,"'mon': 08:00-23:00, 'tue': 08:00-23:00, 'wed': 08:00-23:00, 'thu': 08:00-23:00, 'fri': 08:00-23:00, 'sat': 08:00-23:00, 'sun': 08:00-23:00",55.683910,37.621552,,['8 (800) 200-00-00Показать телефон'],"['https://ok.ru/alfabank', 'https://t.me/alfabank', 'https://vk.com/alfabank']",,,2024-06-24 12:14:37
159,159201504797,Альфа-Банк,"Барочная ул., 10, корп. 2Б, Санкт-Петербург",alfabank.ru,"'mon': выходной, 'tue': выходной, 'wed': выходной, 'thu': выходной, 'fri': выходной, 'sat': выходной, 'sun': выходной",59.967705,30.287256,,['8 (800) 200-00-00Показать телефон'],"['https://ok.ru/alfabank', 'https://t.me/alfabank', 'https://vk.com/alfabank']",,,2024-06-24 12:14:37
160,181061834117,Альфа-Банк,"Москва, Новомосковский административный округ, Киевское шоссе, 24-й километр, с2",alfabank.ru,"'mon': 09:00-18:00, 'tue': 09:00-18:00, 'wed': 09:00-18:00, 'thu': 09:00-18:00, 'fri': 09:00-18:00, 'sat': выходной, 'sun': выходной",55.618827,37.397090,,['8 (800) 200-00-00Показать телефон'],"['https://ok.ru/alfabank', 'https://t.me/alfabank', 'https://vk.com/alfabank']",,,2024-06-24 12:14:37
161,1711914973,Альфа-Банк,"Автозаводское ш., 6, Тольятти",alfabank.ru,"'mon': 08:00-23:00, 'tue': 08:00-23:00, 'wed': 08:00-23:00, 'thu': 08:00-23:00, 'fri': 08:00-23:00, 'sat': 08:00-23:00, 'sun': 08:00-23:00",53.541774,49.390497,,['8 (800) 200-00-00Показать телефон'],"['https://ok.ru/alfabank', 'https://t.me/alfabank', 'https://vk.com/alfabank']",,,2024-06-24 12:14:37
162,1232065799,Альфа-Банк,"ул. Тотмина, 6, микрорайон Северо-Западный, Красноярск",alfabank.ru,"'mon': 08:00-23:00, 'tue': 08:00-23:00, 'wed': 08:00-23:00, 'thu': 08:00-23:00, 'fri': 08:00-23:00, 'sat': 08:00-23:00, 'sun': 08:00-23:00",56.031569,92.775792,,['8 (800) 200-00-00Показать телефон'],"['https://ok.ru/alfabank', 'https://t.me/alfabank', 'https://vk.com/alfabank']",,,2024-06-24 12:14:37
163,2488208936,Альфа-Банк,"ул. Металлургов, 87, Екатеринбург",alfabank.ru,"'mon': 10:00-22:00, 'tue': 10:00-22:00, 'wed': 10:00-22:00, 'thu': 10:00-22:00, 'fri': 10:00-22:00, 'sat': 10:00-22:00, 'sun': 10:00-22:00",56.823636,60.505406,,['8 (800) 200-00-00Показать телефон'],"['https://ok.ru/alfabank', 'https://t.me/alfabank', 'https://vk.com/alfabank']",,,2024-06-24 12:14:37
164,147927753067,Альфа-Банк,"Щёлковское ш., 75, Москва",alfabank.ru,"'mon': 10:00-22:00, 'tue': 10:00-22:00, 'wed': 10:00-22:00, 'thu': 10:00-22:00, 'fri': 10:00-23:00, 'sat': 10:00-23:00, 'sun': 10:00-22:00",55.810967,37.801081,,['8 (800) 200-00-00Показать телефон'],"['https://ok.ru/alfabank', 'https://t.me/alfabank', 'https://vk.com/alfabank']",,,2024-06-24 12:14:37
165,196423970929,Альфа-Банк,"Ходынский бул., 4, Москва",alfabank.ru,"'mon': 10:00-23:00, 'tue': 10:00-23:00, 'wed': 10:00-23:00, 'thu': 10:00-23:00, 'fri': 10:00-23:00, 'sat': 10:00-23:00, 'sun': 10:00-23:00",55.789873,37.534130,,['8 (800) 200-00-00Показать телефон'],"['https://ok.ru/alfabank', 'https://t.me/alfabank', 'https://vk.com/alfabank']",,,2024-06-24 12:14:37
166,1759505002,Альфа-Банк,"просп. Ветеранов, 36, корп. 2, Санкт-Петербург",alfabank.ru,"'mon': 10:00-22:00, 'tue': 10:00-22:00, 'wed': 10:00-22:00, 'thu': 10:00-22:00, 'fri': 10:00-22:00, 'sat': 10:00-22:00, 'sun': 10:00-22:00",59.842956,30.247561,,['8 (800) 200-00-00Показать телефон'],"['https://ok.ru/alfabank', 'https://t.me/alfabank', 'https://vk.com/alfabank']",,,2024-06-24 12:14:37
167,35166284163,Альфа-Банк,"площадь Киевского Вокзала, 2, Москва",alfabank.ru,"'mon': 10:00-22:00, 'tue': 10:00-22:00, 'wed': 10:00-22:00, 'thu': 10:00-22:00, 'fri': 10:00-23:00, 'sat': 10:00-23:00, 'sun': 10:00-22:00",55.744637,37.566072,,['8 (800) 200-00-00Показать телефон'],"['https://ok.ru/alfabank', 'https://t.me/alfabank', 'https://vk.com/alfabank']",,,2024-06-24 12:14:37
168,168173227941,Альфа-Банк,"1-й Покровский пр., 1, Котельники",alfabank.ru,"'mon': 10:00-22:00, 'tue': 10:00-22:00, 'wed': 10:00-22:00, 'thu': 10:00-22:00, 'fri': 10:00-23:00, 'sat': 10:00-23:00, 'sun': 10:00-23:00",55.658261,37.845098,,['8 (800) 200-00-00Показать телефон'],"['https://ok.ru/alfabank', 'https://t.me/alfabank', 'https://vk.com/alfabank']",,,2024-06-24 12:14:37
169,1178602141,Альфа-Банк,"Пролетарская ул., 22А, Тула",alfabank.ru,"'mon': 10:00-21:00, 'tue': 10:00-21:00, 'wed': 10:00-21:00, 'thu': 10:00-21:00, 'fri': 10:00-21:00, 'sat': 10:00-21:00, 'sun': 10:00-21:00",54.199432,37.636806,,['8 (800) 200-00-00Показать телефон'],"['https://ok.ru/alfabank', 'https://t.me/alfabank', 'https://vk.com/alfabank']",,,2024-06-24 12:14:37
170,1786301418,Альфа-Банк,"Лобненская ул., 4А, Москва",alfabank.ru,"'mon': 08:00-23:00, 'tue': 08:00-23:00, 'wed': 08:00-23:00, 'thu': 08:00-23:00, 'fri': 08:00-23:00, 'sat': 08:00-23:00, 'sun': 08:00-23:00",55.889881,37.537676,,['8 (800) 200-00-00Показать телефон'],"['https://ok.ru/alfabank', 'https://t.me/alfabank', 'https://vk.com/alfabank']",,,2024-06-24 12:14:37
171,1279201788,Альфа-Банк,"Красная ул., 124Б, Краснодар",alfabank.ru,"'mon': 00:00-23:59, 'tue': 00:00-23:59, 'wed': 00:00-23:59, 'thu': 00:00-23:59, 'fri': 00:00-23:59, 'sat': 00:00-23:59, 'sun': 00:00-23:59",45.036114,38.975313,,['8 (800) 200-00-00Показать телефон'],"['https://ok.ru/alfabank', 'https://t.me/alfabank', 'https://vk.com/alfabank']",,,2024-06-24 12:14:37
172,147058567646,Альфа-Банк,"ул. 9 Мая, 2, Тула",alfabank.ru,"'mon': 09:00-22:00, 'tue': 09:00-22:00, 'wed': 09:00-22:00, 'thu': 09:00-22:00, 'fri': 09:00-22:00, 'sat': 09:00-22:00, 'sun': 09:00-22:00",54.165014,37.584595,,['8 (800) 200-00-00Показать телефон'],"['https://ok.ru/alfabank', 'https://t.me/alfabank', 'https://vk.com/alfabank']",,,2024-06-24 12:14:37
173,1396796564,Альфа-Банк,"Можайское ш., 31, корп. 1, Москва",alfabank.ru,"'mon': 09:00-21:00, 'tue': 09:00-21:00, 'wed': 09:00-21:00, 'thu': 09:00-21:00, 'fri': 09:00-21:00, 'sat': 09:00-21:00, 'sun': 09:00-21:00",55.718593,37.420401,,['8 (800) 200-00-00Показать телефон'],"['https://ok.ru/alfabank', 'https://t.me/alfabank', 'https://vk.com/alfabank']",,,2024-06-24 12:14:37
174,48451539636,Альфа-Банк,"Привокзальная площадь, 1А, Ессентуки",alfabank.ru,"'mon': 10:00-19:00, 'tue': 10:00-19:00, 'wed': 10:00-19:00, 'thu': 10:00-19:00, 'fri': 10:00-19:00, 'sat': выходной, 'sun': выходной",44.048569,42.857077,,['8 (800) 200-00-00Показать телефон'],"['https://ok.ru/alfabank', 'https://t.me/alfabank', 'https://vk.com/alfabank']",,,2024-06-24 12:14:37
175,12630060622,Альфа-Банк,"Соборная ул., 14А, Саратов",alfabank.ru,"'mon': 09:00-13:00,14:00-18:00, 'tue': 09:00-13:00,14:00-18:00, 'wed': 09:00-13:00,14:00-18:00, 'thu': 09:00-13:00,14:00-18:00, 'fri': 09:00-13:00,14:00-18:00, 'sat': выходной, 'sun': выходной",51.526166,46.036116,,['8 (800) 200-00-00Показать телефон'],"['https://ok.ru/alfabank', 'https://t.me/alfabank', 'https://vk.com/alfabank']",,,2024-06-24 12:14:37
176,1074016814,Альфа-Банк,"Средний просп. Васильевского острова, 36/40, Санкт-Петербург",alfabank.ru,"'mon': 00:00-23:59, 'tue': 00:00-23:59, 'wed': 00:00-23:59, 'thu': 00:00-23:59, 'fri': 00:00-23:59, 'sat': 00:00-23:59, 'sun': 00:00-23:59",59.941867,30.275184,,['8 (800) 200-00-00Показать телефон'],"['https://ok.ru/alfabank', 'https://t.me/alfabank', 'https://vk.com/alfabank']",,,2024-06-24 12:14:37
177,1143677195,Альфа-Банк,"ул. Червишевский Тракт, 23, Тюмень",alfabank.ru,"'mon': 10:00-21:00, 'tue': 10:00-21:00, 'wed': 10:00-21:00, 'thu': 10:00-21:00, 'fri': 10:00-21:00, 'sat': 10:00-21:00, 'sun': 10:00-21:00",57.126216,65.523054,,['8 (800) 200-00-00Показать телефон'],"['https://ok.ru/alfabank', 'https://t.me/alfabank', 'https://vk.com/alfabank']",,,2024-06-24 12:14:37
178,1725182800,Альфа-Банк,"Рязанский просп., 2, корп. 2, Москва",alfabank.ru,"'mon': 08:00-23:00, 'tue': 08:00-23:00, 'wed': 08:00-23:00, 'thu': 08:00-23:00, 'fri': 08:00-23:00, 'sat': 08:00-23:00, 'sun': 08:00-23:00",55.729874,37.730436,,['8 (800) 200-00-00Показать телефон'],"['https://ok.ru/alfabank', 'https://t.me/alfabank', 'https://vk.com/alfabank']",,,2024-06-24 12:14:37
179,1681712171,Альфа-Банк,"Краснодарский край, городской округ Сочи, Лазаревский район, Армавирская улица, 54",alfabank.ru,"'mon': 10:00-21:30, 'tue': 10:00-21:30, 'wed': 10:00-21:30, 'thu': 10:00-21:30, 'fri': 10:00-21:30, 'sat': 10:00-21:30, 'sun': 10:00-21:30",43.658805,39.652068,,['8 (800) 200-00-00Показать телефон'],"['https://ok.ru/alfabank', 'https://t.me/alfabank', 'https://vk.com/alfabank']",,,2024-06-24 12:14:37
180,119085340677,Альфа-Банк,"Советский просп., 2Б, Ивантеевка",alfabank.ru,"'mon': 10:00-22:00, 'tue': 10:00-22:00, 'wed': 10:00-22:00, 'thu': 10:00-22:00, 'fri': 10:00-22:00, 'sat': 10:00-22:00, 'sun': 10:00-22:00",55.975254,37.906902,,['8 (800) 200-00-00Показать телефон'],"['https://ok.ru/alfabank', 'https://t.me/alfabank', 'https://vk.com/alfabank']",,,2024-06-24 12:14:37
181,1790223399,Альфа-Банк,"просп. Маршала Жукова, 41, корп. 1, Москва",alfabank.ru,"'mon': 00:00-23:59, 'tue': 00:00-23:59, 'wed': 00:00-23:59, 'thu': 00:00-23:59, 'fri': 00:00-23:59, 'sat': 00:00-23:59, 'sun': 00:00-23:59",55.775602,37.469919,,['8 (800) 200-00-00Показать телефон'],"['https://ok.ru/alfabank', 'https://t.me/alfabank', 'https://vk.com/alfabank']",,,2024-06-24 12:14:37
182,1220081498,Альфа-Банк,"ул. Суворова, 25, Хабаровск",alfabank.ru,"'mon': 09:00-21:00, 'tue': 09:00-21:00, 'wed': 09:00-21:00, 'thu': 09:00-21:00, 'fri': 09:00-21:00, 'sat': 09:00-21:00, 'sun': 09:00-21:00",C48.39583,135.10643,,['8 (800) 200-00-00Показать телефон'],"['http://vk.com/alfabank', 'https://ok.ru/alfabank', 'https://t.me/alfabank']",,,2024-06-24 12:14:37
183,83318742910,Альфа-Банк,"Кольцевая ул., 3, корп. 3, микрорайон Янтарный, Балашиха",alfabank.ru,"'mon': 07:00-00:00, 'tue': 07:00-00:00, 'wed': 07:00-00:00, 'thu': 07:00-00:00, 'fri': 07:00-00:00, 'sat': 07:00-00:00, 'sun': 07:00-00:00",55.822706,37.876206,,['8 (800) 200-00-00Показать телефон'],"['https://ok.ru/alfabank', 'https://t.me/alfabank', 'https://vk.com/alfabank']",,,2024-06-24 12:14:37
184,60262844778,Альфа-Банк,,alfabank.ru,"'mon': 00:00-23:59, 'tue': 00:00-23:59, 'wed': 00:00-23:59, 'thu': 00:00-23:59, 'fri': 00:00-23:59, 'sat': 00:00-23:59, 'sun': 00:00-23:59",56.960169,73.368212,,['8 (800) 200-00-00Показать телефон'],"['https://ok.ru/alfabank', 'https://t.me/alfabank', 'https://vk.com/alfabank']",,,2024-06-24 12:14:37
185,1025178394,Альфа-Банк,"Московское ш., 65А, Рязань",alfabank.ru,"'mon': 10:00-22:00, 'tue': 10:00-22:00, 'wed': 10:00-22:00, 'thu': 10:00-22:00, 'fri': 10:00-22:00, 'sat': 10:00-22:00, 'sun': 10:00-22:00",54.650574,39.636110,,['8 (800) 200-00-00Показать телефон'],"['https://ok.ru/alfabank', 'https://t.me/alfabank', 'https://vk.com/alfabank']",,,2024-06-24 12:14:37
186,1668120472,Альфа-Банк,"Ленинский просп., 101, Москва",alfabank.ru,"'mon': 08:00-23:00, 'tue': 08:00-23:00, 'wed': 08:00-23:00, 'thu': 08:00-23:00, 'fri': 08:00-23:00, 'sat': 08:00-23:00, 'sun': 08:00-23:00",55.666625,37.515731,,['8 (800) 200-00-00Показать телефон'],"['https://ok.ru/alfabank', 'https://t.me/alfabank', 'https://vk.com/alfabank']",,,2024-06-24 12:14:37
187,1436177607,Альфа-Банк,"1-я Майская ул., 3, Нахичевань, Ростов-на-Дону",alfabank.ru,"'mon': 00:00-23:59, 'tue': 00:00-23:59, 'wed': 00:00-23:59, 'thu': 00:00-23:59, 'fri': 00:00-23:59, 'sat': 00:00-23:59, 'sun': 00:00-23:59",47.232197,39.760774,,['8 (800) 200-00-00Показать телефон'],"['https://ok.ru/alfabank', 'https://t.me/alfabank', 'https://vk.com/alfabank']",,,2024-06-24 12:14:37
188,1793281934,Альфа-Банк,"ул. Перевёрткина, 7, Воронеж",alfabank.ru,"'mon': 00:00-23:59, 'tue': 00:00-23:59, 'wed': 00:00-23:59, 'thu': 00:00-23:59, 'fri': 00:00-23:59, 'sat': 00:00-23:59, 'sun': 00:00-23:59",51.686562,39.256782,,['8 (800) 200-00-00Показать телефон'],"['https://ok.ru/alfabank', 'https://t.me/alfabank', 'https://vk.com/alfabank']",,,2024-06-24 12:14:37
189,64822551462,Альфа-Банк,"просп. Гагарина, 32, Прокопьевск",alfabank.ru,"'mon': 10:00-22:00, 'tue': 10:00-22:00, 'wed': 10:00-22:00, 'thu': 10:00-22:00, 'fri': 10:00-22:00, 'sat': 10:00-22:00, 'sun': 10:00-22:00",53.872512,86.636859,,['8 (800) 200-00-00Показать телефон'],"['https://ok.ru/alfabank', 'https://t.me/alfabank', 'https://vk.com/alfabank']",,,2024-06-24 12:14:37
190,1721780393,Альфа-Банк,"Дальневосточный просп., 16, Санкт-Петербург",alfabank.ru,"'mon': 08:00-23:00, 'tue': 08:00-23:00, 'wed': 08:00-23:00, 'thu': 08:00-23:00, 'fri': 08:00-23:00, 'sat': 08:00-23:00, 'sun': 08:00-23:00",59.909878,30.449537,,['8 (800) 200-00-00Показать телефон'],"['https://ok.ru/alfabank', 'https://t.me/alfabank', 'https://vk.com/alfabank']",,,2024-06-24 12:14:37
191,1688118692,Альфа-Банк,"просп. Ленина, 13, Кронштадт",alfabank.ru,"'mon': 10:00-21:00, 'tue': 10:00-21:00, 'wed': 10:00-21:00, 'thu': 10:00-21:00, 'fri': 10:00-21:00, 'sat': 10:00-21:00, 'sun': 10:00-21:00",59.997595,29.765920,,['8 (800) 200-00-00Показать телефон'],"['https://ok.ru/alfabank', 'https://t.me/alfabank', 'https://vk.com/alfabank']",,,2024-06-24 12:14:37
192,51915276143,Альфа-Банк,"ул. Космонавтов, 27Г, Воронеж",alfabank.ru,"'mon': 09:00-21:00, 'tue': 09:00-21:00, 'wed': 09:00-21:00, 'thu': 09:00-21:00, 'fri': 09:00-21:00, 'sat': 09:00-21:00, 'sun': 09:00-21:00",51.657378,39.159207,,['8 (800) 200-00-00Показать телефон'],"['https://ok.ru/alfabank', 'https://t.me/alfabank', 'https://vk.com/alfabank']",,,2024-06-24 12:14:37
193,55006710752,Альфа-Банк,"Дмитровское ш., 89, Москва",alfabank.ru,"'mon': 09:00-23:00, 'tue': 09:00-23:00, 'wed': 09:00-23:00, 'thu': 09:00-23:00, 'fri': 09:00-23:00, 'sat': 09:00-23:00, 'sun': 09:00-23:00",55.863833,37.545581,,['+7 (495) 755-58-58Показать телефон'],"['https://ok.ru/alfabank', 'https://t.me/alfabank', 'https://vk.com/alfabank']",,,2024-06-24 12:14:37
194,102016338816,Альфа-Банк,"просп. Строителей, 7, Кудрово",alfabank.ru,"'mon': 00:00-23:59, 'tue': 00:00-23:59, 'wed': 00:00-23:59, 'thu': 00:00-23:59, 'fri': 00:00-23:59, 'sat': 00:00-23:59, 'sun': 00:00-23:59",59.917227,30.522005,,['8 (800) 200-00-00Показать телефон'],"['https://ok.ru/alfabank', 'https://t.me/alfabank', 'https://vk.com/alfabank']",,,2024-06-24 12:14:37
195,83237394123,Альфа-Банк,"ул. Фрунзе, 4, Королёв",alfabank.ru,"'mon': 08:00-21:00, 'tue': 08:00-21:00, 'wed': 08:00-21:00, 'thu': 08:00-21:00, 'fri': 08:00-21:00, 'sat': 08:00-21:00, 'sun': 08:00-21:00",55.923180,37.822712,,['8 (800) 200-00-00Показать телефон'],"['https://ok.ru/alfabank', 'https://t.me/alfabank', 'https://vk.com/alfabank']",,,2024-06-24 12:14:37
196,1173890975,Альфа-Банк,"ул. Новая Заря, 7, микрорайон Донская, Сочи",alfabank.ru,"'mon': 10:00-22:00, 'tue': 10:00-22:00, 'wed': 10:00-22:00, 'thu': 10:00-22:00, 'fri': 10:00-22:00, 'sat': 10:00-22:00, 'sun': 10:00-22:00",43.606254,39.732314,,['8 (800) 200-00-00Показать телефон'],"['https://ok.ru/alfabank', 'https://t.me/alfabank', 'https://vk.com/alfabank']",,,2024-06-24 12:14:37
197,1091799816,Альфа-Банк,"ул. 40 лет Комсомола, 53, Новосибирск",alfabank.ru,"'mon': 00:00-23:59, 'tue': 00:00-23:59, 'wed': 00:00-23:59, 'thu': 00:00-23:59, 'fri': 00:00-23:59, 'sat': 00:00-23:59, 'sun': 00:00-23:59",54.864549,82.981309,,['8 (800) 200-00-00Показать телефон'],"['https://ok.ru/alfabank', 'https://t.me/alfabank', 'https://vk.com/alfabank']",,,2024-06-24 12:14:37
198,118814480578,Альфа-Банк,"Богатырский просп., 3, корп. 3, Санкт-Петербург",alfabank.ru,"'mon': 08:00-20:00, 'tue': 08:00-20:00, 'wed': 08:00-20:00, 'thu': 08:00-20:00, 'fri': 08:00-20:00, 'sat': 10:00-19:00, 'sun': 10:00-19:00",60.001023,30.294533,,['8 (800) 200-00-00Показать телефон'],"['https://ok.ru/alfabank', 'https://t.me/alfabank', 'https://vk.com/alfabank']",,,2024-06-24 12:14:37
199,1744057282,Альфа-Банк,"Комсомольская площадь, 3, Москва",alfabank.ru,"'mon': 00:00-23:59, 'tue': 00:00-23:59, 'wed': 00:00-23:59, 'thu': 00:00-23:59, 'fri': 00:00-23:59, 'sat': 00:00-23:59, 'sun': 00:00-23:59",55.776133,37.655356,,['8 (800) 200-00-00Показать телефон'],"['https://ok.ru/alfabank', 'https://t.me/alfabank', 'https://vk.com/alfabank']",,,2024-06-24 12:14:37
200,182740673341,Альфа-Банк,"9-я Парковая ул., 23, Москва",alfabank.ru,"'mon': 00:00-23:59, 'tue': 00:00-23:59, 'wed': 00:00-23:59, 'thu': 00:00-23:59, 'fri': 00:00-23:59, 'sat': 00:00-23:59, 'sun': 00:00-23:59",55.795044,37.798799,,['8 (800) 200-00-00Показать телефон'],"['https://ok.ru/alfabank', 'https://t.me/alfabank', 'https://vk.com/alfabank']",,,2024-06-24 12:14:37
201,1732692305,Альфа-Банк,"Ленинский просп., 64/2, Москва",alfabank.ru,"'mon': 00:00-23:59, 'tue': 00:00-23:59, 'wed': 00:00-23:59, 'thu': 00:00-23:59, 'fri': 00:00-23:59, 'sat': 00:00-23:59, 'sun': 00:00-23:59",55.692475,37.551726,,['8 (800) 200-00-00Показать телефон'],"['https://ok.ru/alfabank', 'https://t.me/alfabank', 'https://vk.com/alfabank']",,,2024-06-24 12:14:37
202,1734070427,Альфа-Банк,"ул. Победы, 41, Ярославль",alfabank.ru,"'mon': 10:00-22:00, 'tue': 10:00-22:00, 'wed': 10:00-22:00, 'thu': 10:00-22:00, 'fri': 10:00-22:00, 'sat': 10:00-22:00, 'sun': 10:00-22:00",57.627759,39.871167,,['8 (800) 200-00-00Показать телефон'],"['https://ok.ru/alfabank', 'https://t.me/alfabank', 'https://vk.com/alfabank']",,,2024-06-24 12:14:37
203,1138120026,Альфа-Банк,"Владимирский просп., 19, Санкт-Петербург",alfabank.ru,"'mon': 00:00-23:59, 'tue': 00:00-23:59, 'wed': 00:00-23:59, 'thu': 00:00-23:59, 'fri': 00:00-23:59, 'sat': 00:00-23:59, 'sun': 00:00-23:59",59.928542,30.346851,,['8 (800) 200-00-00Показать телефон'],"['https://ok.ru/alfabank', 'https://t.me/alfabank', 'https://vk.com/alfabank']",,,2024-06-24 12:14:37
204,37367962180,Альфа-Банк,"ул. Коровий Вал, 5, Москва",alfabank.ru,"'mon': 00:00-23:59, 'tue': 00:00-23:59, 'wed': 00:00-23:59, 'thu': 00:00-23:59, 'fri': 00:00-23:59, 'sat': 00:00-23:59, 'sun': 00:00-23:59",55.728855,37.620330,,['8 (800) 200-00-00Показать телефон'],"['https://ok.ru/alfabank', 'https://t.me/alfabank', 'https://vk.com/alfabank']",,,2024-06-24 12:14:37
205,127296302410,Альфа-Банк,"8-я ул. Текстильщиков, 11, Москва",alfabank.ru,"'mon': 09:00-18:00, 'tue': 09:00-18:00, 'wed': 09:00-18:00, 'thu': 09:00-18:00, 'fri': 09:00-18:00, 'sat': выходной, 'sun': выходной",55.703363,37.743897,,['+7 (495) 788-88-78Показать телефон'],"['https://ok.ru/alfabank', 'https://t.me/alfabank', 'https://vk.com/alfabank']",,,2024-06-24 12:14:37
206,244003647525,Альфа-Банк,"ул. Якова Флиера, 4, Орехово-Зуево",alfabank.ru,"'mon': 10:00-22:00, 'tue': 10:00-22:00, 'wed': 10:00-22:00, 'thu': 10:00-22:00, 'fri': 10:00-22:00, 'sat': 10:00-22:00, 'sun': 10:00-22:00",55.804607,38.974316,,['8 (800) 200-00-00Показать телефон'],"['https://ok.ru/alfabank', 'https://t.me/alfabank', 'https://vk.com/alfabank']",,,2024-06-24 12:14:37
207,231689430281,Альфа-Банк,"ул. Баумана, 82, Казань",alfabank.ru,"'mon': 10:00-23:00, 'tue': 10:00-23:00, 'wed': 10:00-23:00, 'thu': 10:00-23:00, 'fri': 10:00-23:00, 'sat': 10:00-23:00, 'sun': 10:00-23:00",55.787437,49.120482,,['8 (800) 200-00-00Показать телефон'],"['https://ok.ru/alfabank', 'https://t.me/alfabank', 'https://vk.com/alfabank']",,,2024-06-24 12:14:37
208,1095735072,Альфа-Банк,"Кольцовская ул., 35, Воронеж",alfabank.ru,"'mon': 10:00-22:00, 'tue': 10:00-22:00, 'wed': 10:00-22:00, 'thu': 10:00-22:00, 'fri': 10:00-22:00, 'sat': 10:00-22:00, 'sun': 10:00-22:00",51.666183,39.191950,,['8 (800) 200-00-00Показать телефон'],"['https://ok.ru/alfabank', 'https://t.me/alfabank', 'https://vk.com/alfabank']",,,2024-06-24 12:14:37
209,1702878527,Альфа-Банк,"Октябрьский просп., 85, Всеволожск",alfabank.ru,"'mon': 10:00-21:00, 'tue': 10:00-21:00, 'wed': 10:00-21:00, 'thu': 10:00-21:00, 'fri': 10:00-21:00, 'sat': 10:00-21:00, 'sun': 10:00-21:00",60.019833,30.646565,,['8 (800) 200-00-00Показать телефон'],"['https://ok.ru/alfabank', 'https://t.me/alfabank', 'https://vk.com/alfabank']",,,2024-06-24 12:14:37
210,1732008921,Альфа-Банк,"Богатырский просп., 42, Санкт-Петербург",alfabank.ru,"'mon': 08:00-00:00, 'tue': 08:00-00:00, 'wed': 08:00-00:00, 'thu': 08:00-00:00, 'fri': 08:00-00:00, 'sat': 08:00-00:00, 'sun': 08:00-00:00",60.002899,30.228471,,['8 (800) 200-00-00Показать телефон'],"['https://ok.ru/alfabank', 'https://t.me/alfabank', 'https://vk.com/alfabank']",,,2024-06-24 12:14:37
211,31673486693,Альфа-Банк,"Покровская ул., 20, Москва",alfabank.ru,"'mon': 00:00-23:59, 'tue': 00:00-23:59, 'wed': 00:00-23:59, 'thu': 00:00-23:59, 'fri': 00:00-23:59, 'sat': 00:00-23:59, 'sun': 00:00-23:59",55.701866,37.931650,,['8 (800) 200-00-00Показать телефон'],"['https://ok.ru/alfabank', 'https://t.me/alfabank', 'https://vk.com/alfabank']",,,2024-06-24 12:14:37
212,1003819276,Альфа-Банк,"Парковый просп., 32, Оренбург",alfabank.ru,"'mon': 00:00-23:59, 'tue': 00:00-23:59, 'wed': 00:00-23:59, 'thu': 00:00-23:59, 'fri': 00:00-23:59, 'sat': 00:00-23:59, 'sun': 00:00-23:59",51.774018,55.084918,,['8 (800) 200-00-00Показать телефон'],"['https://ok.ru/alfabank', 'https://t.me/alfabank', 'https://vk.com/alfabank']",,,2024-06-24 12:14:37
213,111071582874,Альфа-Банк,"Демократическая ул., 52, Сочи",alfabank.ru,"'mon': 10:00-21:00, 'tue': 10:00-21:00, 'wed': 10:00-21:00, 'thu': 10:00-21:00, 'fri': 10:00-21:00, 'sat': 10:00-21:00, 'sun': 10:00-21:00",43.426260,39.928042,,['8 (800) 200-00-00Показать телефон'],"['https://ok.ru/alfabank', 'https://t.me/alfabank', 'https://vk.com/alfabank']",,,2024-06-24 12:14:37
214,1057491544,Альфа-Банк,"Липецкая ул., 7А, Москва",alfabank.ru,"'mon': 08:00-23:00, 'tue': 08:00-23:00, 'wed': 08:00-23:00, 'thu': 08:00-23:00, 'fri': 08:00-23:00, 'sat': 08:00-23:00, 'sun': 08:00-23:00",55.583480,37.682832,,['8 (800) 200-00-00Показать телефон'],"['https://ok.ru/alfabank', 'https://t.me/alfabank', 'https://vk.com/alfabank']",,,2024-06-24 12:14:37
215,1660542176,Альфа-Банк,"Новгородская ул., 23, Санкт-Петербург",alfabank.ru,"'mon': 09:00-20:00, 'tue': 09:00-20:00, 'wed': 09:00-20:00, 'thu': 09:00-20:00, 'fri': 09:00-20:00, 'sat': 09:00-20:00, 'sun': 09:00-20:00",59.940803,30.390491,,['8 (800) 200-00-00Показать телефон'],"['https://ok.ru/alfabank', 'https://t.me/alfabank', 'https://vk.com/alfabank']",,,2024-06-24 12:14:37
216,19645893990,Альфа-Банк,"наб. Обводного канала, 118, корп. 7, Санкт-Петербург",alfabank.ru,"'mon': 00:00-23:59, 'tue': 00:00-23:59, 'wed': 00:00-23:59, 'thu': 00:00-23:59, 'fri': 00:00-23:59, 'sat': 00:00-23:59, 'sun': 00:00-23:59",59.907022,30.302475,,['8 (800) 200-00-00Показать телефон'],"['https://ok.ru/alfabank', 'https://t.me/alfabank', 'https://vk.com/alfabank']",,,2024-06-24 12:14:37
217,1184915591,Альфа-Банк,"ул. Максима Горького, 285, Батайск",alfabank.ru,"'mon': 10:00-22:00, 'tue': 10:00-22:00, 'wed': 10:00-22:00, 'thu': 10:00-22:00, 'fri': 10:00-22:00, 'sat': 10:00-22:00, 'sun': 10:00-22:00",47.136936,39.718175,,['8 (800) 200-00-00Показать телефон'],"['https://ok.ru/alfabank', 'https://t.me/alfabank', 'https://vk.com/alfabank']",,,2024-06-24 12:14:37
218,130841249747,Альфа-Банк,"Малая Филёвская ул., 14, корп. 2, Москва",alfabank.ru,"'mon': 08:00-23:00, 'tue': 08:00-23:00, 'wed': 08:00-23:00, 'thu': 08:00-23:00, 'fri': 08:00-23:00, 'sat': 08:00-23:00, 'sun': 08:00-23:00",55.737780,37.470195,,['8 (800) 200-00-00Показать телефон'],"['https://ok.ru/alfabank', 'https://t.me/alfabank', 'https://vk.com/alfabank']",,,2024-06-24 12:14:37
219,1027495185,Альфа-Банк,"Смоленская-Сенная площадь, 27, стр. 1, Москва",alfabank.ru,"'mon': 00:00-23:59, 'tue': 00:00-23:59, 'wed': 00:00-23:59, 'thu': 00:00-23:59, 'fri': 00:00-23:59, 'sat': 00:00-23:59, 'sun': 00:00-23:59",55.744713,37.582700,,['8 (800) 200-00-00Показать телефон'],"['https://ok.ru/alfabank', 'https://t.me/alfabank', 'https://vk.com/alfabank']",,,2024-06-24 12:14:37
220,11164579977,Альфа-Банк,"просп. Ленина, 010, Электросталь",alfabank.ru,"'mon': 10:00-22:00, 'tue': 10:00-22:00, 'wed': 10:00-22:00, 'thu': 10:00-22:00, 'fri': 10:00-22:00, 'sat': 10:00-22:00, 'sun': 10:00-22:00",55.812990,38.430270,,['8 (800) 200-00-00Показать телефон'],"['https://ok.ru/alfabank', 'https://t.me/alfabank', 'https://vk.com/alfabank']",,,2024-06-24 12:14:37
221,1204012344,Альфа-Банк,"ул. Громовой, 25, Тольятти",alfabank.ru,"'mon': 08:00-23:00, 'tue': 08:00-23:00, 'wed': 08:00-23:00, 'thu': 08:00-23:00, 'fri': 08:00-23:00, 'sat': 08:00-23:00, 'sun': 08:00-23:00",53.487903,49.475965,,['8 (800) 200-00-00Показать телефон'],"['https://ok.ru/alfabank', 'https://t.me/alfabank', 'https://vk.com/alfabank']",,,2024-06-24 12:14:37
222,1805519819,Альфа-Банк,"Парковая ул., 1А, Арзамас",alfabank.ru,"'mon': 07:00-23:00, 'tue': 07:00-23:00, 'wed': 07:00-23:00, 'thu': 07:00-23:00, 'fri': 07:00-23:00, 'sat': 07:00-23:00, 'sun': 07:00-23:00",55.400834,43.831866,,['8 (800) 200-00-00Показать телефон'],"['https://ok.ru/alfabank', 'https://t.me/alfabank', 'https://vk.com/alfabank']",,,2024-06-24 12:14:37
223,214954134029,Альфа-Банк,"Большая Семёновская ул., 16, Москва",alfabank.ru,"'mon': 10:00-22:00, 'tue': 10:00-22:00, 'wed': 10:00-22:00, 'thu': 10:00-22:00, 'fri': 10:00-22:00, 'sat': 10:00-22:00, 'sun': 10:00-22:00",55.782077,37.704125,,['8 (800) 200-00-00Показать телефон'],"['https://ok.ru/alfabank', 'https://t.me/alfabank', 'https://vk.com/alfabank']",,,2024-06-24 12:14:37
224,213590469515,Альфа-Банк,"ул. Строителей, 21, Новочебоксарск",alfabank.ru,"'mon': 07:30-00:00, 'tue': 07:30-00:00, 'wed': 07:30-00:00, 'thu': 07:30-00:00, 'fri': 07:30-00:00, 'sat': 07:30-00:00, 'sun': 07:30-00:00",56.114044,47.457745,,['8 (800) 200-00-00Показать телефон'],"['https://ok.ru/alfabank', 'https://t.me/alfabank', 'https://vk.com/alfabank']",,,2024-06-24 12:14:37
225,1669303755,Альфа-Банк,"просп. Гагарина, 228, Нижний Новгород",alfabank.ru,"'mon': 07:00-23:00, 'tue': 07:00-23:00, 'wed': 07:00-23:00, 'thu': 07:00-23:00, 'fri': 07:00-23:00, 'sat': 07:00-23:00, 'sun': 07:00-23:00",56.228215,43.945215,,['8 (800) 200-00-00Показать телефон'],"['https://ok.ru/alfabank', 'https://t.me/alfabank', 'https://vk.com/alfabank']",,,2024-06-24 12:14:37
226,1696086638,Альфа-Банк,"ул. Фрунзе, 6, Тольятти",alfabank.ru,"'mon': 10:00-21:00, 'tue': 10:00-21:00, 'wed': 10:00-21:00, 'thu': 10:00-21:00, 'fri': 10:00-21:00, 'sat': 10:00-21:00, 'sun': 10:00-21:00",53.514037,49.298214,,['8 (800) 200-00-00Показать телефон'],"['https://ok.ru/alfabank', 'https://t.me/alfabank', 'https://vk.com/alfabank']",,,2024-06-24 12:14:37
227,148799975430,Альфа-Банк,"ул. Ефимова, 3С, Санкт-Петербург",alfabank.ru,"'mon': 10:00-22:00, 'tue': 10:00-22:00, 'wed': 10:00-22:00, 'thu': 10:00-22:00, 'fri': 10:00-22:00, 'sat': 10:00-22:00, 'sun': 10:00-22:00",59.925155,30.320180,,['8 (800) 200-00-00Показать телефон'],"['https://ok.ru/alfabank', 'https://t.me/alfabank', 'https://vk.com/alfabank']",,,2024-06-24 12:14:37
228,7970253712,Альфа-Банк,"Октябрьский просп., 54, Псков",alfabank.ru,"'mon': 10:00-21:00, 'tue': 10:00-21:00, 'wed': 10:00-21:00, 'thu': 10:00-21:00, 'fri': 10:00-21:00, 'sat': 10:00-21:00, 'sun': 10:00-21:00",57.809796,28.361781,,['8 (800) 200-00-00Показать телефон'],"['https://ok.ru/alfabank', 'https://t.me/alfabank', 'https://vk.com/alfabank']",,,2024-06-24 12:14:37
229,40444166963,Альфа-Банк,"Ленинградская область, Всеволожский район, Бугровское сельское поселение, КАД, 117-й километр, внешнее кольцо, 1",alfabank.ru,"'mon': 10:00-22:00, 'tue': 10:00-22:00, 'wed': 10:00-22:00, 'thu': 10:00-22:00, 'fri': 10:00-22:00, 'sat': 10:00-22:00, 'sun': 10:00-22:00",60.091348,30.380484,,['8 (800) 200-00-00Показать телефон'],"['https://ok.ru/alfabank', 'https://t.me/alfabank', 'https://vk.com/alfabank']",,,2024-06-24 12:14:37
230,158825941990,Альфа-Банк,"ул. Маршала Жукова, 26, Оренбург",alfabank.ru,"'mon': 00:00-23:59, 'tue': 00:00-23:59, 'wed': 00:00-23:59, 'thu': 00:00-23:59, 'fri': 00:00-23:59, 'sat': 00:00-23:59, 'sun': 00:00-23:59",51.766371,55.114840,,['8 (800) 200-00-00Показать телефон'],"['https://ok.ru/alfabank', 'https://t.me/alfabank', 'https://vk.com/alfabank']",,,2024-06-24 12:14:37
231,1201141524,Альфа-Банк,"просп. Октября, 34, Уфа",alfabank.ru,"'mon': 10:00-22:00, 'tue': 10:00-22:00, 'wed': 10:00-22:00, 'thu': 10:00-22:00, 'fri': 10:00-22:00, 'sat': 10:00-22:00, 'sun': 10:00-22:00",54.749725,55.999978,,['8 (800) 200-00-00Показать телефон'],"['https://ok.ru/alfabank', 'https://t.me/alfabank', 'https://vk.com/alfabank']",,,2024-06-24 12:14:37
232,77893814719,Альфа-Банк,"пер. Дуслык, 8, Казань",alfabank.ru,"'mon': 08:00-18:00, 'tue': 08:00-18:00, 'wed': 08:00-18:00, 'thu': 08:00-18:00, 'fri': 08:00-18:00, 'sat': выходной, 'sun': выходной",55.793247,49.230094,,['8 (800) 200-00-00Показать телефон'],"['https://ok.ru/alfabank', 'https://t.me/alfabank', 'https://vk.com/alfabank']",,,2024-06-24 12:14:37
233,1766433495,Альфа-Банк,"ул. Кирова, 112, Новосибирск",alfabank.ru,"'mon': 10:00-21:00, 'tue': 10:00-21:00, 'wed': 10:00-21:00, 'thu': 10:00-21:00, 'fri': 10:00-21:00, 'sat': 10:00-21:00, 'sun': 10:00-21:00",55.011283,82.955562,,['8 (800) 200-00-00Показать телефон'],"['https://ok.ru/alfabank', 'https://t.me/alfabank', 'https://vk.com/alfabank']",,,2024-06-24 12:14:37
234,1362692469,Альфа-Банк,"ул. Дьяконова, 11А, Нижний Новгород",alfabank.ru,"'mon': 10:00-21:00, 'tue': 10:00-21:00, 'wed': 10:00-21:00, 'thu': 10:00-21:00, 'fri': 10:00-21:00, 'sat': 10:00-21:00, 'sun': 10:00-21:00",56.261668,43.877042,,['8 (800) 200-00-00Показать телефон'],"['https://ok.ru/alfabank', 'https://t.me/alfabank', 'https://vk.com/alfabank']",,,2024-06-24 12:14:37
235,39139197203,Альфа-Банк,"Красная ул., 142, Калининград",alfabank.ru,"'mon': 07:00-02:00, 'tue': 07:00-02:00, 'wed': 07:00-02:00, 'thu': 07:00-02:00, 'fri': 07:00-02:00, 'sat': 07:00-02:00, 'sun': 07:00-02:00",54.737856,20.474204,,['8 (800) 200-00-00Показать телефон'],"['https://ok.ru/alfabank', 'https://t.me/alfabank', 'https://vk.com/alfabank']",,,2024-06-24 12:14:37
236,1160935218,Альфа-Банк,"30, жилой район Заозёрный, 3-й микрорайон, Курган",alfabank.ru,"'mon': 08:00-22:00, 'tue': 08:00-22:00, 'wed': 08:00-22:00, 'thu': 08:00-22:00, 'fri': 08:00-22:00, 'sat': 08:00-22:00, 'sun': 08:00-22:00",55.462677,65.266836,,['8 (800) 200-00-00Показать телефон'],"['https://ok.ru/alfabank', 'https://t.me/alfabank', 'https://vk.com/alfabank']",,,2024-06-24 12:14:37
237,40387760848,Альфа-Банк,"ул. имени С.Ф. Тархова, 34, Саратов",alfabank.ru,"'mon': 10:00-20:00, 'tue': 10:00-20:00, 'wed': 10:00-20:00, 'thu': 10:00-20:00, 'fri': 10:00-20:00, 'sat': 10:00-20:00, 'sun': 10:00-18:00",51.608966,46.001666,,['8 (800) 200-00-00Показать телефон'],"['https://ok.ru/alfabank', 'https://t.me/alfabank', 'https://vk.com/alfabank']",,,2024-06-24 12:14:37
238,1747516081,Альфа-Банк,,alfabank.ru,"'mon': 00:00-23:59, 'tue': 00:00-23:59, 'wed': 00:00-23:59, 'thu': 00:00-23:59, 'fri': 00:00-23:59, 'sat': 00:00-23:59, 'sun': 00:00-23:59",61.261842,37.617700,,['8 (800) 200-00-00Показать телефон'],"['https://ok.ru/alfabank', 'https://t.me/alfabank', 'https://vk.com/alfabank']",,,2024-06-24 12:14:37
239,241558052301,Альфа-Банк,"Большая Конюшенная ул., 19/8, Санкт-Петербург",alfabank.ru,"'mon': 10:00-19:00, 'tue': 10:00-19:00, 'wed': 10:00-19:00, 'thu': 10:00-19:00, 'fri': 10:00-19:00, 'sat': выходной, 'sun': выходной",59.938631,30.323037,,['8 (800) 200-00-00Показать телефон'],"['https://ok.ru/alfabank', 'https://t.me/alfabank', 'https://vk.com/alfabank']",,,2024-06-24 12:14:37
240,1710100428,Альфа-Банк,"ул. Талица, 7, Первоуральск",alfabank.ru,"'mon': 09:00-22:00, 'tue': 09:00-22:00, 'wed': 09:00-22:00, 'thu': 09:00-22:00, 'fri': 09:00-22:00, 'sat': 09:00-22:00, 'sun': 09:00-22:00",56.882388,60.011180,,['8 (800) 200-00-00Показать телефон'],"['https://ok.ru/alfabank', 'https://t.me/alfabank', 'https://vk.com/alfabank']",,,2024-06-24 12:14:37
241,1430932837,Альфа-Банк,"Солнцевский просп., 21, Москва",alfabank.ru,"'mon': 08:00-23:00, 'tue': 08:00-23:00, 'wed': 08:00-23:00, 'thu': 08:00-23:00, 'fri': 08:00-23:00, 'sat': 09:00-23:00, 'sun': 09:00-23:00",55.647046,37.411750,,['8 (800) 200-00-00Показать телефон'],"['https://ok.ru/alfabank', 'https://t.me/alfabank', 'https://vk.com/alfabank']",,,2024-06-24 12:14:37
242,56241245729,Альфа-Банк,"ул. Тухачевского, 40/2, Кемерово",alfabank.ru,"'mon': 10:00-20:00, 'tue': 10:00-20:00, 'wed': 10:00-20:00, 'thu': 10:00-20:00, 'fri': 10:00-20:00, 'sat': 10:00-20:00, 'sun': 10:00-20:00",55.326548,86.134359,,['8 (800) 200-00-00Показать телефон'],"['https://ok.ru/alfabank', 'https://t.me/alfabank', 'https://vk.com/alfabank']",,,2024-06-24 12:14:37
243,1046775458,Альфа-Банк,"просп. Просвещения, 37, Санкт-Петербург",alfabank.ru,"'mon': 00:00-23:59, 'tue': 00:00-23:59, 'wed': 00:00-23:59, 'thu': 00:00-23:59, 'fri': 00:00-23:59, 'sat': 00:00-23:59, 'sun': 00:00-23:59",60.047762,30.355709,,['8 (800) 200-00-00Показать телефон'],"['https://ok.ru/alfabank', 'https://t.me/alfabank', 'https://vk.com/alfabank']",,,2024-06-24 12:14:37
244,187193975763,Альфа-Банк,"Новокрюковская ул., 1824, Зеленоград",alfabank.ru,"'mon': 00:00-23:59, 'tue': 00:00-23:59, 'wed': 00:00-23:59, 'thu': 00:00-23:59, 'fri': 00:00-23:59, 'sat': 00:00-23:59, 'sun': 00:00-23:59",55.981827,37.168847,,['8 (800) 200-00-00Показать телефон'],"['https://ok.ru/alfabank', 'https://t.me/alfabank', 'https://vk.com/alfabank']",,,2024-06-24 12:14:37
245,1306766586,Альфа-Банк,"Беляевская ул., 29, Оренбург",alfabank.ru,"'mon': 10:00-22:00, 'tue': 10:00-22:00, 'wed': 10:00-22:00, 'thu': 10:00-22:00, 'fri': 10:00-22:00, 'sat': 10:00-22:00, 'sun': 10:00-22:00",51.720018,55.127444,,['8 (800) 200-00-00Показать телефон'],"['https://ok.ru/alfabank', 'https://t.me/alfabank', 'https://vk.com/alfabank']",,,2024-06-24 12:14:37
246,1774120413,Альфа-Банк,"Никольская ул., 10, Москва",alfabank.ru,"'mon': 10:00-00:00, 'tue': 10:00-00:00, 'wed': 10:00-00:00, 'thu': 10:00-02:00, 'fri': 10:00-05:00, 'sat': 10:00-05:00, 'sun': 10:00-02:00",55.757957,37.624544,,['8 (800) 200-00-00Показать телефон'],"['https://ok.ru/alfabank', 'https://t.me/alfabank', 'https://vk.com/alfabank']",,,2024-06-24 12:14:37
247,90678540487,Альфа-Банк,"Кустанайская ул., 6, Москва",alfabank.ru,"'mon': 08:00-23:00, 'tue': 08:00-23:00, 'wed': 08:00-23:00, 'thu': 08:00-23:00, 'fri': 08:00-23:00, 'sat': 09:00-23:00, 'sun': 09:00-23:00",55.619574,37.752158,,['8 (800) 200-00-00Показать телефон'],"['https://ok.ru/alfabank', 'https://t.me/alfabank', 'https://vk.com/alfabank']",,,2024-06-24 12:14:37
248,180905792643,Альфа-Банк,"ул. Островского, 6, Геленджик",alfabank.ru,"'mon': 10:00-21:00, 'tue': 10:00-21:00, 'wed': 10:00-21:00, 'thu': 10:00-21:00, 'fri': 10:00-21:00, 'sat': 10:00-21:00, 'sun': 10:00-21:00",44.561552,38.078310,,['8 (800) 200-00-00Показать телефон'],"['https://ok.ru/alfabank', 'https://t.me/alfabank', 'https://vk.com/alfabank']",,,2024-06-24 12:14:37
249,1751669622,Альфа-Банк,"Варшавское ш., 87Б, Москва",alfabank.ru,"'mon': 00:00-23:59, 'tue': 00:00-23:59, 'wed': 00:00-23:59, 'thu': 00:00-23:59, 'fri': 00:00-23:59, 'sat': 00:00-23:59, 'sun': 00:00-23:59",55.653644,37.620699,,['8 (800) 200-00-00Показать телефон'],"['https://ok.ru/alfabank', 'https://t.me/alfabank', 'https://vk.com/alfabank']",,,2024-06-24 12:14:37
250,57421056382,Альфа-Банк,"Трёхгорная ул., 98, Хабаровск",alfabank.ru,"'mon': 10:00-20:00, 'tue': 10:00-20:00, 'wed': 10:00-20:00, 'thu': 10:00-20:00, 'fri': 10:00-20:00, 'sat': 10:00-20:00, 'sun': 10:00-20:00",C48.54615,135.05406,,['8 (800) 200-00-00Показать телефон'],"['https://ok.ru/alfabank', 'https://t.me/alfabank', 'https://vk.com/alfabank']",,,2024-06-24 12:14:37
251,1302640044,Альфа-Банк,"ул. 20-я Линия, 65Б, Омск",alfabank.ru,"'mon': 08:00-22:00, 'tue': 08:00-22:00, 'wed': 08:00-22:00, 'thu': 08:00-22:00, 'fri': 08:00-22:00, 'sat': 08:00-22:00, 'sun': 08:00-22:00",54.986160,73.425336,,['8 (800) 100-77-33Показать телефон'],"['https://ok.ru/alfabank', 'https://t.me/alfabank', 'https://vk.com/alfabank']",,,2024-06-24 12:14:37
252,1746098523,Альфа-Банк,"Привокзальная площадь, 5, Голицыно",alfabank.ru,"'mon': 10:00-21:00, 'tue': 10:00-21:00, 'wed': 10:00-21:00, 'thu': 10:00-21:00, 'fri': 10:00-21:00, 'sat': 10:00-21:00, 'sun': 10:00-21:00",55.616275,36.988267,,['8 (800) 200-00-00Показать телефон'],"['https://ok.ru/alfabank', 'https://t.me/alfabank', 'https://vk.com/alfabank']",,,2024-06-24 12:14:37
253,1067366497,Альфа-Банк,"Советская ул., 12, Нижний Новгород",alfabank.ru,"'mon': 08:00-22:00, 'tue': 08:00-22:00, 'wed': 08:00-22:00, 'thu': 08:00-22:00, 'fri': 08:00-22:00, 'sat': 08:00-22:00, 'sun': 08:00-22:00",56.326035,43.958789,,['8 (800) 200-00-00Показать телефон'],"['https://ok.ru/alfabank', 'https://t.me/alfabank', 'https://vk.com/alfabank']",,,2024-06-24 12:14:37
254,187263198235,Альфа-Банк,"ул. Покрышкина, 4, Москва",alfabank.ru,"'mon': 08:00-23:00, 'tue': 08:00-23:00, 'wed': 08:00-23:00, 'thu': 08:00-23:00, 'fri': 08:00-23:00, 'sat': 08:00-23:00, 'sun': 08:00-23:00",55.665081,37.481496,,['8 (800) 200-00-00Показать телефон'],"['https://ok.ru/alfabank', 'https://t.me/alfabank', 'https://vk.com/alfabank']",,,2024-06-24 12:14:37
255,82436312623,Альфа-Банк,"площадь Тверская Застава, 7, Москва",alfabank.ru,"'mon': 00:00-23:59, 'tue': 00:00-23:59, 'wed': 00:00-23:59, 'thu': 00:00-23:59, 'fri': 00:00-23:59, 'sat': 00:00-23:59, 'sun': 00:00-23:59",55.776882,37.581352,,['8 (800) 200-00-00Показать телефон'],"['https://ok.ru/alfabank', 'https://t.me/alfabank', 'https://vk.com/alfabank']",,,2024-06-24 12:14:37
256,106467766254,Альфа-Банк,"ул. Горького, 2, Калининград",alfabank.ru,"'mon': 08:00-02:00, 'tue': 08:00-02:00, 'wed': 08:00-02:00, 'thu': 08:00-02:00, 'fri': 08:00-02:00, 'sat': 08:00-02:00, 'sun': 08:00-02:00",54.721505,20.508448,,['8 (800) 200-00-00Показать телефон'],"['https://ok.ru/alfabank', 'https://t.me/alfabank', 'https://vk.com/alfabank']",,,2024-06-24 12:14:37
257,1681535432,Альфа-Банк,"Краснополянская ул., 26, Волгоград",alfabank.ru,"'mon': 08:00-22:00, 'tue': 08:00-22:00, 'wed': 08:00-22:00, 'thu': 08:00-22:00, 'fri': 08:00-22:00, 'sat': 08:00-22:00, 'sun': 08:00-22:00",48.765138,44.478886,,['8 (800) 200-00-00Показать телефон'],"['https://ok.ru/alfabank', 'https://t.me/alfabank', 'https://vk.com/alfabank']",,,2024-06-24 12:14:37
258,1118067114,Альфа-Банк,"просп. Космонавтов, 48, Екатеринбург",alfabank.ru,"'mon': 08:00-23:00, 'tue': 08:00-23:00, 'wed': 08:00-23:00, 'thu': 08:00-23:00, 'fri': 08:00-23:00, 'sat': 09:00-23:00, 'sun': 09:00-23:00",56.889577,60.614489,,['8 (800) 200-00-00Показать телефон'],"['https://ok.ru/alfabank', 'https://t.me/alfabank', 'https://vk.com/alfabank']",,,2024-06-24 12:14:37
259,1686107005,Альфа-Банк,"Рублёвское ш., 62, Москва",alfabank.ru,"'mon': 08:30-23:00, 'tue': 08:30-23:00, 'wed': 08:30-23:00, 'thu': 08:30-23:00, 'fri': 08:30-23:00, 'sat': 08:00-23:00, 'sun': 08:00-23:00",55.766218,37.380876,,['8 (800) 200-00-00Показать телефон'],"['https://ok.ru/alfabank', 'https://t.me/alfabank', 'https://vk.com/alfabank']",,,2024-06-24 12:14:37
260,31125855179,Альфа-Банк,"ул. Скульптора Мухиной, 12, Москва",alfabank.ru,"'mon': 08:00-00:00, 'tue': 08:00-00:00, 'wed': 08:00-00:00, 'thu': 08:00-00:00, 'fri': 08:00-00:00, 'sat': 08:00-00:00, 'sun': 08:00-00:00",55.639750,37.341592,,['8 (800) 200-00-00Показать телефон'],"['https://ok.ru/alfabank', 'https://t.me/alfabank', 'https://vk.com/alfabank']",,,2024-06-24 12:14:37
261,19733617303,Альфа-Банк,"ул. Первой Пятилетки, 6, Челябинск",alfabank.ru,"'mon': 10:00-19:00, 'tue': 10:00-19:00, 'wed': 10:00-19:00, 'thu': 10:00-19:00, 'fri': 10:00-19:00, 'sat': 10:00-19:00, 'sun': 10:00-19:00",55.166732,61.457216,,['8 (800) 100-77-33Показать телефон'],"['https://ok.ru/alfabank', 'https://t.me/alfabank', 'https://vk.com/alfabank']",,,2024-06-24 12:14:37
262,1149132078,Альфа-Банк,"ул. Лермонтова, 135, Каменск-Уральский",alfabank.ru,"'mon': 09:00-23:00, 'tue': 09:00-23:00, 'wed': 09:00-23:00, 'thu': 09:00-23:00, 'fri': 09:00-23:00, 'sat': 09:00-23:00, 'sun': 09:00-23:00",56.433621,61.849259,,['8 (800) 200-00-00Показать телефон'],"['https://ok.ru/alfabank', 'https://t.me/alfabank', 'https://vk.com/alfabank']",,,2024-06-24 12:14:37
263,1730218327,Альфа-Банк,"ул. Некрасова, 9, Казань",alfabank.ru,"'mon': 08:00-00:00, 'tue': 08:00-00:00, 'wed': 08:00-00:00, 'thu': 08:00-00:00, 'fri': 08:00-00:00, 'sat': 08:00-00:00, 'sun': 08:00-00:00",55.788500,49.126204,,['8 (800) 200-00-00Показать телефон'],"['https://ok.ru/alfabank', 'https://t.me/alfabank', 'https://vk.com/alfabank']",,,2024-06-24 12:14:37
