,ID,name,address,website,opening_hours,lat,lon,rating,phone,social,Персонал,Время ожидания,Кредит,Банкомат,Расположение,Ремонт,График работы,Ипотека,load_time
0,{bank_name}/36175851030,Альфа-Банк,"Московское ш., 41, Самара",alfabank.ru,"'mon': 10:00-19:00, 'tue': 10:00-19:00, 'wed': 10:00-19:00, 'thu': 10:00-19:00, 'fri': 10:00-19:00, 'sat': выходной, 'sun': выходной",53.223129,50.191812,"4,6",['8 (800) 200-00-00Показать телефон'],"['https://ok.ru/alfabank', 'https://t.me/alfabank', 'https://vk.com/alfabank', 'https://www.youtube.com/user/alfabankru']",78,82,71,91,91,,,,2024-08-06 12:31:17
1,{bank_name}/114949527086,Альфа-Банк,"ул. Гагарина, 64, Самара",alfabank.ru,"'mon': 09:00-19:00, 'tue': 09:00-19:00, 'wed': 09:00-19:00, 'thu': 09:00-19:00, 'fri': 09:00-19:00, 'sat': выходной, 'sun': выходной",53.200970,50.188498,"4,4",['8 (800) 200-00-00Показать телефон'],"['https://ok.ru/alfabank', 'https://t.me/alfabank', 'https://vk.com/alfabank', 'https://www.youtube.com/user/alfabankru']",69,72,68,,100,,,,2024-08-06 12:31:17
2,{bank_name}/56970827519,Альфа-Банк,"Воронежская ул., 3, Самара",alfabank.ru,"'mon': 09:00-19:00, 'tue': 09:00-19:00, 'wed': 09:00-19:00, 'thu': 09:00-19:00, 'fri': 09:00-19:00, 'sat': 10:00-16:00, 'sun': выходной",53.215995,50.256670,"4,4",['8 (800) 200-00-00Показать телефон'],"['https://ok.ru/alfabank', 'https://t.me/alfabank', 'https://vk.com/alfabank', 'https://www.youtube.com/user/alfabankru']",73,59,69,67,96,100,57,,2024-08-06 12:31:17
3,{bank_name}/172409579033,Альфа-Банк,"ул. Мичурина, 19В, Самара",alfabank.ru,"'mon': 09:00-19:00, 'tue': 09:00-19:00, 'wed': 09:00-19:00, 'thu': 09:00-19:00, 'fri': 09:00-19:00, 'sat': 10:00-15:00, 'sun': выходной",53.203451,50.140500,"4,3",['8 (800) 200-00-00Показать телефон'],"['https://ok.ru/alfabank', 'https://t.me/alfabank', 'https://vk.com/alfabank', 'https://www.youtube.com/user/alfabankru']",77,76,61,68,75,,,,2024-08-06 12:31:17
4,{bank_name}/214335329955,Альфа-Банк,"ул. Агибалова, 76, Самара",alfabank.ru,"'mon': 10:00-19:00, 'tue': 10:00-19:00, 'wed': 10:00-19:00, 'thu': 10:00-19:00, 'fri': 10:00-19:00, 'sat': выходной, 'sun': выходной",53.193634,50.121915,"4,4",['8 (800) 200-00-00Показать телефон'],"['https://ok.ru/alfabank', 'https://t.me/alfabank', 'https://vk.com/alfabank', 'https://www.youtube.com/user/alfabankru']",79,68,60,87,100,77,67,,2024-08-06 12:31:17
5,{bank_name}/237662984022,Альфа-Банк,"Садовая ул., 256, Самара",alfabank.ru,"'mon': 09:00-18:00, 'tue': 09:00-18:00, 'wed': 09:00-18:00, 'thu': 09:00-18:00, 'fri': 09:00-16:45, 'sat': выходной, 'sun': выходной",53.202421,50.120127,"4,8",['8 (800) 200-00-00Показать телефон'],"['https://ok.ru/alfabank', 'https://t.me/alfabank', 'https://vk.com/alfabank', 'https://www.youtube.com/user/alfabankru']",96,98,92,,,,,78,2024-08-06 12:31:17
6,{bank_name}/24250231930,Альфа-Банк,"ул. Миронова, 3, Новокуйбышевск",alfabank.ru,"'mon': 10:00-19:00, 'tue': 10:00-19:00, 'wed': 10:00-19:00, 'thu': 10:00-19:00, 'fri': 10:00-19:00, 'sat': выходной, 'sun': выходной",53.096533,49.949501,"4,4",['8 (800) 200-00-00Показать телефон'],"['https://ok.ru/alfabank', 'https://t.me/alfabank', 'https://vk.com/alfabank', 'https://www.youtube.com/user/alfabankru']",100,93,,,,,,,2024-08-06 12:31:17
7,{bank_name}/49305516182,Альфа-Банк,"ул. Гагарина, 14, Тольятти",alfabank.ru,"'mon': 10:00-19:00, 'tue': 10:00-19:00, 'wed': 10:00-19:00, 'thu': 10:00-19:00, 'fri': 10:00-19:00, 'sat': выходной, 'sun': выходной",53.511665,49.421444,"4,4",['8 (800) 200-00-00Показать телефон'],"['https://ok.ru/alfabank', 'https://t.me/alfabank', 'https://vk.com/alfabank', 'https://www.youtube.com/user/alfabankru']",76,57,64,71,93,,,,2024-08-06 12:31:17
