ID,name,address,website,opening_hours,ypage,lat,lon,rating,phone,social
158072099704,Альфа-Банк,"Павловский тракт, 251А, Барнаул",,,,53.342936,83.680396,"4,8",,
64447174094,Альфа-Банк,"ул. Антона Петрова, 219Б, Барнаул",,,,53.359055,83.697679,"4,4",,
101800212967,Альфа-Банк,"Красноармейский просп., 58Б, Барнаул",,,,53.33771,83.775095,"4,7",,
9028783175,Альфа-Банк,"Социалистический просп., 130, Барнаул",,,,53.34979,83.763669,"4,7",,
150990504689,Альфа-Банк,"просп. Ленина, 58, Барнаул",,,,53.348156,83.777548,"4,4",,
161086873792,Альфа-Банк,"просп. Ленина, 106, Барнаул",,,,53.365434,83.758926,"4,6",,
187227407399,Альфа-Банк,"Октябрьская ул., 13, Новоалтайск",,,,53.392372,83.934528,"3,6",,
