,ID,name,address,website,opening_hours,ypage,lat,lon,rating,phone,social
0,136096492200,Альфа-Банк,"Всеволожский просп., 29, Всеволожск",,,,60.018569,30.646511,"3,7",,
1,88699231578,Альфа-Банк,"просп. Просвещения, 84, корп. 1, Санкт-Петербург",,,,60.036830,30.415554,"4,2",,
2,1002389822,Альфа-Банк,"Лиговский просп., 73, Санкт-Петербург",,,,59.925737,30.357074,"4,2",,
3,1047989075,Альфа-Банк,"Новочеркасский просп., 43/17, Санкт-Петербург",,,,59.928217,30.411260,"4,3",,
4,1217113671,Альфа-Банк,"ул. Академика Лебедева, 31, корп. 2, Санкт-Петербург",,,,59.958999,30.354011,"4,2",,
5,233849538090,Альфа-Банк,"Фурштатская ул., 40, Санкт-Петербург",,,,59.945387,30.360838,"4,3",,
6,110155439929,Альфа-Банк,"просп. Науки, 14, корп. 1, Санкт-Петербург",,,,60.012229,30.402942,"4,2",,
