,ID,name,address,website,opening_hours,ypage,lat,lon,rating,phone,social
0,12583386867,Альфа-Банк,"площадь Победы, 4, Калининград",,,,54.720747,20.499829,"4,4",,
1,27281914550,Альфа-Банк,"бул. Любови Шевцовой, 1А, Калининград",,,,54.671597,20.501711,"4,4",,
2,25548728328,Альфа-Банк,"ул. Шевченко, 11А, Калининград",,,,54.711619,20.511044,"4,3",,
3,202407280054,Альфа-Банк,"Пражский бул., 2, Гурьевск",,,,54.776441,20.615887,"4,2",,
4,71601412216,Альфа-Банк,"ул. Куйбышева, 2, Калининград",,,,54.725883,20.528580,"4,8",,
5,153799713671,Альфа-Банк,"Советская ул., 13, г. Светлый",,,,54.673809,20.133051,,,
