,ID,name,address,website,opening_hours,ypage,lat,lon,rating,phone,social
0,41167571596,Альфа-Банк,"ул. Дубровинского, 52А, Красноярск",,,,56.009914,92.888809,"4,6",,
1,206336961671,Альфа-Банк,"ул. Копылова, 66, Красноярск",,,,56.012707,92.814390,"4,7",,
2,39115879038,Альфа-Банк,"ул. Горького, 10, Красноярск",,,,56.012073,92.848961,"4,4",,
3,203153136684,Альфа-Банк,"просп. имени Газеты Красноярский Рабочий, 199, Красноярск",,,,55.990786,92.887821,"4,4",,
4,1047364179,Альфа-Банк,"Высотная ул., 1, Красноярск",,,,56.019380,92.792250,"4,4",,
5,1229616895,Альфа-Банк,"просп. Мира, 10, Красноярск",,,,56.013976,92.891388,"4,5",,
6,37150720138,Альфа-Банк,"Взлётная ул., 18, Красноярск",,,,56.034375,92.911079,"4,1",,
7,1302527671,Альфа-Банк,"просп. имени Газеты Красноярский Рабочий, 35, Красноярск",,,,56.011676,92.971033,"4,4",,
