ID,name,address,website,opening_hours,ypage,lat,lon,rating,phone,social
1149601664,Альфа-Банк,"ул. Ленина, 38Б, Красногорск",,,,55.834076,37.298965,"4,3",,
1187257904,Альфа-Банк,"Митинская ул., 36, корп. 1, Москва",,,,55.846699,37.361947,"4,3",,
110845028159,Альфа-Банк,"бул. Яна Райниса, 1, Москва",,,,55.849838,37.436139,"4,4",,
96765425134,Альфа-Банк,"Авиационная ул., 66, Москва",,,,55.809687,37.460097,"4,5",,
135440115187,Альфа-Банк,"Фестивальная ул., 13, корп. 1, Москва",,,,55.85581,37.477103,"4,3",,
76465325675,Альфа-Банк,"просп. Мельникова, 2Б, Химки",,,,55.901183,37.407538,"4,4",,
222223290626,Альфа-Банк,"Звенигородское ш., 18/20к1, Москва",,,,55.764324,37.556118,"4,3",,
