ID,name,address,website,opening_hours,ypage,lat,lon,rating,phone,social
36175851030,Альфа-Банк,"Московское ш., 43, Самара",,,,53.22246,50.191364,"4,5",,
114949527086,Альфа-Банк,"ул. Гагарина, 64, Самара",,,,53.20097,50.188498,"4,4",,
56970827519,Альфа-Банк,"Воронежская ул., 3, Самара",,,,53.215995,50.25667,"4,4",,
172409579033,Альфа-Банк,"ул. Мичурина, 19В, Самара",,,,53.203451,50.1405,"4,3",,
214335329955,Альфа-Банк,"ул. Агибалова, 76, Самара",,,,53.193634,50.121915,"4,4",,
237662984022,Альфа-Банк,"Садовая ул., 256, Самара",,,,53.202421,50.120127,"4,7",,
24250231930,Альфа-Банк,"ул. Миронова, 3, Новокуйбышевск",,,,53.096533,49.949501,"4,1",,
49305516182,Альфа-Банк,"ул. Гагарина, 14, Тольятти",,,,53.511665,49.421444,"4,3",,
