ID,name,address,website,opening_hours,ypage,lat,lon,rating,phone,social
203369574816,Альфа-Банк,"ул. Республики, 162, Тюмень",,,,57.133442,65.576,"4,3",,
1134981333,Альфа-Банк,"ул. Ленина, 57А, Тюмень",,,,57.154313,65.534696,"4,4",,
1403139411,Альфа-Банк,"ул. 50 лет Октября, 3, корп. 1, Тюмень",,,,57.153107,65.568922,"4,6",,
47620196192,Альфа-Банк,"ул. Пермякова, 23А, Тюмень",,,,57.118793,65.580376,"4,3",,
1077652211,Альфа-Банк,"ул. 8 Марта, 2/13, Тюмень",,,,57.155103,65.544183,"4,7",,
1311286975,Альфа-Банк,"ул. Газовиков, 65, Тюмень",,,,57.17159,65.557397,"4,7",,
207618799958,Альфа-Банк,"Советская ул., 55, Тюмень",,,,57.155279,65.547946,"5,0",,
117150122963,Альфа-Банк,"ул. Республики, 155, Тюмень",,,,57.137681,65.571033,"4,1",,
